     2.11           OBSERVATION DATA    G (GPS)             RINEX VERSION / TYPE
teqc  2018Jun8                          20210202 03:10:46UTCPGM / RUN BY / DATE
Linux2.6.32-573.12.1.el6.x86_64|x86_64|gcc|Win64-MinGW64|=+ COMMENT
BIT 2 OF LLI FLAGS DATA COLLECTED UNDER A/S CONDITION       COMMENT
-Unknown-                                                   MARKER NAME
CRNO                                                        MARKER NUMBER
-Unknown-           -Unknown-                               OBSERVER / AGENCY
-Unknown-           ASHTECH             -Unknown-           REC # / TYPE / VERS
-Unknown-           -Unknown-                               ANT # / TYPE
   408077.6788 -6158373.7079  1605161.2606                  APPROX POSITION XYZ
        0.0000        0.0000        0.0000                  ANTENNA: DELTA H/E/N
     1     1                                                WAVELENGTH FACT L1/2
     7    L1    L2    C1    P1    P2    S1    S2            # / TYPES OF OBSERV
    30.0000                                                 INTERVAL
Forced Modulo Decimation to 30 seconds                      COMMENT
 SNR is mapped to RINEX snr flag value [1-9]                COMMENT
  L1: 1 -> 1;  90 -> 5; 210 -> 9                            COMMENT
  L2: 1 -> 1; 150 -> 5; 250 -> 9                            COMMENT
pseudorange smoothing corrections not applied               COMMENT
  2021     2     6     0     0   30.0000000     GPS         TIME OF FIRST OBS
                                                            END OF HEADER
 21  2  6  0  0 30.0000000  0  9G07G21G30G17G27G01G08G09G04
 -14664115.16548 -11407156.80747  21670133.840    21670133.5464   21670138.4944
       194.0004        194.0004
 -12588495.27848  -9797176.05346  21768592.047    21768591.7544   21768597.7504
       182.0004        182.0004
  -4413488.73547  -3410559.81045  23722469.973    23722470.3164   23722476.4764
       157.0004        158.0004
  -2019709.64647  -1226544.46345  24005855.851    24005856.7244   24005861.9304
       149.0004        151.0004
  -2879129.19948  -2220357.15346  24487995.585    24487994.7284   24488002.3394
       168.0004        169.0004
 -13635075.91248 -10614571.96146  22056863.777    22056864.6434   22056873.0264
       179.0004        179.0004
 -17039291.80949 -13214823.86647  21458931.766    21458931.7884   21458938.6494
       208.0004        211.0004
 -17744969.74849 -13803281.10247  21042249.037    21042249.0534   21042256.2134
       208.0004        209.0004
 -11392534.11248  -8861871.28246  22179949.398    22179949.9804   22179955.9694
       181.0004        180.0004
 21  2  6  0  1  0.0000000  0  9G07G21G30G17G27G01G08G09G04
 -14736178.00148 -11463309.64847  21656419.903    21656420.4134   21656425.0834
       194.0004        194.0004
 -12599232.92848  -9805543.03846  21766548.644    21766548.7454   21766555.0604
       182.0004        182.0004
  -4500756.20747  -3478560.43145  23705863.167    23705863.8114   23705870.9984
       156.0004        157.0004
  -2114480.55447  -1300391.89145  23987822.511    23987823.0734   23987826.5724
       149.0004        152.0004
  -2770499.09148  -2135710.36746  24508666.669    24508665.9314   24508673.4774
       167.0004        168.0004
 -13706806.77348 -10670466.11946  22043213.747    22043214.0874   22043222.3954
       178.0004        179.0004
 -16960392.56049 -13153343.93247  21473946.729    21473946.6194   21473952.3354
       213.0004        211.0004
 -17705959.54549 -13772883.54747  21049671.962    21049672.4074   21049679.2554
       208.0004        208.0004
 -11301912.72948  -8791257.22546  22197193.355    22197193.5494   22197199.8134
       181.0004        181.0004
 21  2  6  0  1 30.0000000  0  9G07G21G30G17G27G01G08G09G04
 -14808115.12548 -11519364.53047  21642731.696    21642732.0424   21642735.8094
       194.0004        194.0004
 -12609528.63148  -9813565.64046  21764590.232    21764589.7424   21764595.0974
       182.0004        181.0004
  -4588076.56047  -3546602.22345  23689247.819    23689247.0894   23689254.4784
       156.0004        158.0004
  -2209005.85947  -1374047.91245  23969834.693    23969835.4334   23969840.1414
       152.0004        155.0004
  -2661859.75448  -2051056.31146  24529338.205    24529339.7274   24529345.5794
       166.0004        167.0004
 -13778337.58748 -10726204.37746  22029601.124    22029601.8004   22029609.3924
       178.0004        178.0004
 -16881196.37249 -13091632.59748  21489017.074    21489017.0284   21489022.7974
       221.0004        225.0004
 -17666477.85649 -13742118.58947  21057185.578    21057185.8564   21057193.0274
       208.0004        209.0004
 -11211078.94048  -8720477.66346  22214479.824    22214480.1054   22214484.9884
       180.0004        180.0004
 21  2  6  0  2  0.0000000  0  9G07G21G30G17G27G01G08G09G04
 -14879924.59548 -11575319.95947  21629066.220    21629066.8974   21629070.9714
       194.0004        195.0004
 -12619381.67248  -9821243.32146  21762715.375    21762714.8984   21762719.9654
       181.0004        181.0004
  -4675448.43547  -3614684.20245  23672621.763    23672621.8494   23672628.5004
       157.0004        160.0004
  -2303283.47847  -1447510.93445  23951894.446    23951894.9214   23951899.8014
       153.0004        155.0004
  -2553213.93048  -1966397.19746  24550010.138    24550012.9504   24550021.7654
       166.0004        166.0004
 -13849665.40948 -10781784.46946  22016028.270    22016028.7694   22016037.3324
       178.0004        179.0004
 -16801706.40649 -13029692.36348  21504142.105    21504142.9134   21504149.1924
       224.0004        224.0004
 -17626527.07649 -13710988.11547  21064788.094    21064788.0684   21064795.2634
       209.0004        209.0004
 -11120036.08748  -8649535.16946  22231803.618    22231803.9024   22231810.9054
       180.0004        180.0004
 21  2  6  0  2 30.0000000  0  9G07G21G30G17G27G01G08G09G04
 -14951602.89349 -11631173.16447  21615426.595    21615427.0404   21615431.5714
       195.0004        195.0004
 -12628789.48848  -9828574.07946  21760925.852    21760925.4554   21760929.7514
       182.0004        182.0004
  -4762869.50747  -3682804.49845  23655985.424    23655985.2844   23655993.1224
       158.0004        160.0004
  -2397310.71147  -1520778.81145  23934000.886    23934001.0664   23934006.6174
       152.0004        155.0004
  -2444563.41948  -1881734.51346  24570687.433    24570688.9594   24570697.0074
       166.0004        167.0004
 -13920786.32548 -10837203.34346  22002493.542    22002495.2324   22002502.9684
       178.0004        179.0004
 -16721925.10349 -12967525.10748  21519324.202    21519324.7064   21519331.6754
       225.0004        224.0004
 -17586108.77449 -13679493.32847  21072479.248    21072479.7004   21072486.7424
       209.0004        209.0004
 -11028786.48648  -8578431.59246  22249168.182    22249168.5314   22249174.2204
       180.0004        180.0004
 21  2  6  0  3  0.0000000  0  8G07G21G30G17G01G08G09G04
 -15023148.19649 -11686922.75147  21601812.568    21601812.2084   21601816.5444
       196.0004        196.0004
 -12637751.59748  -9835557.52746  21759219.986    21759219.4064   21759222.7854
       182.0004        183.0004
  -4850338.71147  -3750962.32245  23639340.202    23639340.5814   23639347.9734
       159.0004        161.0004
  -2491086.37247  -1593850.65545  23916155.156    23916155.9934   23916162.6204
       153.0004        156.0004
 -13991697.74048 -10892458.96846  21989000.529    21989000.7734   21989009.1044
       178.0004        179.0004
 -16641855.79249 -12905133.43448  21534561.250    21534561.3314   21534568.5084
       225.0004        225.0004
 -17545225.86949 -13647636.52447  21080258.494    21080259.2784   21080266.1924
       208.0004        209.0004
 -10937333.92448  -8507169.87046  22266570.872    22266571.0904   22266578.3734
       180.0004        180.0004
 21  2  6  0  3 30.0000000  0  9G07G14G21G30G17G01G08G09G04
 -15094557.65349 -11742566.47347  21588223.127    21588223.6774   21588227.8394
       196.0004        195.0004
   -168100.66754   -123810.48343  23613527.519
        74.0004         74.0004
 -12646266.06848  -9842192.16846  21757599.621    21757599.1024   21757603.0914
       182.0004        181.0004
  -4937853.93147  -3819155.96545  23622685.875    23622685.9004   23622693.9184
       159.0004        161.0004
  -2584607.95047  -1666724.56045  23898359.926    23898359.2164   23898365.7764
       154.0004        156.0004
 -14062395.97648 -10947548.46546  21975547.818    21975547.6484   21975555.0294
       178.0004        179.0004
 -16561501.16749 -12842519.43848  21549852.144    21549852.2784   21549859.4954
       225.0004        224.0004
 -17503880.14049 -13615419.06547  21088126.916    21088127.1624   21088134.3274
       208.0004        209.0004
 -10845681.01648  -8435752.03046  22284012.450    22284012.7604   22284019.2134
       178.0004        177.0004
 21  2  6  0  4  0.0000000  0  9G07G14G21G30G17G01G08G09G04
 -15165828.48549 -11798102.16947  21574660.813    21574661.0054   21574665.3084
       195.0004        195.0004
   -195462.23844   -145131.62045  23608318.990
        74.0004        140.0004
 -12654331.11348  -9848476.60646  21756064.051    21756063.8844   21756068.9994
       181.0004        182.0004
  -5025413.25847  -3887383.95945  23606023.924    23606024.0924   23606031.3874
       158.0004        160.0004
  -2677873.00047  -1739398.55945  23880611.177    23880612.1864   23880617.5364
       154.0004        156.0004
 -14132877.56948 -11002469.15046  21962135.241    21962135.3024   21962143.4334
       179.0004        179.0004
 -16480864.19749 -12779685.42648  21565196.731    21565197.1654   21565203.7974
       225.0004        224.0004
 -17462073.65849 -13582842.59347  21096082.860    21096082.8574   21096089.8554
       209.0004        209.0004
 -10753830.64448  -8364180.30046  22301491.346    22301490.9744   22301497.2714
       177.0004        176.0004
 21  2  6  0  4 30.0000000  0  9G07G14G21G30G17G01G08G09G04
 -15236958.30149 -11853527.98747  21561125.312    21561125.5564   21561129.2834
       195.0004        195.0004
   -222765.73746   -166406.92245  23603124.360                    23603125.1184
       126.0004        144.0004
 -12661945.54248  -9854409.90346  21754616.124    21754615.2394   21754620.1604
       182.0004        182.0004
  -5113015.14547  -3955645.16046  23589355.020    23589354.7824   23589362.1284
       160.0004        163.0004
  -2770879.74547  -1811871.25245  23862913.245    23862912.9254   23862919.5944
       154.0004        156.0004
 -14203139.51948 -11057218.69846  21948763.711    21948765.2784   21948772.7444
       179.0004        180.0004
 -16399947.98949 -12716633.83048  21580594.776    21580594.9644   21580601.5424
       224.0004        223.0004
 -17419808.95349 -13549909.05847  21104125.386    21104125.5094   21104132.5864
       209.0004        208.0004
 -10661786.08248  -8292457.25446  22319006.614    22319007.4604   22319013.9304
       177.0004        178.0004
 21  2  6  0  5  0.0000000  0  9G07G14G21G30G17G01G08G09G04
 -15307944.95549 -11908842.26547  21547616.553    21547617.0604   21547621.2514
       195.0004        196.0004
   -250012.75847   -187638.32845  23597938.310    23597940.2674   23597943.4544
       137.0004        145.0004
 -12669108.71748  -9859991.58046  21753252.595    21753252.2994   21753257.0554
       183.0004        182.0004
  -5200658.28747  -4023938.48545  23572677.326    23572676.9594   23572684.2424
       160.0004        162.0004
  -2863626.52447  -1884141.35845  23845264.043    23845264.3404   23845269.6184
       155.0004        156.0004
 -14273178.91948 -11111794.81946  21935436.020    21935436.6014   21935445.6604
       179.0004        180.0004
 -16318755.94649 -12653367.29348  21596045.231    21596045.3224   21596052.2184
       223.0004        223.0004
 -17377088.65149 -13516620.51047  21112253.527    21112254.0884   21112261.7454
       208.0004        208.0004
 -10569550.76748  -8220585.58546  22336557.545    22336558.0974   22336564.6414
       177.0004        177.0004
 21  2  6  0  5 30.0000000  0  9G07G14G21G30G17G01G08G09G04
 -15378787.18149 -11964043.99447  21534135.838    21534136.0494   21534140.4394
       195.0004        195.0004
   -277206.09747   -208827.90745  23592765.723    23592765.4544   23592768.5964
       140.0004        144.0004
 -12675820.49348  -9865221.51446  21751976.455    21751975.3224   21751979.9994
       183.0004        183.0004
  -5288342.28847  -4092263.67346  23555991.472    23555991.2704   23555998.4254
       160.0004        163.0004
  -2956112.34247  -1956208.16945  23827663.426    23827664.5374   23827670.6864
       154.0004        156.0004
 -14342993.88648 -11166196.07646  21922150.939    21922151.1274   21922159.2414
       179.0004        180.0004
 -16237292.21749 -12589889.05848  21611547.245    21611547.4344   21611554.3634
       224.0004        223.0004
 -17333916.44949 -13482979.84247  21120470.197    21120470.4014   21120477.0914
       208.0004        208.0004
 -10477129.08348  -8148568.71046  22354143.417    22354144.1404   22354152.8104
       177.0004        176.0004
 21  2  6  0  6  0.0000000  0  9G07G14G21G30G17G01G08G09G04
 -15449481.44649 -12019130.43947  21520682.935    21520683.4354   21520688.0994
       195.0004        195.0004
   -304345.77147   -229975.67345  23587598.722    23587599.8324   23587609.1194
       145.0004        151.0004
 -12682077.98948  -9870097.46746  21750784.265    21750784.2594   21750790.2414
       183.0004        184.0004
  -5376064.07647  -4160618.29846  23539297.794    23539298.2634   23539305.1814
       162.0004        165.0004
  -3048334.28247  -2028069.33145  23810114.072    23810114.7724   23810120.9244
       153.0004        156.0004
 -14412579.86148 -11220418.88646  21908908.288    21908909.5464   21908917.4294
       179.0004        180.0004
 -16155558.83149 -12526200.70348  21627101.157    21627101.0804   21627107.7324
       224.0004        224.0004
 -17290293.36149 -13448987.82647  21128771.037    21128770.8984   21128778.0444
       208.0004        208.0004
 -10384522.77148  -8076407.96446  22371766.516    22371767.1754   22371775.4554
       176.0004        176.0004
 21  2  6  0  6 30.0000000  0  9G07G14G21G30G17G01G08G09G04
 -15520023.62649 -12074098.36747  21507259.261    21507259.8034   21507264.4514
       196.0004        196.0004
   -331431.65447   -251081.55645  23582445.881    23582445.9914   23582454.3794
       151.0004        155.0004
 -12687878.59448  -9874617.40546  21749679.757    21749679.6834   21749685.9234
       183.0004        183.0004
  -5463820.54247  -4228999.91746  23522597.711    23522598.6374   23522606.3974
       163.0004        165.0004
  -3140288.80047  -2099722.15645  23792616.914    23792617.0564   23792622.4124
       155.0004        157.0004
 -14481932.31748 -11274459.72646  21895711.876    21895712.2804   21895721.0014
       180.0004        181.0004
 -16073557.39249 -12462303.48348  21642705.767    21642705.4174   21642712.0884
       225.0004        224.0004
 -17246220.45549 -13414645.30547  21137157.829    21137158.2394   21137165.2364
       208.0004        208.0004
 -10291733.60248  -8004104.74346  22389425.650    22389425.5654   22389432.6394
       175.0004        175.0004
 21  2  6  0  7  0.0000000  0  9G07G14G21G30G17G01G08G09G04
 -15590411.98749 -12128946.42647  21493865.428    21493865.2644   21493869.7354
       196.0004        196.0004
   -358465.92047   -272147.22045  23577301.090    23577301.8554   23577309.3994
       154.0004        157.0004
 -12693221.88548  -9878780.99146  21748663.410    21748663.3774   21748669.1944
       183.0004        183.0004
  -5551610.78447  -4297407.85246  23505892.000    23505892.9634   23505900.2224
       164.0004        166.0004
  -3231974.80547  -2171165.70345  23775168.115    23775168.9194   23775175.7764
       153.0004        155.0004
 -14551048.70748 -11328316.63146  21882559.582    21882560.3464   21882568.4344
       181.0004        183.0004
 -15991291.47049 -12398200.15948  21658358.735    21658359.6824   21658366.4774
       224.0004        222.0004
 -17201700.82449 -13379954.67547  21145629.484    21145629.8534   21145637.2204
       208.0004        208.0004
 -10198765.37348  -7931661.96146  22407116.837    22407117.0884   22407123.0554
       176.0004        177.0004
 21  2  6  0  7 30.0000000  0  9G07G14G21G30G17G01G08G09G04
 -15660642.51649 -12183671.51547  21480500.519    21480501.3084   21480505.1854
       196.0004        196.0004
   -385448.78047   -293172.79645  23572167.001    23572167.7954   23572173.1644
       155.0004        158.0004
 -12698105.73648  -9882586.56846  21747735.378    21747734.5874   21747739.8114
       183.0004        183.0004
  -5639431.82147  -4365839.78446  23489180.870    23489180.8804   23489187.5464
       164.0004        165.0004
  -3323389.38047  -2242397.74945  23757772.841    23757772.0434   23757779.3844
       151.0004        153.0004
 -14619924.73348 -11381986.23646  21869451.683    21869452.6474   21869461.8134
       181.0004        181.0004
 -15908763.20649 -12333892.40748  21674063.130    21674063.9404   21674071.3164
       223.0004        221.0004
 -17156735.77249 -13344916.96847  21154185.849    21154186.4734   21154193.8724
       209.0004        209.0004
 -10105620.11348  -7859081.23746  22424841.189    22424841.4884   22424847.2384
       176.0004        175.0004
 21  2  6  0  8  0.0000000  0  9G07G14G21G30G17G01G08G09G04
 -15730714.12249 -12238272.77547  21467166.891    21467167.4654   21467171.0954
       197.0004        197.0004
   -412382.64147   -314160.20445  23567041.720    23567042.2834   23567046.2334
       154.0004        156.0004
 -12702529.89348  -9886033.95546  21746893.831    21746891.6664   21746896.9344
       183.0004        183.0004
  -5727282.95847  -4434295.21246  23472463.615    23472463.7784   23472470.1084
       164.0004        165.0004
  -3414531.32347  -2313417.37445  23740429.227    23740430.1514   23740435.4454
       153.0004        157.0004
 -14688558.27648 -11435466.89846  21856391.412    21856392.7294   21856400.5984
       181.0004        181.0004
 -15825976.54949 -12269383.32848  21689817.915    21689818.0714   21689825.2684
       223.0004        222.0004
 -17111328.75549 -13309534.89147  21162826.830    21162827.2654   21162834.3434
       209.0004        209.0004
 -10012301.91348  -7786365.77446  22442598.876    22442599.7154   22442605.3834
       175.0004        175.0004
 21  2  6  0  8 30.0000000  0  9G07G14G21G30G17G01G08G09G04
 -15800623.33449 -12292747.47647  21453863.085    21453863.6714   21453868.1184
       197.0004        198.0004
   -439268.12847   -335109.90545  23561924.268    23561925.3214   23561930.1494
       153.0004        156.0004
 -12706492.67948  -9889121.82746  21746138.161    21746137.5764   21746142.4374
       182.0004        182.0004
  -5815161.65947  -4502772.10046  23455740.362    23455740.5774   23455747.9504
       164.0004        166.0004
  -3505398.07747  -2384222.56145  23723138.348    23723138.8834   23723143.2434
       154.0004        157.0004
 -14756945.31048 -11488755.47846  21843377.869    21843378.8474   21843387.1624
       181.0004        182.0004
 -15742933.93349 -12204674.80148  21705621.362    21705621.2544   21705627.6464
       223.0004        223.0004
 -17065481.52549 -13273809.76647  21171551.650    21171551.5984   21171558.8724
       209.0004        209.0004
  -9918813.14448  -7713517.37346  22460389.110    22460389.6494   22460396.3534
       175.0004        176.0004
 21  2  6  0  9  0.0000000  0  9G07G14G21G30G17G01G08G09G04
 -15870368.19049 -12347094.12047  21440590.561    21440591.4984   21440595.8224
       197.0004        197.0004
   -466107.00547   -356023.28545  23556818.002    23556819.0484   23556822.9254
       155.0004        158.0004
 -12709992.90448  -9891849.27146  21745471.470    21745471.6494   21745476.3614
       182.0004        182.0004
  -5903066.57347  -4571269.43046  23439012.527    23439012.5004   23439019.9894
       163.0004        163.0004
  -3595987.90347  -2454811.96145  23705899.086    23705899.7394   23705905.0514
       155.0004        157.0004
 -14825083.11048 -11541849.84846  21830412.363    21830412.3244   21830420.5644
       181.0004        182.0004
 -15659638.57849 -12139769.33048  21721472.427    21721472.0424   21721477.7064
       224.0004        222.0004
 -17019196.97249 -13237743.87847  21180358.456    21180359.0004   21180366.5794
       208.0004        208.0004
  -9825157.29748  -7640538.81046  22478211.875    22478212.1204   22478217.7104
       176.0004        175.0004
 21  2  6  0  9 30.0000000  0  9G07G14G21G30G17G01G08G09G04
 -15939945.76849 -12401310.41347  21427351.738    21427351.6714   21427355.3774
       198.0004        197.0004
   -492900.49947   -376901.29345  23551719.850    23551720.0214   23551724.8614
       156.0004        158.0004
 -12713029.44348  -9894215.37646  21744893.501    21744894.5484   21744898.2314
       183.0004        183.0004
  -5990995.97047  -4639785.80446  23422278.861    23422280.1674   23422286.6004
       162.0004        163.0004
  -3686298.97147  -2525184.10245  23688714.036    23688714.3534   23688720.2244
       158.0004        161.0004
 -14892968.45648 -11594747.49046  21817493.741    21817494.5034   21817502.7984
       181.0004        183.0004
 -15576093.44649 -12074669.21048  21737368.691    21737369.3104   21737376.1044
       222.0004        220.0004
 -16972477.50949 -13201339.09947  21189249.545    21189249.9454   21189256.6664
       208.0004        208.0004
  -9731337.42848  -7567432.42946  22496064.695    22496065.3444   22496071.6554
       175.0004        175.0004
 21  2  6  0 10  0.0000000  0  9G07G14G21G30G17G01G08G09G04
 -16009352.94749 -12455393.92647  21414142.788    21414143.5144   21414147.9014
       197.0004        197.0004
   -519649.15847   -397744.37845  23546629.004    23546628.9614   23546634.3534
       154.0004        156.0004
 -12715600.37748  -9896218.69646  21744405.585    21744404.8234   21744409.9794
       184.0004        185.0004
  -6078947.02247  -4708319.07946  23405543.965    23405543.9584   23405550.8444
       163.0004        166.0004
  -3776328.77547  -2595337.13845  23671582.811    23671582.7304   23671588.4014
       158.0004        159.0004
 -14960597.15648 -11647445.16446  21804624.838    21804625.4444   21804633.4064
       182.0004        184.0004
 -15492300.72249 -12009376.18748  21753313.976    21753314.2364   21753321.4934
       221.0004        221.0004
 -16925324.78249 -13164596.70847  21198223.014    21198222.6914   21198229.6194
       208.0004        208.0004
  -9637355.73848  -7494199.94046  22513948.904    22513948.7634   22513955.4574
       176.0004        176.0004
 21  2  6  0 10 30.0000000  0  9G07G14G21G30G17G01G08G09G04
 -16078588.02349 -12509343.31647  21400967.835    21400968.7974   21400972.4944
       197.0004        197.0004
   -546355.47747   -418554.46245  23541546.066    23541547.0344   23541552.7894
       154.0004        157.0004
 -12717705.83948  -9897859.30246  21744005.453    21744004.6794   21744009.7804
       185.0004        186.0004
  -6166919.12447  -4776868.73446  23388802.658    23388803.2984   23388810.3134
       164.0004        166.0004
  -3866076.31847  -2665270.21645  23654504.768    23654504.6354   23654509.3234
       157.0004        159.0004
 -15027967.28648 -11699941.33346  21791804.282    21791804.9764   21791813.8034
       183.0004        184.0004
 -15408264.60949 -11943893.50348  21769305.655    21769305.9484   21769312.8594
       222.0004        221.0004
 -16877742.50049 -13127519.58647  21207277.141    21207277.0524   21207284.1894
       208.0004        208.0004
  -9543216.51848  -7420844.70146  22531863.275    22531863.6354   22531870.5164
       176.0004        176.0004
 21  2  6  0 11  0.0000000  0  9G07G14G21G30G17G01G08G09G04
 -16147647.95849 -12563156.25547  21387827.223    21387827.5204   21387831.0574
       198.0004        199.0004
   -573020.11847   -439332.09945  23536472.463    23536473.4504   23536479.3244
       158.0004        162.0004
 -12719344.05648  -9899135.80746  21743692.879    21743692.4774   21743698.5444
       186.0004        186.0004
  -6254909.74647  -4845432.83845  23372058.302    23372058.7734   23372065.9134
       163.0004        162.0004
  -3955538.87247  -2734981.23345  23637479.039    23637479.8294   23637485.0044
       158.0004        160.0004
 -15095074.92348 -11752232.96946  21779034.685    21779035.1354   21779044.0414
       184.0004        184.0004
 -15323988.09849 -11878223.48748  21785342.926    21785343.5664   21785349.7774
       221.0004        220.0004
 -16829732.43949 -13090109.14447  21216413.001    21216413.5464   21216420.0254
       208.0004        208.0004
  -9448922.14048  -7347368.58046  22549807.439    22549807.2744   22549812.8684
       175.0004        174.0004
 21  2  6  0 11 30.0000000  0  9G07G14G21G30G17G01G08G09G04
 -16216529.55449 -12616830.23247  21374718.930    21374719.3824   21374723.0264
       198.0004        198.0004
   -599643.95147   -460077.91546  23531406.026    23531406.8814   23531412.4934
       162.0004        164.0004
 -12720513.40448  -9900046.98246  21743469.994    21743469.6064   21743476.2524
       186.0004        186.0004
  -6342916.69047  -4914009.68346  23355311.126    23355311.7534   23355318.7234
       161.0004        164.0004
  -4044714.27147  -2804468.46945  23620508.322    23620509.4904   23620515.0454
       158.0004        160.0004
 -15161916.45648 -11804317.25746  21766314.838    21766314.3304   21766323.3044
       183.0004        183.0004
 -15239473.39449 -11812367.87148  21801426.692    21801426.4454   21801432.6204
       221.0004        220.0004
 -16781296.78549 -13052367.08847  21225629.658    21225630.0904   21225637.5734
       207.0004        208.0004
  -9354475.31948  -7273773.65246  22567779.870    22567780.5584   22567786.2604
       175.0004        175.0004
 21  2  6  0 12  0.0000000  0  9G07G14G21G30G17G01G08G09G04
 -16285230.04849 -12670363.07747  21361645.836    21361646.1824   21361650.3234
       198.0004        198.0004
   -626227.99048   -480792.72246  23526347.526    23526348.7194   23526353.9334
       165.0004        166.0004
 -12721212.79348  -9900591.93747  21743337.073    21743337.4374   21743343.6404
       187.0004        188.0004
  -6430937.75347  -4982597.48046  23338561.659    23338562.7834   23338569.7574
       163.0004        165.0004
  -4133600.45647  -2873730.34145  23603594.598    23603595.0184   23603600.3804
       159.0004        161.0004
 -15228488.35648 -11856191.43946  21753645.732    21753646.7944   21753655.5104
       182.0004        183.0004
 -15154722.69349 -11746328.36548  21817553.912    21817553.8674   21817560.0384
       220.0004        219.0004
 -16732437.72849 -13014295.08647  21234926.970    21234927.6464   21234934.9594
       207.0004        208.0004
  -9259878.70848  -7200062.02246  22585780.057    22585781.0884   22585786.7214
       176.0004        176.0004
 21  2  6  0 12 30.0000000  0  9G07G14G21G30G17G01G08G09G04
 -16353747.65149 -12723753.41947  21348607.168    21348607.7774   21348611.4954
       198.0004        198.0004
   -652774.51748   -501478.31346  23521296.431    23521296.7114   23521302.0784
       165.0004        166.0004
 -12721441.89548  -9900770.43947  21743293.955    21743293.4934   21743300.4234
       188.0004        188.0004
  -6518971.93047  -5051195.50846  23321810.212    23321809.5504   23321816.6364
       164.0004        166.0004
  -4222196.55347  -2942766.19245  23586736.437    23586736.8384   23586740.2254
       158.0004        158.0004
 -15294788.34248 -11907853.75946  21741031.804    21741031.6114   21741038.3174
       184.0004        186.0004
 -15069740.32549 -11680108.35548  21833724.788    21833725.1014   21833731.8744
       220.0004        219.0004
 -16683158.77149 -12975895.91747  21244304.618    21244305.0864   21244312.6964
       207.0004        207.0004
  -9165136.33048  -7126236.81346  22603808.552    22603810.0574   22603816.3194
       175.0004        175.0004
 21  2  6  0 13  0.0000000  0  9G07G14G21G30G17G01G08G09G04
 -16422080.12649 -12776999.48647  21335603.179    21335603.9274   21335608.5204
       198.0004        198.0004
   -679285.08447   -522135.87146  23516250.923    23516251.5034   23516257.2394
       164.0004        165.0004
 -12721200.32848  -9900582.17147  21743339.666    21743339.0644   21743346.3844
       188.0004        188.0004
  -6607017.73447  -5119802.60246  23305054.247    23305054.3334   23305062.6084
       164.0004        166.0004
  -4310500.93847  -3011574.72145  23569930.225    23569931.1494   23569936.4164
       155.0004        157.0004
 -15360813.54548 -11959301.94546  21728465.993    21728467.1974   21728474.9244
       185.0004        185.0004
 -14984529.63149 -11613710.39648  21849940.064    21849940.2534   21849947.1494
       220.0004        219.0004
 -16633462.76649 -12937171.76147  21253761.617    21253761.8574   21253768.8874
       206.0004        206.0004
  -9070251.54448  -7052300.61746  22621865.720    22621865.8214   22621872.4554
       175.0004        175.0004
 21  2  6  0 13 30.0000000  0  9G07G14G21G30G17G01G08G09G04
 -16490222.60349 -12830097.50747  21322636.839    21322637.3034   21322641.5664
       198.0004        198.0004
   -705758.96247   -542764.84246  23511213.798    23511213.8214   23511219.2864
       162.0004        163.0004
 -12720484.73048  -9900024.53346  21743475.089    21743474.8564   21743482.6394
       188.0004        187.0004
  -6695071.07448  -5188415.56246  23288298.098    23288298.8904   23288307.1084
       165.0004        167.0004
  -4398509.16347  -3080152.51545  23553184.526    23553184.4714   23553189.7624
       157.0004        161.0004
 -15426558.62348 -12010531.83646  21715954.011    21715955.0304   21715964.0814
       184.0004        184.0004
 -14899091.40149 -11547135.15648  21866198.489    21866198.9064   21866205.5934
       220.0004        219.0004
 -16583350.19749 -12898123.00647  21263297.760    21263298.1564   21263305.7674
       206.0004        207.0004
  -8975225.30948  -6978254.21546  22639947.946    22639948.0344   22639954.4094
       174.0004        173.0004
 21  2  6  0 14  0.0000000  0  9G07G14G21G30G17G01G08G09G04
 -16558173.70649 -12883046.41347  21309705.783    21309706.4784   21309710.9464
       198.0004        198.0004
   -732198.49047   -563367.04046  23506182.898    23506183.2554   23506189.1224
       164.0004        166.0004
 -12719295.20248  -9899097.60346  21743701.686    21743700.9844   21743707.8184
       187.0004        186.0004
  -6783131.17047  -5257033.77146  23271542.330    23271542.0474   23271549.3374
       164.0004        165.0004
  -4486220.84547  -3148499.23945  23536493.454    23536493.0814   23536497.5204
       159.0004        161.0004
 -15492021.46248 -12061541.82946  21703497.927    21703498.0674   21703506.4834
       185.0004        186.0004
 -14813429.71849 -11480385.79948  21882499.098    21882499.4814   21882506.4004
       220.0004        219.0004
 -16532824.75349 -12858752.54347  21272912.186    21272912.7704   21272920.4314
       206.0004        207.0004
  -8880061.80148  -6904100.84846  22658057.258    22658058.0864   22658063.9844
       173.0004        174.0004
 21  2  6  0 14 30.0000000  0  9G07G14G21G30G17G01G08G09G04
 -16625931.27549 -12935844.50347  21296812.235    21296812.8094   21296817.1264
       199.0004        199.0004
   -758605.65448   -583944.01646  23501156.289    23501157.1864   23501162.9434
       165.0004        167.0004
 -12717631.43348  -9897801.15546  21744018.369    21744017.9124   21744024.3304
       186.0004        186.0004
  -6871196.70948  -5325656.25446  23254784.015    23254783.6844   23254790.8164
       166.0004        168.0004
  -4573635.10847  -3216614.17645  23519859.416    23519859.7164   23519863.3484
       159.0004        161.0004
 -15557199.56448 -12112329.95046  21691094.799    21691095.5174   21691104.0544
       185.0004        186.0004
 -14727548.33349 -11413465.24148  21898841.538    21898841.9074   21898848.8094
       219.0004        217.0004
 -16481889.68449 -12819062.88647  21282604.726    21282605.2464   21282612.6034
       206.0004        206.0004
  -8784764.68748  -6829843.36746  22676191.980    22676191.7264   22676198.7204
       173.0004        173.0004
 21  2  6  0 15  0.0000000  0  9G07G14G21G30G17G01G08G09G04
 -16693491.80149 -12988489.06747  21283955.760    21283956.1344   21283960.3474
       199.0004        199.0004
   -784980.71448   -604495.98646  23496138.153    23496138.2344   23496143.1134
       165.0004        165.0004
 -12715491.48648  -9896133.64946  21744425.814    21744424.9974   21744430.6924
       185.0004        185.0004
  -6959264.79248  -5394280.70346  23238022.326    23238023.6324   23238031.8944
       167.0004        169.0004
  -4660748.83047  -3284494.97145  23503283.241    23503282.8184   23503286.5714
       158.0004        159.0004
 -15622088.71148 -12162892.90946  21678747.365    21678747.0624   21678755.5834
       185.0004        186.0004
 -14641449.04849 -11346374.90348  21915225.585    21915226.0454   21915232.9284
       218.0004        217.0004
 -16430546.60949 -12779055.30247  21292374.772    21292375.1544   21292382.3824
       205.0004        205.0004
  -8689335.96948  -6755483.34446  22694350.874    22694351.5314   22694357.7874
       172.0004        172.0004
 21  2  6  0 15 30.0000000  0  9G07G14G21G30G17G01G08G09G04
 -16760853.09849 -13040978.38447  21271137.386    21271138.1934   21271142.1284
       199.0004        199.0004
   -811325.33048   -625024.22346  23491124.653    23491125.2714   23491131.0634
       165.0004        166.0004
 -12712874.76048  -9894094.61746  21744923.521    21744922.9794   21744928.1844
       184.0004        185.0004
  -7047333.78848  -5462905.86746  23221264.267    23221265.0634   23221272.4444
       166.0004        166.0004
  -4747560.34347  -3352140.24845  23486761.173    23486761.7984   23486767.6404
       155.0004        156.0004
 -15686686.04548 -12213228.47246  21666454.065    21666455.1964   21666463.1634
       185.0004        186.0004
 -14555135.00049 -11279117.20248  21931651.301    21931651.3684   21931657.9444
       218.0004        218.0004
 -16378798.48149 -12738732.07847  21302222.346    21302222.8634   21302229.9064
       205.0004        205.0004
  -8593779.02548  -6681023.39146  22712535.098    22712535.1944   22712541.8734
       170.0004        169.0004
 21  2  6  0 16  0.0000000  0  9G07G14G21G30G17G01G08G09G04
 -16828011.25049 -13093309.41147  21258357.428    21258357.8374   21258362.4624
       199.0004        199.0004
   -837639.72048   -645528.91546  23486117.394    23486118.5444   23486122.6614
       165.0004        166.0004
 -12709779.48848  -9891682.69846  21745512.576    21745512.1634   21745516.9304
       184.0004        184.0004
  -7135400.68848  -5531529.42046  23204506.293    23204506.9914   23204514.6844
       166.0004        168.0004
  -4834066.80547  -3419547.81545  23470298.559    23470300.2654   23470306.3194
       156.0004        160.0004
 -15750987.35548 -12263333.36446  21654218.450    21654218.4094   21654226.8144
       185.0004        185.0004
 -14468608.56849 -11211694.00548  21948117.025    21948116.9994   21948123.2024
       218.0004        217.0004
 -16326646.93249 -12698094.50147  21312146.839    21312147.2464   21312154.1214
       205.0004        205.0004
  -8498095.93748  -6606465.14146  22730742.780    22730743.2734   22730749.9674
       169.0004        169.0004
 21  2  6  0 16 30.0000000  0  9G07G14G21G30G17G01G08G09G04
 -16894964.52149 -13145480.79747  21245616.474    21245617.1524   21245621.5094
       199.0004        199.0004
   -863926.06547   -666011.75146  23481114.925    23481115.4414   23481121.9254
       164.0004        164.0004
 -12706205.78748  -9888897.98546  21746192.613    21746191.8984   21746196.2584
       182.0004        182.0004
  -7223464.41848  -5600150.47146  23187748.752    23187748.6084   23187756.3654
       169.0004        171.0004
  -4920267.88447  -3486717.43445  23453896.262    23453896.0724   23453903.5784
       158.0004        160.0004
 -15814990.34548 -12313205.81046  21642038.933    21642038.9514   21642047.3294
       185.0004        186.0004
 -14381873.23249 -11144108.02548  21964621.596    21964621.8514   21964628.9964
       218.0004        217.0004
 -16274095.48749 -12657145.33347  21322146.116    21322147.0194   21322154.3084
       205.0004        205.0004
  -8402290.53248  -6531811.61346  22748974.182    22748974.7254   22748980.5574
       169.0004        171.0004
 21  2  6  0 17  0.0000000  0  9G07G14G21G30G17G01G08G09G04
 -16961709.74849 -13197490.05447  21232915.789    21232916.6104   21232920.0854
       200.0004        200.0004
   -890185.13947   -686473.32746  23476117.719    23476118.5504   23476123.8964
       163.0004        164.0004
 -12702152.22548  -9885739.35346  21746964.381    21746963.6964   21746967.5854
       182.0004        182.0004
  -7311522.52248  -5668767.17746  23170992.943    23170992.7254   23170998.8144
       169.0004        170.0004
  -5006160.97847  -3553647.05545  23437551.190    23437551.0494   23437557.4474
       157.0004        158.0004
 -15878691.31348 -12362842.91446  21629916.561    21629917.3044   21629925.4314
       185.0004        185.0004
 -14294931.62449 -11076361.30948  21981166.021    21981166.1524   21981173.6334
       217.0004        216.0004
 -16221146.37449 -12615886.27147  21332222.377    21332223.0714   21332230.7964
       205.0004        206.0004
  -8306365.40348  -6457064.78446  22767228.790    22767228.9204   22767234.7944
       170.0004        170.0004
 21  2  6  0 17 30.0000000  0  9G07G14G21G30G17G01G08G09G04
 -17028244.99849 -13249335.70447  21220255.030    21220255.0694   21220259.3034
       200.0004        201.0004
   -916419.05447   -706915.33846  23471126.339    23471126.5624   23471131.7304
       162.0004        164.0004
 -12697618.88648  -9882206.87946  21747828.147    21747827.5854   21747831.1174
       182.0004        182.0004
  -7399573.82848  -5737378.59146  23154237.132    23154236.6014   23154243.6554
       170.0004        171.0004
  -5091745.06447  -3620335.90145  23421265.952    23421266.1164   23421270.6484
       159.0004        162.0004
 -15942087.97648 -12412242.89646  21617851.908    21617853.4934   21617861.4524
       185.0004        186.0004
 -14207787.56249 -11008456.85848  21997748.647    21997749.2404   21997756.2464
       217.0004        216.0004
 -16167803.07049 -12574320.06847  21342373.696    21342373.9644   21342381.5224
       205.0004        206.0004
  -8210324.36348  -6382227.63446  22785503.569    22785504.8854   22785510.7574
       169.0004        169.0004
 21  2  6  0 18  0.0000000  0  9G07G14G21G30G17G01G08G09G04
 -17094566.65549 -13301014.90947  21207633.950    21207634.8244   21207638.5364
       201.0004        201.0004
   -942627.99847   -727337.86846  23466138.166    23466139.0364   23466143.8654
       162.0004        164.0004
 -12692603.50348  -9878298.77846  21748781.177    21748780.6864   21748784.1054
       182.0004        182.0004
  -7487615.26048  -5805982.28446  23137482.718    23137482.6524   23137489.6834
       170.0004        171.0004
  -5177017.36147  -3686781.81445  23405038.802    23405039.1424   23405042.4664
       160.0004        161.0004
 -16005175.97148 -12461402.36246  21605847.513    21605848.3954   21605855.7124
       186.0004        186.0004
 -14120443.08249 -10940396.22748  22014369.206    22014370.2614   22014377.0064
       217.0004        216.0004
 -16114067.14549 -12532447.91947  21352599.286    21352599.7284   21352606.6574
       205.0004        205.0004
  -8114169.33248  -6307301.64446  22803800.973    22803801.2404   22803809.1584
       168.0004        168.0004
 21  2  6  0 18 30.0000000  0  9G07G14G21G30G17G01G08G09G04
 -17160671.21349 -13352524.95347  21195055.240    21195055.2044   21195059.3124
       201.0004        201.0004
   -968812.63147   -747741.44146  23461156.725    23461156.6154   23461161.7924
       164.0004        165.0004
 -12687105.01148  -9874014.23346  21749826.452    21749826.4254   21749829.8934
       181.0004        181.0004
  -7575644.19048  -5874576.24146  23120731.323    23120731.5484   23120738.3364
       170.0004        171.0004
  -5261975.46647  -3752982.88446  23388872.471    23388872.9974   23388876.2524
       162.0004        166.0004
 -16067951.60448 -12510318.42246  21593902.002    21593902.4734   21593911.0754
       186.0004        187.0004
 -14032900.28649 -10872181.06048  22031029.073    22031029.2734   22031035.9024
       217.0004        216.0004
 -16059940.73449 -12490271.49547  21362899.376    21362899.6454   21362906.7334
       205.0004        205.0004
  -8017902.72448  -6232288.71246  22822120.974    22822121.4544   22822127.5644
       167.0004        167.0004
 21  2  6  0 19  0.0000000  0  9G07G14G21G30G17G01G08G09G04
 -17226557.31749 -13403864.75747  21182516.819    21182517.5244   21182521.2764
       200.0004        200.0004
   -994975.08447   -768127.76046  23456177.516    23456178.5214   23456183.3344
       163.0004        163.0004
 -12681123.41948  -9869353.22646  21750966.060    21750965.7284   21750968.8434
       181.0004        182.0004
  -7663659.45048  -5943159.54346  23103982.707    23103982.7674   23103989.7294
       171.0004        171.0004
  -5346618.47247  -3818938.41946  23372763.885    23372764.1924   23372769.1514
       163.0004        164.0004
 -16130412.60748 -12558989.29747  21582016.661    21582016.7734   21582025.0004
       187.0004        188.0004
 -13945163.09149 -10803814.40748  22047724.889    22047725.2144   22047731.8004
       216.0004        215.0004
 -16005427.44449 -12447793.59347  21373273.262    21373273.1094   21373280.1284
       204.0004        204.0004
  -7921528.52948  -6157191.92446  22840459.535    22840460.1934   22840466.3654
       167.0004        168.0004
 21  2  6  0 19 30.0000000  0  9G07G14G21G30G17G01G08G09G04
 -17292221.66949 -13455031.77547  21170020.487    21170021.4464   21170026.4124
       200.0004        200.0004
  -1021116.14947   -788497.40645  23451202.232    23451202.5014   23451208.5284
       161.0004        161.0004
 -12674657.70748  -9864314.99846  21752196.754    21752195.6664   21752199.8844
       182.0004        182.0004
  -7751658.52748  -6011730.24546  23087235.929    23087237.1664   23087242.9834
       169.0004        168.0004
  -5430944.36347  -3884646.86746  23356717.967    23356718.1744   23356723.3824
       162.0004        164.0004
 -16192555.24548 -12607412.11647  21570191.980    21570192.1214   21570199.1764
       188.0004        188.0004
 -13857234.21249 -10735298.40348  22064456.983    22064457.2764   22064464.4784
       216.0004        214.0004
 -15950529.47349 -12405015.95347  21383719.463    21383719.9724   21383726.9534
       204.0004        204.0004
  -7825049.16148  -6082013.21846  22858820.882    22858820.4924   22858826.6474
       168.0004        168.0004
 21  2  6  0 20  0.0000000  0  9G07G14G21G30G17G01G08G09G04
 -17357662.73449 -13506024.81147  21157568.286    21157568.7614   21157572.6814
       201.0004        201.0004
  -1047238.35147   -808852.34145  23446231.422    23446232.2424   23446237.4564
       160.0004        161.0004
 -12667708.44348  -9858899.97846  21753517.663    21753517.4414   21753522.4364
       182.0004        182.0004
  -7839640.67648  -6080287.77146  23070493.782    23070494.4594   23070501.5884
       168.0004        170.0004
  -5514952.44547  -3950107.67946  23340733.397    23340732.8254   23340738.1594
       164.0004        167.0004
 -16254377.78248 -12655585.50746  21558425.562    21558426.5564   21558433.8684
       187.0004        186.0004
 -13769117.24749 -10666635.84548  22081224.984    22081225.4024   22081232.2284
       215.0004        214.0004
 -15895250.88749 -12361941.73047  21394239.494    21394239.0834   21394245.7554
       203.0004        203.0004
  -7728468.94248  -6006755.91946  22877198.507    22877198.9834   22877205.1644
       168.0004        169.0004
 21  2  6  0 20 30.0000000  0  9G07G14G21G30G17G01G08G09G04
 -17422875.65349 -13556840.07947  21145159.193    21145159.3924   21145163.0524
       201.0004        200.0004
  -1073340.89847   -829191.94545  23441263.015    23441264.6104   23441269.9994
       158.0004        159.0004
 -12660272.76148  -9853105.92846  21754933.221    21754933.1284   21754937.5264
       182.0004        182.0004
  -7927601.78948  -6148828.88046  23053755.571    23053756.2004   23053763.2894
       170.0004        173.0004
  -5598639.09848  -4015318.01846  23324806.019    23324806.8254   23324812.4614
       165.0004        167.0004
 -16315874.98148 -12703505.37046  21546723.473    21546724.2724   21546732.2494
       186.0004        187.0004
 -13680813.59049 -10597827.80348  22098028.965    22098028.9924   22098035.7224
       215.0004        214.0004
 -15839592.38349 -12318571.47047  21404830.023    21404830.1824   21404837.6974
       203.0004        203.0004
  -7631788.84048  -5931420.80346  22895596.523    22895596.4374   22895602.0874
       169.0004        170.0004
 21  2  6  0 21  0.0000000  0  9G07G14G21G30G17G01G08G09G04
 -17487858.31249 -13607475.94347  21132793.163    21132793.7334   21132797.4714
       201.0004        201.0004
  -1099425.45247   -849517.57445  23436299.940    23436300.8554   23436306.7084
       158.0004        159.0004
 -12652350.49348  -9846932.72446  21756440.494    21756440.4704   21756445.0534
       182.0004        183.0004
  -8015540.28948  -6217352.35746  23037021.562    23037021.3264   23037028.7054
       171.0004        172.0004
  -5682003.34547  -4080277.11246  23308942.273    23308942.9884   23308948.5504
       164.0004        165.0004
 -16377044.14848 -12751169.64246  21535084.474    21535084.3124   21535091.9744
       187.0004        187.0004
 -13592326.31849 -10528876.68748  22114867.239    22114867.5994   22114874.4364
       214.0004        214.0004
 -15783557.19249 -12274907.69047  21415493.485    21415493.9044   21415500.3034
       203.0004        203.0004
  -7535012.22748  -5856010.47646  22914011.314    22914011.9194   22914018.7224
       168.0004        168.0004
 21  2  6  0 21 30.0000000  0  9G07G14G21G30G17G01G08G09G04
 -17552608.24549 -13657930.43047  21120471.681    21120472.0014   21120476.7014
       202.0004        202.0004
  -1125493.52747   -869830.33345  23431340.124    23431341.1114   23431345.8424
       158.0004        160.0004
 -12643941.16448  -9840379.99146  21758040.959    21758040.7064   21758046.1134
       183.0004        183.0004
  -8103454.24748  -6285856.73046  23020293.170    23020292.9214   23020299.3884
       171.0004        173.0004
  -5765043.35347  -4144983.57446  23293139.815    23293141.1644   23293145.9224
       164.0004        165.0004
 -16437882.33448 -12798576.00347  21523507.664    21523507.7124   21523514.2784
       187.0004        188.0004
 -13503658.89349 -10459785.18147  22131740.238    22131740.2154   22131747.0264
       214.0004        212.0004
 -15727148.23649 -12230952.66047  21426227.842    21426228.0044   21426235.0544
       203.0004        203.0004
  -7438142.35048  -5780527.46446  22932444.626    22932445.1544   22932452.9504
       167.0004        168.0004
 21  2  6  0 22  0.0000000  0  9G07G14G21G30G17G01G08G09G04
 -17617122.98549 -13708201.64247  21108194.388    21108195.1664   21108199.2884
       202.0004        202.0004
  -1151546.52947   -890131.34545  23426382.842    23426383.6194   23426388.4274
       159.0004        161.0004
 -12635044.42648  -9833447.44646  21759734.129    21759733.8254   21759739.0954
       184.0004        184.0004
  -8191341.79848  -6354340.52446  23003568.173    23003568.5444   23003574.5984
       171.0004        172.0004
  -5847757.86648  -4209436.36046  23277401.198    23277401.7604   23277406.5064
       165.0004        167.0004
 -16498386.66248 -12845722.20346  21511992.948    21511993.2664   21512001.8924
       187.0004        187.0004
 -13414814.08049 -10390555.46047  22148646.619    22148646.3954   22148653.6164
       212.0004        211.0004
 -15670368.53549 -12186708.72847  21437031.684    21437032.1504   21437040.1454
       202.0004        202.0004
  -7341182.41948  -5704974.26846  22950896.927    22950896.9144   22950902.3834
       167.0004        168.0004
 21  2  6  0 22 30.0000000  0  9G07G14G21G30G17G01G08G09G04
 -17681401.03049 -13758288.42647  21095963.356    21095963.6194   21095967.7074
       202.0004        202.0004
  -1177586.77347   -910422.40345  23421427.098    23421427.1474   23421433.3414
       159.0004        161.0004
 -12625660.65148  -9826135.40346  21761520.179    21761519.6484   21761523.9754
       184.0004        185.0004
  -8279201.94948  -6422802.99346  22986848.860    22986848.8354   22986855.9254
       171.0004        171.0004
  -5930146.22648  -4273635.04646  23261723.089    23261722.8544   23261729.7764
       167.0004        169.0004
 -16558555.07348 -12892606.64046  21500541.752    21500542.4034   21500551.8834
       186.0004        186.0004
 -13325796.15149 -10321190.84647  22165584.274    22165585.5244   22165593.0884
       211.0004        210.0004
 -15613221.97049 -12142178.93947  21447907.156    21447907.2544   21447914.9764
       202.0004        202.0004
  -7244136.45648  -5629354.01346  22969364.026    22969365.0584   22969369.6794
       168.0004        169.0004
 21  2  6  0 23  0.0000000  0  9G07G14G21G30G17G01G08G09G04
 -17745437.25849 -13808186.77947  21083776.978    21083777.8144   21083782.5004
       202.0004        202.0004
  -1203613.42947   -930702.88945  23416475.449    23416475.3484   23416480.1894
       160.0004        162.0004
 -12615787.41948  -9818441.96046  21763398.949    21763397.9694   21763404.0994
       184.0004        185.0004
  -8367030.58748  -6491240.87046  22970135.875    22970135.8734   22970142.9994
       171.0004        173.0004
  -6012204.97948  -4337576.87646  23246106.550    23246107.0934   23246114.2014
       166.0004        166.0004
 -16618382.47848 -12939225.36547  21489158.658    21489159.2264   21489167.7164
       188.0004        190.0004
 -13236605.84149 -10251691.90947  22182558.264    22182557.9864   22182565.1364
       211.0004        210.0004
 -15555709.30249 -12097363.88147  21458850.594    21458851.1114   21458858.9554
       202.0004        201.0004
  -7147005.45348  -5553667.52946  22987846.735    22987847.1434   22987853.9954
       167.0004        168.0004
 21  2  6  0 23 30.0000000  0  9G07G14G21G30G17G01G08G09G04
 -17809230.30849 -13857895.65047  21071637.467    21071638.2904   21071642.4754
       202.0004        202.0004
  -1229628.87047   -950974.65245  23411524.468    23411524.8024   23411529.4034
       160.0004        160.0004
 -12605425.26548  -9810367.53246  21765370.261    21765370.1014   21765375.5194
       185.0004        185.0004
  -8454826.60648  -6559653.35446  22953429.544    22953429.1714   22953435.2744
       171.0004        170.0004
  -6093933.65248  -4401261.52346  23230553.858    23230555.0224   23230560.6334
       165.0004        164.0004
 -16677866.78948 -12985576.78547  21477841.824    21477841.8314   21477847.6144
       192.0004        193.0004
 -13147247.15849 -10182061.76947  22199562.714    22199562.3214   22199570.0854
       211.0004        211.0004
 -15497834.47249 -12052266.63147  21469864.605    21469864.6894   21469871.7504
       201.0004        201.0004
  -7049793.47648  -5477917.96346  23006344.426    23006345.2724   23006352.7424
       166.0004        167.0004
 21  2  6  0 24  0.0000000  0  9G07G14G21G30G17G01G08G09G04
 -17872776.36049 -13907412.04947  21059545.595    21059545.9974   21059549.8164
       201.0004        202.0004
  -1255633.21147   -971237.75045  23406575.800    23406575.5284   23406581.7184
       158.0004        158.0004
 -12594572.55948  -9801910.86046  21767435.377    21767435.1914   21767440.7364
       185.0004        185.0004
  -8542586.93648  -6628037.98646  22936726.933    22936727.2574   22936736.0524
       169.0004        169.0004
  -6175329.16647  -4464686.56646  23215066.249    23215066.8734   23215070.8614
       164.0004        165.0004
 -16737003.85548 -13031657.61347  21466586.703    21466587.6264   21466593.4084
       193.0004        192.0004
 -13057721.92149 -10112301.83747  22216597.939    22216598.3894   22216606.3944
       211.0004        211.0004
 -15439599.15649 -12006888.47947  21480946.659    21480946.6514   21480953.6604
       201.0004        201.0004
  -6952502.35048  -5402106.70546  23024860.184    23024859.7454   23024866.4964
       167.0004        168.0004
 21  2  6  0 24 30.0000000  0  9G07G14G21G30G17G01G08G09G04
 -17936072.44449 -13956733.66747  21047500.734    21047501.0604   21047505.1354
       202.0004        202.0004
  -1281627.21147   -991492.80345  23401628.910    23401628.9584   23401634.6854
       156.0004        158.0004
 -12583228.04848  -9793070.96746  21769594.228    21769593.7714   21769599.6314
       185.0004        186.0004
  -8630308.85548  -6696392.70246  22920033.944    22920034.2024   22920042.0684
       169.0004        169.0004
  -6256389.64747  -4527850.53346  23199640.894    23199640.7794   23199645.0094
       163.0004        164.0004
 -16795790.12348 -13077465.06547  21455398.742    21455398.9444   21455407.1384
       190.0004        188.0004
 -12968032.33549 -10042413.84547  22233666.182    22233666.0464   22233673.6164
       210.0004        209.0004
 -15381005.71949 -11961231.24247  21492095.787    21492096.2244   21492104.0984
       201.0004        201.0004
  -6855134.58348  -5326235.71046  23043387.279    23043388.7664   23043394.7314
       166.0004        167.0004
 21  2  6  0 25  0.0000000  0  9G07G14G21G30G17G01G08G09G04
 -17999116.89249 -14005859.20147  21035503.221    21035504.0264   21035508.1654
       202.0004        202.0004
  -1307613.43547  -1011741.80245  23396683.978    23396684.4064   23396690.0424
       156.0004        158.0004
 -12571392.96348  -9783848.79246  21771846.025    21771846.3014   21771851.7684
       186.0004        186.0004
  -8717991.57348  -6764716.88846  22903348.353    22903349.7804   22903356.4004
       168.0004        170.0004
  -6337114.82547  -4590753.22246  23184279.400    23184280.4344   23184282.9974
       162.0004        163.0004
 -16854223.99548 -13122997.90446  21444277.135    21444277.8674   21444287.5464
       187.0004        186.0004
 -12878183.05249  -9972401.42047  22250764.340    22250764.1724   22250771.4004
       210.0004        209.0004
 -15322058.44949 -11915298.29947  21503313.406    21503313.6324   21503320.9204
       201.0004        201.0004
  -6757694.55148  -5250308.39946  23061930.769    23061931.3434   23061937.0104
       166.0004        167.0004
 21  2  6  0 25 30.0000000  0  9G07G14G21G30G17G01G08G09G04
 -18061906.55149 -14054786.21347  21023555.062    21023555.6914   21023559.9164
       202.0004        202.0004
  -1333592.52447  -1031985.25345  23391741.141    23391740.9474   23391745.9264
       156.0004        158.0004
 -12559066.16948  -9774243.48046  21774192.985    21774192.2854   21774197.4534
       186.0004        186.0004
  -8805632.46048  -6833008.48346  22886671.436    22886671.2084   22886680.3894
       169.0004        171.0004
  -6417502.64547  -4653393.07845  23168982.161    23168982.7654   23168984.1114
       160.0004        160.0004
 -16912301.72248 -13168253.24746  21433225.468    21433226.7604   21433235.7884
       186.0004        187.0004
 -12788176.20549  -9902266.20947  22267891.686    22267891.2974   22267899.2154
       210.0004        209.0004
 -15262759.59749 -11869091.39647  21514597.709    21514597.6944   21514605.1514
       201.0004        201.0004
  -6660184.57948  -5174326.62046  23080486.435    23080486.4924   23080492.6214
       165.0004        166.0004
 21  2  6  0 26  0.0000000  0  9G07G14G21G30G17G01G08G09G04
 -18124439.10049 -14103512.88747  21011655.836    21011656.3974   21011660.3274
       202.0004        203.0004
  -1359565.90147  -1052224.21845  23386797.973    23386798.2484   23386803.5264
       156.0004        157.0004
 -12546247.09848  -9764254.58246  21776632.190    21776631.1694   21776636.3604
       186.0004        186.0004
  -8893229.53648  -6901265.90846  22870002.207    22870001.7894   22870010.3204
       170.0004        172.0004
  -6497551.79947  -4715769.01445  23153748.548    23153748.1034   23153751.4114
       157.0004        157.0004
 -16970020.46148 -13213228.87247  21422243.445    21422244.3674   21422252.3794
       188.0004        189.0004
 -12698014.95749  -9832010.68847  22285046.924    22285048.2644   22285056.3164
       209.0004        209.0004
 -15203112.22449 -11822612.92347  21525947.876    21525948.5274   21525955.9324
       201.0004        202.0004
  -6562607.88347  -5098292.86346  23099053.683    23099054.4414   23099061.3914
       164.0004        164.0004
 21  2  6  0 26 30.0000000  0  9G07G14G21G30G17G01G08G09G04
 -18186710.16949 -14152035.79847  20999805.302    20999806.1064   20999810.6764
       202.0004        203.0004
  -1385533.43647  -1072458.68945  23381855.366    23381855.5744   23381860.9084
       153.0004        154.0004
 -12532934.70648  -9753881.27146  21779164.852    21779164.3884   21779169.6744
       186.0004        186.0004
  -8980779.26048  -6969486.45346  22853341.763    22853341.4234   22853350.2454
       170.0004        170.0004
  -6577259.48547  -4777878.89145  23138581.048    23138581.5404   23138583.2054
       157.0004        160.0004
 -17027375.83348 -13257921.35947  21411329.519    21411330.6214   21411337.4924
       190.0004        191.0004
 -12607700.74449  -9761635.98347  22302234.710    22302234.9904   22302242.3704
       209.0004        208.0004
 -15143117.87149 -11775864.07647  21537365.498    21537365.4914   21537372.3154
       202.0004        202.0004
  -6464966.03047  -5022208.30845  23117633.389    23117634.1934   23117640.7894
       162.0004        162.0004
 21  2  6  0 27  0.0000000  0  9G07G14G21G30G17G01G08G09G04
 -18248717.28149 -14200353.03147  20988006.556    20988006.9134   20988010.7464
       203.0004        203.0004
  -1411496.39147  -1092689.52445  23376915.294    23376916.4304   23376921.2064
       153.0004        155.0004
 -12519128.38348  -9743123.08846  21781792.281    21781791.5594   21781797.1944
       186.0004        186.0004
  -9068279.57548  -7037668.48446  22836691.635    22836692.3924   22836699.1824
       171.0004        173.0004
  -6656624.16747  -4839721.46945  23123477.531    23123477.4144   23123483.5414
       158.0004        160.0004
 -17084364.90048 -13302328.40747  21400485.962    21400486.2064   21400493.3924
       192.0004        193.0004
 -12517236.54449  -9691144.40147  22319449.430    22319449.7774   22319457.1624
       208.0004        207.0004
 -15082779.51749 -11728847.17047  21548847.149    21548847.3074   21548854.2134
       201.0004        202.0004
  -6367261.99547  -4946075.29445  23136226.901    23136227.7524   23136234.1284
       161.0004        162.0004
 21  2  6  0 27 30.0000000  0  9G07G14G21G30G17G01G08G09G04
 -18310458.67349 -14248463.19747  20976257.213    20976257.4054   20976262.0744
       203.0004        203.0004
  -1437456.90647  -1112918.46945  23371975.495    23371975.6054   23371980.6614
       154.0004        157.0004
 -12504828.92248  -9731980.63546  21784512.699    21784512.8104   21784517.9984
       186.0004        186.0004
  -9155729.22948  -7105811.05846  22820049.132    22820049.5264   22820057.4944
       170.0004        171.0004
  -6735645.04747  -4901296.11546  23108440.671    23108440.9564   23108446.5024
       161.0004        164.0004
 -17140985.56448 -13346448.38547  21389711.287    21389711.5124   21389718.8524
       192.0004        192.0004
 -12426626.17849  -9620538.92147  22336691.596    22336692.1804   22336699.7004
       207.0004        206.0004
 -15022100.97449 -11681565.19847  21560394.120    21560394.3684   21560400.9474
