     2.11           OBSERVATION DATA    G (GPS)             RINEX VERSION / TYPE
teqc  2018Jun8                          20210202 03:10:47UTCPGM / RUN BY / DATE
Linux2.6.32-573.12.1.el6.x86_64|x86_64|gcc|Win64-MinGW64|=+ COMMENT
BIT 2 OF LLI FLAGS DATA COLLECTED UNDER A/S CONDITION       COMMENT
-Unknown-                                                   MARKER NAME
CRNO                                                        MARKER NUMBER
-Unknown-           -Unknown-                               OBSERVER / AGENCY
-Unknown-           ASHTECH             -Unknown-           REC # / TYPE / VERS
-Unknown-           -Unknown-                               ANT # / TYPE
   408078.5218 -6158373.2056  1605162.7451                  APPROX POSITION XYZ
        0.0000        0.0000        0.0000                  ANTENNA: DELTA H/E/N
     1     1                                                WAVELENGTH FACT L1/2
     7    L1    L2    C1    P1    P2    S1    S2            # / TYPES OF OBSERV
    30.0000                                                 INTERVAL
Forced Modulo Decimation to 30 seconds                      COMMENT
 SNR is mapped to RINEX snr flag value [1-9]                COMMENT
  L1: 1 -> 1;  90 -> 5; 210 -> 9                            COMMENT
  L2: 1 -> 1; 150 -> 5; 250 -> 9                            COMMENT
pseudorange smoothing corrections not applied               COMMENT
  2021     2     1     0     0   30.0000000     GPS         TIME OF FIRST OBS
                                                            END OF HEADER
 21  2  1  0  0 30.0000000  0  9G30G08G09G17G04G07G01G14G21
  -5268351.54248  -4075722.15246  23456973.189    23456972.1014   23456979.7474
       166.0004        167.0004
 -15610702.37749 -12150231.94347  21704776.297    21704776.2204   21704782.4124
       206.0004        210.0004
 -17133190.35749 -13320351.68347  21176071.924    21176072.3374   21176079.6414
       210.0004        209.0004
  -3987198.17647  -3085204.60145  23703487.553    23703487.4824   23703492.4654
       157.0004        159.0004
  -9712428.58348  -7507115.40546  22472070.233    22472070.5574   22472076.4964
       176.0004        177.0004
 -19049734.24549 -14818230.88247  21445518.178    21445519.3944   21445524.5154
       198.0004        198.0004
 -17288005.68048 -13462228.27746  21839693.055    21839694.1614   21839701.8754
       183.0004        183.0004
  -1125135.48147   -866742.86945  23563729.966    23563730.5874   23563735.2584
       154.0004        156.0004
 -12601261.57148  -9613555.64946  21742888.994    21742888.3664   21742892.4854
       184.0004        184.0004
 21  2  1  0  1  0.0000000  0  9G30G08G09G17G04G07G01G14G21
  -5356298.78448  -4144252.47546  23440236.701    23440236.5334   23440243.8084
       165.0004        166.0004
 -15527422.60949 -12085338.61447  21720624.441    21720624.1644   21720629.8764
       211.0004        209.0004
 -17086600.29649 -13284047.74747  21184938.368    21184938.1404   21184945.0164
       209.0004        209.0004
  -4077584.64847  -3155635.50345  23686286.539    23686287.2374   23686293.4514
       158.0004        160.0004
  -9618652.26648  -7434042.96246  22489913.272    22489914.3854   22489921.5214
       176.0004        175.0004
 -19119354.63349 -14872480.53747  21432271.367    21432271.8574   21432275.8414
       199.0004        199.0004
 -17356088.60448 -13515279.87746  21826737.402    21826737.6024   21826746.3624
       182.0004        183.0004
  -1151995.05047   -887672.36945  23558618.655    23558619.2814   23558624.2844
       156.0004        159.0004
 -12604701.21548  -9616235.87446  21742233.344    21742233.6874   21742237.9484
       184.0004        185.0004
 21  2  1  0  1 30.0000000  0  9G30G08G09G17G04G07G01G14G21
  -5444269.57747  -4212801.11846  23423494.381    23423494.8074   23423503.2164
       163.0004        164.0004
 -15443892.96349 -12020250.56448  21736517.944    21736518.4094   21736525.0584
       218.0004        222.0004
 -17039576.14449 -13247405.55447  21193886.348    21193886.9704   21193893.7204
       209.0004        210.0004
  -4167689.95647  -3225847.35245  23669141.297    23669141.4114   23669147.2344
       158.0004        161.0004
  -9524713.06148  -7360843.59046  22507790.757    22507790.9464   22507797.9214
       176.0004        177.0004
 -19188805.85249 -14926598.36947  21419054.906    21419055.1694   21419059.4394
       198.0004        198.0004
 -17423917.46348 -13568133.50546  21813829.646    21813830.8984   21813839.0304
       183.0004        185.0004
  -1178809.02447   -908566.33845  23553517.087    23553517.5284   23553522.3464
       157.0004        159.0004
 -12607676.18548  -9618554.02046  21741667.048    21741667.6494   21741672.3304
       184.0004        184.0004
 21  2  1  0  2  0.0000000  0  9G30G08G09G17G04G07G01G14G21
  -5532261.99447  -4281366.60246  23406750.804    23406751.7804   23406759.3984
       164.0004        167.0004
 -15360116.06749 -11954969.85948  21752459.552    21752460.1344   21752467.7354
       221.0004        222.0004
 -16992120.33449 -13210426.98547  21202916.825    21202917.1694   21202924.3244
       209.0004        209.0004
  -4257512.20647  -3295838.64345  23652048.815    23652049.3514   23652055.7724
       159.0004        161.0004
  -9430613.96148  -7287519.60446  22525697.017    22525698.1354   22525704.7154
       177.0004        177.0004
 -19258085.30849 -14980582.33847  21405870.519    21405871.7254   21405876.2334
       198.0004        198.0004
 -17491488.94548 -13620786.58146  21800971.988    21800972.6734   21800981.2504
       184.0004        185.0004
  -1205578.68347   -929425.78245  23548422.136    23548422.4884   23548428.0454
       154.0004        155.0004
 -12610185.37648  -9620509.20546  21741191.299    21741190.3514   21741195.2814
       185.0004        186.0004
 21  2  1  0  2 30.0000000  0  9G30G08G09G17G04G07G01G14G21
  -5620275.66248  -4349948.65946  23390002.360    23390003.3484   23390010.4714
       165.0004        166.0004
 -15276096.41049 -11889500.00748  21768448.308    21768448.6634   21768456.1104
       222.0004        222.0004
 -16944236.78849 -13173115.13647  21212028.952    21212029.3574   21212036.1074
       209.0004        209.0004
  -4347050.70847  -3365608.85145  23635010.675    23635010.8594   23635015.7244
       160.0004        162.0004
  -9336359.44148  -7214074.55146  22543633.238    22543633.7764   22543639.8194
       177.0004        176.0004
 -19327191.60849 -15034431.40347  21392721.571    21392721.8414   21392725.5964
       198.0004        199.0004
 -17558801.32148 -13673237.74746  21788161.987    21788162.7804   21788172.0204
       185.0004        185.0004
  -1232306.78247   -950252.84645  23543334.713    23543335.9274   23543341.7914
       155.0004        158.0004
 -12612229.01048  -9622101.63946  21740802.426    21740801.6864   21740807.0934
       186.0004        187.0004
 21  2  1  0  3  0.0000000  0  9G30G08G09G17G04G07G01G14G21
  -5708307.04947  -4418544.54746  23373251.448    23373251.7084   23373257.7714
       164.0004        164.0004
 -15191835.66449 -11823842.27248  21784483.086    21784483.2374   21784489.9174
       222.0004        221.0004
 -16895926.33949 -13135470.63047  21221221.780    21221222.0094   21221229.6464
       208.0004        208.0004
  -4436302.05047  -3435155.27445  23618025.056    23618025.0754   23618031.6684
       160.0004        162.0004
  -9241950.92848  -7140509.47946  22561599.333    22561599.2974   22561604.9194
       176.0004        176.0004
 -19396120.68649 -15088142.36447  21379605.170    21379605.1514   21379608.4614
       199.0004        199.0004
 -17625849.67848 -13725483.19446  21775403.356    21775404.0654   21775413.1234
       185.0004        186.0004
  -1258992.92547   -971047.20845  23538257.530    23538258.4484   23538264.2134
       159.0004        162.0004
 -12613804.38148  -9623329.16746  21740501.890    21740501.7844   21740507.9494
       187.0004        187.0004
 21  2  1  0  3 30.0000000  0  9G30G08G09G17G04G07G01G14G21
  -5796354.78147  -4487153.17245  23356495.854    23356496.3794   23356503.5834
       161.0004        162.0004
 -15107337.06749 -11757999.20348  21800563.560    21800563.4724   21800569.6444
       222.0004        221.0004
 -16847192.03049 -13097495.84047  21230495.730    21230496.0664   21230503.6204
       209.0004        209.0004
  -4525264.65447  -3504476.70446  23601095.059    23601096.2214   23601102.1574
       160.0004        163.0004
  -9147391.90948  -7066827.11946  22579591.640    22579592.8564   22579599.9144
       176.0004        176.0004
 -19464870.65549 -15141713.76547  21366522.002    21366522.4174   21366526.2404
       199.0004        200.0004
 -17692631.26748 -13777520.77446  21762695.273    21762695.8384   21762704.2824
       184.0004        184.0004
  -1285638.89647   -991810.29046  23533186.279    23533187.5904   23533193.3724
       163.0004        165.0004
 -12614910.63948  -9624191.16747  21740291.382    21740291.3714   21740297.4614
       187.0004        188.0004
 21  2  1  0  4  0.0000000  0  9G30G08G09G17G04G07G01G14G21
  -5884416.46547  -4555772.62446  23339738.742    23339739.3534   23339747.6404
       163.0004        166.0004
 -15022602.97549 -11691972.64248  21816687.807    21816687.5944   21816693.8224
       221.0004        220.0004
 -16798035.90349 -13059192.37247  21239849.808    21239849.9614   21239857.1394
       208.0004        208.0004
  -4613936.42147  -3573571.51545  23584223.668    23584223.3684   23584228.0364
       159.0004        160.0004
  -9052684.97348  -6993029.53446  22597614.696    22597614.7264   22597621.8754
       176.0004        177.0004
 -19533437.99549 -15195142.85747  21353473.609    21353474.0894   21353477.7904
       199.0004        199.0004
 -17759142.43848 -13829347.63746  21750038.230    21750039.8104   21750047.8054
       184.0004        186.0004
  -1312245.55248  -1012542.71046  23528124.835    23528125.4054   23528130.5644
       166.0004        168.0004
 -12615546.41248  -9624686.54647  21740170.004    21740170.5974   21740177.1684
       188.0004        189.0004
 21  2  1  0  4 30.0000000  0  9G30G08G09G17G04G07G01G14G21
  -5972491.58848  -4624402.55146  23322978.723    23322978.6084   23322986.1694
       165.0004        166.0004
 -14937637.75649 -11625765.97148  21832855.363    21832855.4534   21832862.2644
       221.0004        220.0004
 -16748461.86549 -13020563.25547  21249283.346    21249283.7064   21249290.5574
       207.0004        207.0004
  -4702316.47747  -3642439.03145  23567403.687    23567404.0694   23567409.0314
       157.0004        158.0004
  -8957834.54148  -6919120.10746  22615664.162    22615664.7554   22615671.6204
       176.0004        177.0004
 -19601821.58949 -15248428.76447  21340459.902    21340460.6434   21340464.7884
       199.0004        199.0004
 -17825381.23848 -13880962.26446  21737435.612    21737435.6414   21737442.7164
       186.0004        187.0004
  -1338815.55848  -1033246.57446  23523068.328    23523068.6234   23523073.9124
       166.0004        167.0004
 -12615712.08848  -9624815.60147  21740139.211    21740138.8304   21740145.7444
       189.0004        190.0004
 21  2  1  0  5  0.0000000  0  9G30G08G09G17G04G07G01G14G21
  -6060578.03348  -4693041.30446  23306216.008    23306216.2374   23306224.9464
       165.0004        167.0004
 -14852444.54149 -11559381.63048  21849067.047    21849067.3804   21849074.3654
       221.0004        220.0004
 -16698472.25649 -12981610.29847  21258795.883    21258796.0854   21258803.8474
       207.0004        208.0004
  -4790402.90547  -3711077.74445  23550641.454    23550642.2844   23550646.6144
       158.0004        161.0004
  -8862843.42248  -6845101.05846  22633740.103    22633740.2754   22633747.0524
       175.0004        175.0004
 -19670018.66049 -15301569.32347  21327483.669    21327483.6804   21327487.8914
       199.0004        200.0004
 -17891344.28048 -13932362.00246  21724881.418    21724882.2464   21724890.6174
       186.0004        186.0004
  -1365349.96048  -1053922.71046  23518018.786    23518019.4354   23518024.6914
       165.0004        165.0004
 -12615406.36548  -9624577.33347  21740197.201    21740196.1464   21740204.2114
       189.0004        189.0004
 21  2  1  0  5 30.0000000  0  9G30G08G09G17G04G07G01G14G21
  -6148672.14048  -4761686.03046  23289451.955    23289451.8454   23289459.9744
       166.0004        167.0004
 -14767024.23549 -11492820.36148  21865322.258    21865322.5154   21865329.5734
       221.0004        221.0004
 -16648067.93849 -12942334.21747  21268387.963    21268387.7464   21268395.7584
       207.0004        208.0004
  -4878192.10747  -3779484.89646  23533936.416    23533936.8574   23533941.4284
       160.0004        163.0004
  -8767712.96048  -6770973.44846  22651842.993    22651843.8734   22651850.2384
       174.0004        173.0004
 -19738024.71349 -15354561.04947  21314542.365    21314542.2024   21314546.8794
       199.0004        200.0004
 -17957026.64748 -13983543.04246  21712382.450    21712383.3504   21712391.6114
       186.0004        186.0004
  -1391848.37847  -1074570.80446  23512975.972    23512976.3734   23512982.3514
       163.0004        164.0004
 -12614626.57948  -9623969.68547  21740344.754    21740344.3184   21740352.4214
       189.0004        188.0004
 21  2  1  0  6  0.0000000  0  9G30G08G09G17G04G07G01G14G21
  -6236773.19048  -4830336.16046  23272687.370    23272687.5674   23272695.0884
       165.0004        167.0004
 -14681381.04549 -11426085.40848  21881619.469    21881619.6484   21881626.5984
       221.0004        220.0004
 -16597252.63949 -12902737.89247  21278057.183    21278057.3584   21278065.4344
       207.0004        207.0004
  -4965683.32047  -3847659.80845  23517286.657    23517287.2494   23517291.9684
       160.0004        161.0004
  -8672447.26948  -6696740.45146  22669971.817    22669971.7944   22669978.9894
       174.0004        175.0004
 -19805838.31949 -15407402.81247  21301636.942    21301637.7014   21301642.4764
       200.0004        200.0004
 -18022426.24448 -14034503.75446  21699937.635    21699938.3614   21699946.4584
       186.0004        187.0004
  -1418313.19148  -1095192.70946  23507941.060    23507941.1524   23507947.2444
       165.0004        167.0004
 -12613372.89848  -9622992.77047  21740583.779    21740583.1294   21740590.4824
       188.0004        188.0004
 21  2  1  0  6 30.0000000  0  9G30G08G09G17G04G07G01G14G21
  -6324878.92948  -4898989.95746  23255922.092    23255921.8624   23255928.8994
       167.0004        170.0004
 -14595517.98049 -11359179.10048  21897958.055    21897958.4894   21897965.7864
       219.0004        218.0004
 -16546028.79249 -12862823.20047  21287804.996    21287805.3734   21287812.6744
       207.0004        206.0004
  -5052874.75147  -3915601.13845  23500695.491    23500695.3924   23500700.5234
       159.0004        160.0004
  -8577049.26748  -6622404.35246  22688125.598    22688125.2374   22688132.3294
       173.0004        171.0004
 -19873456.39549 -15460092.20847  21288769.854    21288770.6044   21288775.0314
       200.0004        200.0004
 -18087539.70948 -14085241.48646  21687546.691    21687547.4004   21687555.9624
       186.0004        187.0004
  -1444745.51748  -1115789.27046  23502909.266    23502910.5744   23502916.1184
       166.0004        167.0004
 -12611644.18348  -9621645.69146  21740912.321    21740912.1144   21740919.1334
       187.0004        186.0004
 21  2  1  0  7  0.0000000  0  9G30G08G09G17G04G07G01G14G21
  -6412987.44448  -4967645.90646  23239153.347    23239153.8964   23239162.9194
       169.0004        170.0004
 -14509437.62349 -11292103.50448  21914338.763    21914338.9504   21914346.0064
       219.0004        218.0004
 -16494398.91149 -12822592.13847  21297629.495    21297630.2274   21297637.0404
       206.0004        207.0004
  -5139764.53047  -3983307.41345  23484160.517    23484160.7174   23484165.8754
       156.0004        158.0004
  -8481521.86448  -6547967.43346  22706303.687    22706304.1664   22706309.4744
       171.0004        171.0004
 -19940876.70849 -15512627.52147  21275940.628    21275941.2944   21275945.0124
       200.0004        200.0004
 -18152363.71648 -14135753.69446  21675211.013    21675211.3994   21675219.5254
       186.0004        187.0004
  -1471146.55348  -1136361.49646  23497886.502    23497886.3494   23497892.4474
       166.0004        166.0004
 -12609438.97648  -9619927.33846  21741332.482    21741331.9414   21741337.8674
       186.0004        186.0004
 21  2  1  0  7 30.0000000  0  9G30G08G09G17G04G07G01G14G21
  -6501095.97748  -5036301.88046  23222386.714    23222387.1394   23222394.9694
       167.0004        167.0004
 -14423142.32249 -11224860.41548  21930760.841    21930760.8154   21930767.7504
       219.0004        219.0004
 -16442364.86349 -12782046.13447  21307531.724    21307532.0374   21307539.1114
       206.0004        207.0004
  -5226349.95047  -4050776.50545  23467683.008    23467683.7104   23467690.7434
       157.0004        161.0004
  -8385867.34548  -6473431.45446  22724505.748    22724506.4214   22724512.6094
       170.0004        171.0004
 -20008095.48249 -15565005.78247  21263149.111    21263149.6194   21263153.8834
       200.0004        200.0004
 -18216894.34248 -14186037.28946  21662931.871    21662932.5014   21662939.9254
       186.0004        186.0004
  -1497516.86348  -1156909.73946  23492867.900    23492869.0564   23492874.0344
       165.0004        167.0004
 -12606756.20048  -9617836.85446  21741843.095    21741842.4424   21741847.8534
       185.0004        185.0004
 21  2  1  0  8  0.0000000  0  9G30G08G09G17G04G07G01G14G21
  -6589202.71948  -5104956.46646  23205621.769    23205621.9284   23205629.7194
       167.0004        169.0004
 -14336635.21449 -11157452.26848  21947223.143    21947222.8954   21947229.0294
       219.0004        218.0004
 -16389929.46249 -12741187.38547  21317509.207    21317509.5884   21317517.6874
       206.0004        207.0004
  -5312629.22847  -4118007.03845  23451265.129    23451265.5514   23451272.6084
       160.0004        162.0004
  -8290088.83248  -6398798.86246  22742732.507    22742732.9084   22742738.9514
       170.0004        171.0004
 -20075110.22949 -15617225.05047  21250396.537    21250397.0464   21250401.4714
       200.0004        200.0004
 -18281128.50648 -14236089.85346  21650708.230    21650708.8094   21650716.7354
       186.0004        187.0004
  -1523857.80048  -1177435.11346  23487855.528    23487856.3714   23487861.7064
       166.0004        167.0004
 -12603594.93448  -9615373.50546  21742444.030    21742443.7854   21742448.8914
       185.0004        184.0004
 21  2  1  0  8 30.0000000  0  9G30G08G09G17G04G07G01G14G21
  -6677306.24348  -5173608.52846  23188856.323    23188856.4344   23188864.5834
       169.0004        171.0004
 -14249919.87849 -11089881.86848  21963723.962    21963723.9834   21963731.0624
       219.0004        218.0004
 -16337095.92049 -12700018.39147  21327563.178    21327563.7704   21327572.1154
       207.0004        207.0004
  -5398601.25047  -4184998.17045  23434904.403    23434904.4244   23434910.7594
       159.0004        159.0004
  -8194189.95248  -6324072.49346  22760981.457    22760981.8864   22760987.0814
       171.0004        171.0004
 -20141918.94649 -15669283.79047  21237683.189    21237684.1154   21237688.3794
       200.0004        201.0004
 -18345063.60048 -14285909.38846  21638541.516    21638542.0814   21638550.5614
       187.0004        187.0004
  -1550171.21448  -1197939.05546  23482848.180    23482848.5844   23482855.4544
       165.0004        166.0004
 -12599954.72448  -9612536.96146  21743136.847    21743136.8254   21743141.0184
       183.0004        183.0004
 21  2  1  0  9  0.0000000  0  9G30G08G09G17G04G07G01G14G21
  -6765403.81048  -5242255.96746  23172092.957    23172092.5174   23172099.1784
       170.0004        171.0004
 -14162998.14349 -11022150.63648  21980264.234    21980264.3454   21980271.9744
       218.0004        218.0004
 -16283866.20649 -12658540.69347  21337692.731    21337693.3634   21337700.8724
       207.0004        207.0004
  -5484263.60047  -4251748.00046  23418604.656    23418604.9494   23418609.4644
       159.0004        163.0004
  -8098173.02848  -6249254.11246  22779253.169    22779252.7024   22779258.6484
       171.0004        171.0004
 -20208518.18749 -15721179.28947  21225010.532    21225010.3334   21225014.6874
       201.0004        201.0004
 -18408695.74348 -14335492.85746  21626431.892    21626432.4754   21626441.3464
       187.0004        187.0004
  -1576457.71947  -1218422.00146  23477846.250    23477846.6994   23477851.9894
       164.0004        164.0004
 -12595834.28548  -9609326.21646  21743921.751    21743921.1384   21743925.6204
       183.0004        184.0004
 21  2  1  0  9 30.0000000  0  9G30G08G09G17G04G07G01G14G21
  -6853493.93448  -5310897.62046  23155329.860    23155329.3194   23155336.0454
       171.0004        172.0004
 -14075874.38149 -10954261.98348  21996842.921    21996843.3154   21996850.5854
       218.0004        217.0004
 -16230243.44949 -12616756.71547  21347897.319    21347897.5054   21347904.6904
       206.0004        206.0004
  -5569614.70647  -4318255.31545  23402362.032    23402362.5104   23402366.8934
       160.0004        162.0004
  -8002041.49248  -6174346.43446  22797544.916    22797546.2484   22797551.6394
       169.0004        169.0004
 -20274905.66349 -15772909.77047  21212376.785    21212377.8014   21212381.5644
       201.0004        202.0004
 -18472022.20248 -14384838.11946  21614381.653    21614382.6414   21614390.8004
       187.0004        187.0004
  -1602718.97247  -1238885.30646  23472848.845    23472849.2894   23472855.0454
       164.0004        165.0004
 -12591233.13948  -9605740.88046  21744798.299    21744797.2434   21744801.3424
       184.0004        184.0004
 21  2  1  0 10  0.0000000  0  9G30G08G09G17G04G07G01G14G21
  -6941573.66048  -5379531.13446  23138568.171    23138568.1114   23138575.5524
       171.0004        173.0004
 -13988549.75549 -10886216.81648  22013459.948    22013460.6714   22013467.6394
       218.0004        217.0004
 -16176229.41649 -12574667.87147  21358175.297    21358175.9444   21358183.1644
       206.0004        206.0004
  -5654652.11147  -4384518.16446  23386180.786    23386181.2444   23386185.4324
       162.0004        166.0004
  -7905797.43948  -6099351.09046  22815859.917    22815860.2554   22815867.7664
       167.0004        168.0004
 -20341077.78649 -15824472.46847  21199785.271    21199785.8134   21199788.9264
       202.0004        202.0004
 -18535038.87448 -14433942.01046  21602390.245    21602390.9724   21602399.3404
       187.0004        187.0004
  -1628955.38047  -1259329.22346  23467855.642    23467856.4114   23467861.9534
       164.0004        165.0004
 -12586149.44448  -9601779.55346  21745763.934    21745764.0704   21745766.9414
       183.0004        183.0004
 21  2  1  0 10 30.0000000  0  9G30G08G09G17G04G07G01G14G21
  -7029641.17848  -5448155.16446  23121809.406    23121810.1524   23121817.1514
       171.0004        172.0004
 -13901027.52049 -10818017.67848  22030115.087    22030115.5664   22030122.7684
       217.0004        217.0004
 -16121826.99949 -12532276.38647  21368528.362    21368528.5044   21368535.5384
       206.0004        206.0004
  -5739373.93447  -4450535.11546  23370057.888    23370058.2954   23370063.5494
       164.0004        165.0004
  -7809444.07248  -6024270.55446  22834195.005    22834195.9244   22834203.0734
       168.0004        170.0004
 -20407031.90449 -15875865.29647  21187234.279    21187234.8584   21187238.4434
       201.0004        201.0004
 -18597742.78648 -14482802.19947  21590458.341    21590459.3314   21590467.7634
       188.0004        189.0004
  -1655168.33347  -1279754.86546  23462868.541    23462868.6764   23462874.1934
       164.0004        166.0004
 -12580582.93648  -9597442.01846  21746822.803    21746822.5504   21746826.7154
       182.0004        182.0004
 21  2  1  0 11  0.0000000  0  9G30G08G09G17G04G07G01G14G21
  -7117694.43648  -5516768.05546  23105053.725    23105053.5514   23105059.9904
       171.0004        172.0004
 -13813310.99949 -10749667.11948  22046807.912    22046807.7954   22046814.6294
       217.0004        216.0004
 -16067038.89949 -12489584.35347  21378954.620    21378954.7504   21378961.4834
       205.0004        205.0004
  -5823778.79447  -4516305.07146  23353996.124    23353996.7344   23354001.4054
       163.0004        165.0004
  -7712984.35948  -5949107.14546  22852552.794    22852552.9224   22852558.8254
       169.0004        169.0004
 -20472765.65449 -15927086.37147  21174725.009    21174725.4444   21174730.3824
       201.0004        202.0004
 -18660130.74548 -14531416.16347  21578587.173    21578587.6274   21578595.6854
       189.0004        190.0004
  -1681359.05347  -1300163.20446  23457884.490    23457885.1834   23457889.5174
       163.0004        163.0004
 -12574532.67348  -9592727.49546  21747975.246    21747974.9114   21747978.4974
       182.0004        183.0004
 21  2  1  0 11 30.0000000  0  9G30G08G09G17G04G07G01G14G21
  -7205732.10148  -5585368.81546  23088300.174    23088300.4304   23088306.5604
       170.0004        170.0004
 -13725403.17649 -10681167.50648  22063535.540    22063535.8154   22063543.2294
       216.0004        216.0004
 -16011868.58049 -12446594.49447  21389452.977    21389453.0774   21389459.8084
       205.0004        205.0004
  -5907865.59147  -4581827.21146  23337996.764    23337996.3904   23338000.7224
       164.0004        167.0004
  -7616422.05648  -5873863.78846  22870927.182    22870927.2094   22870933.5964
       169.0004        170.0004
 -20538277.09749 -15978134.23247  21162258.226    21162259.2764   21162263.7504
       202.0004        202.0004
 -18722200.29948 -14579782.01947  21566775.976    21566776.0524   21566783.3544
       189.0004        189.0004
  -1707529.57547  -1320555.79245  23452902.960    23452904.2794   23452910.7224
       162.0004        162.0004
 -12567998.76648  -9587636.12046  21749218.573    21749217.9534   21749222.5004
       183.0004        183.0004
 21  2  1  0 12  0.0000000  0  9G30G08G09G17G04G07G01G14G21
  -7293752.10248  -5653955.85146  23071550.369    23071550.8704   23071558.1894
       169.0004        172.0004
 -13637307.29349 -10612521.37748  22080299.334    22080299.9464   22080307.0664
       216.0004        215.0004
 -15956318.75949 -12403308.93047  21400023.361    21400023.7994   21400030.7234
       204.0004        205.0004
  -5991632.62748  -4647100.19646  23322055.069    23322055.5054   23322061.4104
       165.0004        167.0004
  -7519760.09748  -5798542.82046  22889320.766    22889320.8034   22889328.3064
       169.0004        170.0004
 -20603563.23349 -16029006.55847  21149836.199    21149836.1274   21149839.8004
       202.0004        202.0004
 -18783948.31048 -14627897.35647  21555024.023    21555024.8994   21555033.2784
       188.0004        188.0004
  -1733681.12947  -1340933.59445  23447927.289    23447927.0114   23447933.7794
       160.0004        161.0004
 -12560980.17948  -9582167.09746  21750552.920    21750552.9994   21750558.2384
       183.0004        183.0004
 21  2  1  0 12 30.0000000  0  9G30G08G09G17G04G07G01G14G21
  -7381750.58048  -5722526.07246  23054805.068    23054805.1154   23054813.6074
       171.0004        173.0004
 -13549024.59549 -10543729.66548  22097099.603    22097099.3634   22097106.6854
       216.0004        215.0004
 -15900390.36549 -12359728.37947  21410666.006    21410666.6964   21410673.5904
       204.0004        204.0004
  -6075076.55848  -4712121.37746  23306176.277    23306176.2324   23306181.7664
       165.0004        166.0004
  -7422999.69748  -5723145.12746  22907733.787    22907734.0524   22907741.1144
       169.0004        170.0004
 -20668619.73149 -16079699.93147  21137455.637    21137456.4334   21137460.0024
       202.0004        202.0004
 -18845369.80848 -14675758.24347  21543336.843    21543336.9444   21543345.4294
       188.0004        188.0004
  -1759813.11847  -1361296.12645  23442952.962    23442954.6354   23442961.0734
       159.0004        161.0004
 -12553474.59748  -9576318.58046  21751982.280    21751981.7064   21751986.3294
       183.0004        184.0004
 21  2  1  0 13  0.0000000  0  9G30G08G09G17G04G07G01G14G21
  -7469726.74748  -5791078.90146  23038064.197    23038063.8614   23038071.5244
       172.0004        174.0004
 -13460559.23149 -10474795.60648  22113934.134    22113933.8784   22113940.7144
       215.0004        214.0004
 -15844087.49549 -12315856.01747  21421380.942    21421380.4444   21421387.5484
       204.0004        204.0004
  -6158196.55148  -4776890.16346  23290358.306    23290358.3584   23290364.3414
       165.0004        167.0004
  -7326145.14748  -5647674.06346  22926163.616    22926164.4274   22926171.2824
       169.0004        169.0004
 -20733445.05249 -16130213.16447  21125120.078    21125120.6624   21125124.5144
       202.0004        203.0004
 -18906463.00948 -14723363.31747  21531711.568    21531711.6884   21531719.2054
       188.0004        188.0004
  -1785928.06947  -1381645.43445  23437983.526    23437984.7984   23437990.6554
       159.0004        160.0004
 -12545482.31348  -9570090.81146  21753501.991    21753502.1614   21753506.5864
       184.0004        184.0004
 21  2  1  0 13 30.0000000  0  9G30G08G09G17G04G07G01G14G21
  -7557677.79348  -5859612.15946  23021327.731    23021327.4094   23021335.0844
       172.0004        173.0004
 -13371913.18749 -10405720.76348  22130802.624    22130802.5484   22130809.1714
       214.0004        213.0004
 -15787412.14849 -12271693.41147  21432164.491    21432165.2074   21432173.3034
       204.0004        204.0004
  -6240990.56648  -4841404.89346  23274603.394    23274603.7744   23274609.5444
       166.0004        169.0004
  -7229198.62848  -5572131.34046  22944612.986    22944612.8574   22944619.0864
       169.0004        169.0004
 -20798036.05449 -16180543.80447  21112828.668    21112829.1374   21112833.2054
       203.0004        203.0004
 -18967223.92748 -14770709.47947  21520149.633    21520149.5544   21520157.2244
       188.0004        189.0004
  -1812026.51347  -1401981.83345  23433018.265    23433019.2904   23433023.5594
       159.0004        161.0004
 -12537002.44048  -9563483.10246  21755116.307    21755115.9084   21755121.0614
       184.0004        185.0004
 21  2  1  0 14  0.0000000  0  9G30G08G09G17G04G07G01G14G21
  -7645602.76448  -5928125.11446  23004595.722    23004596.1064   23004603.3354
       172.0004        174.0004
 -13283091.12749 -10336508.75747  22147704.450    22147703.9954   22147711.6834
       213.0004        212.0004
 -15730368.25049 -12227243.62147  21443020.393    21443020.5904   21443028.4644
       204.0004        204.0004
  -6323458.20548  -4905665.32546  23258911.274    23258911.5064   23258916.9824
       168.0004        169.0004
  -7132164.33348  -5496520.19446  22963077.952    22963078.7954   22963084.4194
       169.0004        170.0004
 -20862390.98949 -16230690.49747  21100582.509    21100583.1244   21100586.4644
       203.0004        203.0004
 -19027650.66748 -14817795.21947  21508649.613    21508649.5164   21508657.9984
       188.0004        188.0004
  -1838110.80847  -1422307.21645  23428055.029    23428055.7034   23428061.3134
       160.0004        162.0004
 -12528035.49548  -9556495.84546  21756822.461    21756822.0254   21756828.4494
       185.0004        186.0004
 21  2  1  0 14 30.0000000  0  9G30G08G09G17G04G07G01G14G21
  -7733499.05148  -5996615.73546  22987870.074    22987870.2924   22987876.3294
       172.0004        173.0004
 -13194094.76949 -10267160.95147  22164638.174    22164639.0344   22164647.0614
       212.0004        211.0004
 -15672958.11949 -12182508.46647  21453944.059    21453944.6604   21453952.3654
       203.0004        202.0004
  -6405596.92648  -4969669.48246  23243278.936    23243279.0084   23243287.4704
       167.0004        167.0004
  -7035044.71448  -5420842.58646  22981559.335    22981559.7424   22981565.9054
       169.0004        169.0004
 -20926506.53849 -16280650.66347  21088381.339    21088381.6294   21088386.1254
       203.0004        203.0004
 -19087739.63348 -14864617.77047  21497214.089    21497214.4834   21497223.4994
       188.0004        188.0004
  -1864181.69447  -1442622.13445  23423093.246    23423093.8704   23423099.7424
       161.0004        162.0004
 -12518580.24248  -9549128.11746  21758622.964    21758621.5294   21758627.3414
       185.0004        185.0004
 21  2  1  0 15  0.0000000  0  9G30G08G09G17G04G07G01G14G21
  -7821364.01848  -6065081.92146  22971150.190    22971150.3024   22971157.3724
       172.0004        175.0004
 -13104926.39749 -10197679.10847  22181607.528    22181607.8114   22181615.2594
       212.0004        212.0004
 -15615184.01849 -12137489.69147  21464939.578    21464939.5724   21464946.4004
       203.0004        203.0004
  -6487404.84148  -5033415.86046  23227712.135    23227712.1904   23227718.2174
       166.0004        168.0004
  -6937842.19948  -5345100.38046  23000055.066    23000055.4344   23000062.6584
       168.0004        168.0004
 -20990379.40249 -16330421.71347  21076226.499    21076227.0254   21076231.6454
       203.0004        203.0004
 -19147487.03948 -14911174.17647  21485846.475    21485847.1144   21485854.8424
       190.0004        193.0004
  -1890239.79647  -1462927.11445  23418135.916    23418135.5224   23418140.4174
       161.0004        162.0004
 -12508635.34848  -9541378.82746  21760514.430    21760514.0834   21760519.8444
       186.0004        186.0004
 21  2  1  0 15 30.0000000  0  9G30G08G09G17G04G07G01G14G21
  -7909195.80448  -6133522.26346  22954436.490    22954436.3754   22954442.7234
       173.0004        173.0004
 -13015590.12549 -10128066.42647  22198608.670    22198608.3394   22198615.7344
       212.0004        212.0004
 -15557048.97249 -12092189.67547  21476002.232    21476002.1594   21476009.6214
       203.0004        203.0004
  -6568880.66048  -5096903.48746  23212207.664    23212208.7824   23212213.3874
       166.0004        167.0004
  -6840559.96248  -5269296.06346  23018568.443    23018568.4284   23018575.2354
       168.0004        169.0004
 -21054007.29949 -16380001.88747  21064118.601    21064119.1874   21064123.3114
       203.0004        203.0004
 -19206890.13448 -14957462.30747  21474544.155    21474544.2204   21474550.5004
       194.0004        195.0004
  -1916286.62347  -1483223.32745  23413179.131    23413179.4314   23413184.5274
       161.0004        162.0004
 -12498200.55948  -9533247.79746  21762499.924    21762499.8574   21762505.3894
       186.0004        186.0004
 21  2  1  0 16  0.0000000  0  9G30G08G09G17G04G07G01G14G21
  -7996991.84348  -6201934.72746  22937727.395    22937728.8124   22937736.9624
       171.0004        171.0004
 -12926087.46849 -10058324.08347  22215639.245    22215639.5934   22215647.8384
       212.0004        212.0004
 -15498555.43249 -12046610.29147  21487132.532    21487132.8524   21487140.1204
       202.0004        203.0004
  -6650021.99447  -5160130.45646  23196767.431    23196767.5694   23196772.8524
       164.0004        164.0004
  -6743200.54948  -5193431.60746  23037094.617    23037095.1864   23037102.0764
       168.0004        168.0004
 -21117387.14049 -16429388.77247  21052058.142    21052058.4164   21052062.1094
       203.0004        203.0004
 -19265945.35248 -15003479.36247  21463304.886    21463305.5514   21463311.9774
       194.0004        193.0004
  -1942322.99647  -1503511.36945  23408223.958    23408223.8444   23408229.9424
       159.0004        159.0004
 -12487274.99248  -9524734.34646  21764578.760    21764578.1504   21764584.4994
       186.0004        187.0004
 21  2  1  0 16 30.0000000  0  9G30G08G09G17G04G07G01G14G21
  -8084750.26648  -6270317.89746  22921028.116    22921028.4474   22921036.3544
       170.0004        171.0004
 -12836421.71649  -9988454.67647  22232702.686    22232702.7514   22232710.4194
       211.0004        210.0004
 -15439706.51249 -12000754.00447  21498331.075    21498331.5704   21498338.7634
       202.0004        203.0004
  -6730827.54347  -5223095.77246  23181391.170    23181391.9704   23181394.1954
       163.0004        165.0004
  -6645767.25848  -5117509.57846  23055636.571    23055636.4664   23055642.2224
       168.0004        168.0004
 -21180516.33249 -16478580.34147  21040044.234    21040045.2604   21040049.5794
       203.0004        204.0004
 -19324649.96948 -15049223.20747  21452131.521    21452131.7914   21452140.5764
       191.0004        188.0004
  -1968350.38547  -1523792.44345  23403271.151    23403271.9534   23403276.8594
       157.0004        159.0004
 -12475858.62948  -9515838.47946  21766751.035    21766750.8794   21766757.5234
       187.0004        187.0004
 21  2  1  0 17  0.0000000  0  9G30G08G09G17G04G07G01G14G21
  -8172468.75448  -6338669.94946  22904335.526    22904336.2934   22904343.2344
       169.0004        170.0004
 -12746595.79349  -9918460.44947  22249796.188    22249796.0454   22249803.4374
       210.0004        210.0004
 -15380504.86949 -11954622.85447  21509597.259    21509597.4034   21509604.6224
       202.0004        203.0004
  -6811295.96347  -5285798.42946  23166078.736    23166078.2244   23166081.6124
       163.0004        163.0004
  -6548262.81248  -5041532.10546  23074191.018    23074191.0764   23074197.4154
       167.0004        168.0004
 -21243392.13549 -16527574.46247  21028080.019    21028080.4654   21028084.8224
       203.0004        203.0004
 -19383000.71048 -15094691.27946  21441026.577    21441027.8224   21441037.1094
       188.0004        187.0004
  -1994369.81047  -1544067.31045  23398319.395    23398320.7254   23398325.8344
       157.0004        159.0004
 -12463950.67348  -9506559.52546  21769017.568    21769017.5514   21769023.1454
       187.0004        187.0004
 21  2  1  0 17 30.0000000  0  9G30G08G09G17G04G07G01G14G21
  -8260144.96848  -6406989.06646  22887650.951    22887651.4264   22887659.9524
       170.0004        172.0004
 -12656612.42049  -9848343.52947  22266919.189    22266919.2264   22266927.0104
       210.0004        210.0004
 -15320953.14249 -11908218.91847  21520928.912    21520929.4974   21520937.2254
       202.0004        203.0004
  -6891425.23647  -5348236.79645  23150829.507    23150829.2184   23150831.7794
       159.0004        159.0004
  -6450689.99248  -4965501.37146  23092758.205    23092757.6694   23092764.3734
       165.0004        167.0004
 -21306011.63149 -16576368.87547  21016163.852    21016164.3914   21016168.4744
       204.0004        204.0004
 -19440994.21348 -15139880.99847  21429991.441    21429992.6414   21430001.5124
       188.0004        189.0004
  -2020382.31647  -1564336.78145  23393370.927    23393370.9694   23393375.7064
       157.0004        159.0004
 -12451550.67248  -9496897.15747  21771378.134    21771377.5974   21771382.3684
       187.0004        188.0004
 21  2  1  0 18  0.0000000  0  9G30G08G09G17G04G07G01G14G21
  -8347776.96548  -6475273.70146  22870975.186    22870975.5604   22870983.3144
       171.0004        173.0004
 -12566474.74449  -9778106.37247  22284070.043    22284071.1984   22284079.5264
       210.0004        210.0004
 -15261054.44449 -11861544.61247  21532328.110    21532328.2074   21532335.3844
       203.0004        203.0004
  -6971213.98047  -5410409.82245  23135646.477    23135647.2854   23135649.6804
       159.0004        161.0004
  -6353051.89347  -4889419.76746  23111337.403    23111338.2584   23111343.9034
       164.0004        164.0004
 -21368372.28349 -16624961.58547  21004296.875    21004297.2514   21004301.6484
       204.0004        204.0004
 -19498627.72348 -15184790.21047  21419025.275    21419026.2204   21419034.1374
       190.0004        192.0004
  -2046389.27347  -1584601.90645  23388421.360    23388421.3024   23388426.6964
       156.0004        157.0004
 -12438658.40048  -9486851.21746  21773830.880    21773830.3074   21773835.7904
       187.0004        187.0004
 21  2  1  0 18 30.0000000  0  9G30G08G09G17G04G07G01G14G21
  -8435361.11848  -6543521.06546  22854308.380    22854308.7414   22854317.0804
       171.0004        172.0004
 -12476183.89849  -9707749.86047  22301253.777    22301253.7334   22301261.1594
       210.0004        209.0004
 -15200810.24749 -11814601.07747  21543792.157    21543792.0454   21543798.8994
       203.0004        203.0004
  -7050659.41547  -5472315.32445  23120527.594    23120528.0444   23120532.7344
       159.0004        160.0004
  -6255350.08447  -4813288.49646  23129929.360    23129930.0544   23129936.7174
       162.0004        164.0004
 -21430469.86549 -16673349.30347  20992480.616    20992480.6774   20992484.7404
       204.0004        204.0004
 -19555896.75848 -15229415.42147  21408128.601    21408129.1484   21408136.3354
       192.0004        193.0004
  -2072390.49347  -1604862.59845  23383471.663    23383473.2174   23383478.9154
       154.0004        156.0004
 -12425271.83948  -9476420.10747  21776378.376    21776377.7834   21776382.7854
       187.0004        188.0004
 21  2  1  0 19  0.0000000  0  9G30G08G09G17G04G07G01G14G21
  -8522896.25448  -6611730.22146  22837652.065    22837651.9274   22837659.2904
       172.0004        174.0004
 -12385743.88249  -9637277.11647  22318464.153    22318463.8624   22318471.3554
       209.0004        208.0004
 -15140224.37049 -11767391.30847  21555321.247    21555321.6974   21555328.3174
       203.0004        203.0004
  -7129761.26747  -5533953.05546  23105475.453    23105475.6464   23105481.0144
       161.0004        165.0004
  -6157588.44147  -4737110.62246  23148532.725    23148533.8884   23148540.9124
       162.0004        163.0004
 -21492302.80349 -16721530.81047  20980713.329    20980714.0684   20980718.3834
       204.0004        204.0004
 -19612799.20848 -15273754.97447  21397301.040    21397301.2064   21397308.0344
       193.0004        194.0004
  -2098388.17647  -1625120.49845  23378526.204    23378527.0414   23378530.7504
       154.0004        156.0004
 -12411391.56648  -9465604.28647  21779019.343    21779019.1524   21779024.3924
       187.0004        188.0004
 21  2  1  0 19 30.0000000  0  9G30G08G09G17G04G07G01G14G21
  -8610380.88748  -6679900.05746  22821003.025    22821003.3464   22821010.4014
       171.0004        171.0004
 -12295158.14149  -9566690.82147  22335701.420    22335701.5254   22335709.0764
       208.0004        207.0004
 -15079300.45549 -11719918.12447  21566914.825    21566914.9494   21566922.0194
       203.0004        204.0004
  -7208518.33948  -5595322.13546  23090489.769    23090489.4744   23090495.4954
       165.0004        168.0004
  -6059770.64047  -4660888.99846  23167147.146    23167148.1464   23167154.1844
       162.0004        163.0004
 -21553869.37049 -16769504.75147  20968998.096    20968998.2444   20969003.0544
       204.0004        204.0004
 -19669332.80748 -15317807.11247  21386542.395    21386542.5004   21386550.1344
       193.0004        194.0004
  -2124384.17947  -1645377.10445  23373578.457    23373578.5634   23373583.4974
       155.0004        158.0004
 -12397018.07148  -9454404.14246  21781754.659    21781754.6904   21781759.5454
       187.0004        187.0004
 21  2  1  0 20  0.0000000  0  9G30G08G09G17G04G07G01G14G21
  -8697812.74848  -6748028.78346  22804367.069    22804367.4544   22804374.0294
       174.0004        177.0004
 -12204429.72049  -9495993.35247  22352967.362    22352967.0594   22352973.6064
       208.0004        207.0004
 -15018041.30749 -11672183.73547  21578571.856    21578572.1744   21578579.0694
       204.0004        204.0004
  -7286929.21448  -5656421.47346  23075565.829    23075567.0484   23075574.3304
       167.0004        168.0004
  -5961899.51147  -4584625.82446  23185772.390    23185772.2454   23185779.9674
       163.0004        165.0004
 -21615166.10549 -16817268.44647  20957333.339    20957334.2124   20957338.1344
       203.0004        204.0004
 -19725494.47548 -15361569.44247  21375854.015    21375854.8214   21375862.5024
       193.0004        192.0004
  -2150379.59747  -1665633.25545  23368632.543    23368633.3374   23368637.5644
       157.0004        160.0004
 -12382150.78448  -9442819.22046  21784583.837    21784583.2864   21784588.4464
       187.0004        187.0004
 21  2  1  0 20 30.0000000  0  9G30G08G09G17G04G07G01G14G21
  -8785188.93648  -6816114.09546  22787739.319    22787739.6184   22787746.8774
       176.0004        178.0004
 -12113560.70749  -9425186.32547  22370258.781    22370258.6944   22370265.6894
       208.0004        208.0004
 -14956449.15649 -11624189.85447  21590292.693    21590292.7234   21590299.5294
       203.0004        203.0004
  -7364991.82348  -5717249.43946  23060711.289    23060712.3394   23060720.1134
       169.0004        173.0004
  -5863977.30947  -4508322.84446  23204405.984    23204406.6204   23204413.6694
       163.0004        164.0004
 -21676189.78649 -16864819.37847  20945721.557    20945722.1354   20945725.3904
       204.0004        204.0004
 -19781280.49748 -15405039.04847  21365238.270    21365239.0384   21365247.0764
       192.0004        191.0004
  -2176374.93447  -1685889.32945  23363685.065    23363685.5944   23363690.8354
       158.0004        161.0004
 -12366788.82248  -9430848.83147  21787507.679    21787506.4964   21787511.8014
       187.0004        188.0004
 21  2  1  0 21  0.0000000  0  9G30G08G09G17G04G07G01G14G21
  -8872506.77548  -6884153.97046  22771123.361    22771123.9514   22771130.2964
       177.0004        179.0004
 -12022553.48249  -9354271.61847  22387575.557    22387576.0984   22387583.5444
       207.0004        206.0004
 -14894526.46349 -11575938.42847  21602076.413    21602076.5594   21602083.1154
       203.0004        203.0004
  -7442704.04348  -5777804.37046  23045924.441    23045924.4444   23045932.0964
       172.0004        173.0004
  -5766006.45047  -4431981.96346  23223049.969    23223049.6044   23223056.9244
       163.0004        164.0004
 -21736937.40549 -16912155.19647  20934161.041    20934161.4524   20934166.0124
       204.0004        204.0004
 -19836687.35648 -15448213.22947  21354693.906    21354694.7454   21354703.3684
       190.0004        190.0004
  -2202370.88447  -1706145.88745  23358737.843    23358738.6744   23358744.0864
       159.0004        160.0004
 -12350931.51848  -9418492.49046  21790524.452    21790523.6774   21790529.1874
       187.0004        186.0004
 21  2  1  0 21 30.0000000  0 10G30G28G08G09G17G04G07G01G14G21
  -8959764.17148  -6952146.71846  22754518.889    22754519.2814   22754525.9114
       178.0004        179.0004
   -699865.29854   -534752.93845  23671444.663
        74.0004        146.0004
 -11931410.83649  -9283251.37547  22404919.435    22404919.5564   22404928.1144
       206.0004        205.0004
 -14832276.30249 -11527431.81147  21613921.999    21613921.8714   21613929.4584
       203.0004        203.0004
  -7520064.44948  -5838085.14846  23031204.249    23031204.4364   23031210.2934
       174.0004        176.0004
  -5667989.98347  -4355605.51445  23241700.837    23241701.7814   23241708.0394
       162.0004        162.0004
 -21797406.43649 -16959273.91247  20922653.973    20922654.6864   20922659.1384
       204.0004        204.0004
 -19891712.30648 -15491089.78547  21344222.553    21344223.7764   21344232.7064
       190.0004        191.0004
  -2228368.78247  -1726403.96445  23353790.650    23353791.1784   23353796.3034
       158.0004        159.0004
 -12334578.61748  -9405749.94947  21793636.041    21793635.9364   21793640.8924
       187.0004        188.0004
 21  2  1  0 22  0.0000000  0 10G30G28G08G09G17G04G07G01G14G21
  -9046958.66948  -7020090.47046  22737927.068    22737926.7214   22737933.7654
       180.0004        181.0004
   -714803.05647   -546392.74045  23668602.845                    23668607.1434
       135.0004        147.0004
 -11840135.41549  -9212127.67647  22422288.614    22422288.7524   22422297.4934
       205.0004        205.0004
 -14769701.39249 -11478672.13947  21625828.831    21625829.2774   21625837.0844
       202.0004        202.0004
  -7597071.65348  -5898090.68346  23016549.270    23016549.7654   23016555.5014
       173.0004        174.0004
  -5569930.63347  -4279195.64945  23260359.943    23260360.7684   23260367.7384
       160.0004        161.0004
 -21857593.99749 -17006173.31147  20911201.826    20911201.9484   20911205.2064
       204.0004        204.0004
 -19946352.11248 -15533666.22047  21333825.463    21333826.0814   21333835.1414
       190.0004        191.0004
  -2254369.59947  -1746664.30445  23348842.904    23348843.2274   23348848.3084
       158.0004        161.0004
 -12317729.76248  -9392620.94846  21796842.878    21796842.2564   21796847.2754
       187.0004        186.0004
 21  2  1  0 22 30.0000000  0 10G30G28G08G09G17G04G07G01G14G21
  -9134089.98848  -7087984.97846  22721346.849    22721347.1584   22721353.7364
       181.0004        183.0004
   -729733.90047   -558027.10845  23665761.943    23665761.9484   23665766.4574
       145.0004        151.0004
 -11748732.05949  -9140904.29247  22439683.515    22439683.0024   22439690.9064
       206.0004        206.0004
 -14706806.59949 -11429663.21947  21637797.649    21637797.7034   21637805.4804
       201.0004        201.0004
  -7673726.04248  -5957821.29946  23001961.564    23001962.2484   23001968.4964
       172.0004        173.0004
  -5471833.19547  -4202756.12446  23279028.164    23279028.6944   23279035.8514
       160.0004        163.0004
 -21917499.09249 -17052852.61147  20899801.455    20899801.9204   20899806.5564
       204.0004        205.0004
 -20000605.69148 -15575941.71547  21323502.015    21323501.9894   21323511.1264
       190.0004        191.0004
  -2280376.33447  -1766929.26846  23343894.551    23343894.8284   23343900.6544
       161.0004        164.0004
 -12300386.70148  -9379106.84446  21800142.736    21800142.0864   21800147.3934
       186.0004        186.0004
 21  2  1  0 23  0.0000000  0 10G30G28G08G09G17G04G07G01G14G21
  -9221155.71748  -7155828.38846  22704778.614    22704778.4874   22704784.7084
       181.0004        180.0004
   -744659.28647   -569657.26745  23662920.817    23662921.1784   23662926.8854
       150.0004        154.0004
 -11657203.38149  -9069583.23547  22457099.851    22457100.3894   22457107.9624
       206.0004        206.0004
 -14643594.74849 -11380407.23247  21649826.251    21649826.4704   21649833.7274
       200.0004        200.0004
  -7750026.48048  -6017276.18246  22987443.329    22987443.7914   22987448.3834
       172.0004        172.0004
  -5373700.44947  -4126289.09246  23297702.328    23297702.9114   23297709.5664
       162.0004        164.0004
 -21977118.96649 -17099309.64347  20888456.004    20888456.3664   20888461.3464
       204.0004        205.0004
 -20054470.03748 -15617913.91047  21313252.770    21313252.5304   21313260.4284
       191.0004        192.0004
  -2306390.08847  -1787199.71046  23338943.887    23338944.8204   23338949.5864
       162.0004        163.0004
 -12282548.99348  -9365207.31646  21803536.737    21803536.4704   21803541.3734
       186.0004        186.0004
 21  2  1  0 23 30.0000000  0 10G30G28G08G09G17G04G07G01G14G21
  -9308152.94548  -7223618.42146  22688222.861    22688223.5644   22688229.8114
       180.0004        180.0004
   -759580.09947   -581283.83445  23660080.926    23660081.1424   23660085.7424
       149.0004        152.0004
 -11565551.55949  -8998166.23447  22474539.615    22474540.5434   22474549.0424
       206.0004        205.0004
 -14580068.13849 -11330905.97747  21661914.775    21661915.0534   21661922.8984
       200.0004        200.0004
  -7825970.61548  -6076453.37146  22972991.476    22972991.7204   22972997.9764
       173.0004        175.0004
  -5275534.57147  -4049796.23746  23316382.390    23316383.5074   23316390.3604
       162.0004        164.0004
 -22036450.48649 -17145541.99347  20877165.706    20877166.5094   20877170.3944
       204.0004        205.0004
 -20107941.46648 -15659579.93747  21303077.180    21303077.3084   21303084.8854
       192.0004        193.0004
  -2332411.33947  -1807475.97446  23333993.379    23333993.5944   23333998.0164
       163.0004        164.0004
 -12264215.79848  -9350921.68646  21807025.794    21807025.1324   21807030.4014
       185.0004        185.0004
 21  2  1  0 24  0.0000000  0 10G30G28G08G09G17G04G07G01G14G21
  -9395077.07748  -7291351.49646  22671681.222    22671681.3934   22671687.7254
       178.0004        178.0004
   -774495.56247   -592906.22745  23657243.952    23657243.4384   23657249.1484
       150.0004        153.0004
 -11473777.05149  -8926653.62447  22492005.122    22492004.7434   22492012.6594
       205.0004        204.0004
 -14516227.39549 -11281159.94247  21674063.772    21674063.7314   21674070.5984
       200.0004        199.0004
  -7901554.96848  -6135350.23146  22958607.897    22958608.2274   22958612.9394
       174.0004        174.0004
  -5177336.12747  -3973278.00746  23335069.591    23335069.9374   23335076.5464
       162.0004        163.0004
 -22095488.15449 -17191545.36347  20865931.224    20865931.9034   20865935.7934
       204.0004        204.0004
 -20161014.73448 -15700935.71947  21292977.404    21292978.2384   21292986.0594
       193.0004        194.0004
  -2358438.87447  -1827757.13945  23329040.018    23329040.1544   23329045.0854
       161.0004        161.0004
 -12245384.72548  -9336248.10346  21810609.096    21810609.2214   21810614.0214
       186.0004        187.0004
 21  2  1  0 24 30.0000000  0 10G30G28G08G09G17G04G07G01G14G21
  -9481925.48348  -7359025.60846  22655155.503    22655154.9144   22655161.6034
       180.0004        181.0004
   -789407.20247   -604525.67645  23654406.283    23654406.0414   23654410.1614
       151.0004        154.0004
 -11381882.14349  -8855047.22047  22509491.639    22509491.3044   22509499.2084
       204.0004        203.0004
 -14452075.17749 -11231171.21547  21686270.912    21686271.1424   21686278.9154
       199.0004        200.0004
  -7976777.68448  -6193965.30346  22944292.505    22944293.4364   22944297.0384
       172.0004        171.0004
  -5079107.68947  -3896736.41446  23353762.586    23353762.9134   23353768.4634
       162.0004        163.0004
 -22154229.40249 -17237317.77547  20854754.162    20854754.4094   20854758.0264
       205.0004        205.0004
 -20213686.62948 -15741978.75947  21282954.249    21282954.8024   21282963.1694
       194.0004        195.0004
  -2384473.59547  -1848043.92045  23324084.732    23324085.9534   23324091.3714
       158.0004        159.0004
 -12226055.51848  -9321186.36846  21814287.314    21814287.0134   21814292.8684
       186.0004        186.0004
 21  2  1  0 25  0.0000000  0 10G30G28G08G09G17G04G07G01G14G21
  -9568696.08148  -7426639.02646  22638643.242    22638643.6924   22638650.4504
       182.0004        183.0004
   -804316.55647   -616143.32245  23651568.254    23651568.3934   23651572.6794
       151.0004        154.0004
 -11289869.72049  -8783349.22647  22526999.881    22527000.4404   22527009.3414
       202.0004        202.0004
 -14387614.65249 -11180942.24347  21698537.886    21698538.1224   21698545.3264
       199.0004        199.0004
  -8051637.69248  -6252297.74246  22930047.161    22930048.2074   22930052.1394
       169.0004        171.0004
  -4980852.26847  -3820173.77046  23372460.841    23372459.9914   23372466.1504
       162.0004        163.0004
 -22212671.47149 -17282857.04747  20843632.046    20843632.7724   20843636.3754
       205.0004        205.0004
 -20265954.37749 -15782706.85047  21273008.502    21273008.6804   21273016.8754
       195.0004        195.0004
  -2410516.73047  -1868337.25345  23319129.486    23319129.7384   23319134.5004
       157.0004        159.0004
 -12206228.02848  -9305736.35046  21818060.840    21818060.2294   21818064.8784
       186.0004        186.0004
 21  2  1  0 25 30.0000000  0 10G30G28G08G09G17G04G07G01G14G21
  -9655387.18648  -7494190.50846  22622146.636    22622146.0594   22622152.9474
       182.0004        182.0004
   -819225.70547   -627760.80145  23648731.542    23648731.7274   23648736.3964
       152.0004        155.0004
 -11197743.52949  -8711562.58047  22544531.120    22544531.7604   22544540.2534
       202.0004        203.0004
 -14322849.39749 -11130475.79947  21710862.611    21710862.8174   21710869.8764
       199.0004        200.0004
  -8126133.72548  -6310346.55146  22915872.662    22915872.5494   22915876.5114
       171.0004        172.0004
  -4882573.36947  -3743592.82645  23391162.382    23391162.0324   23391168.0994
       161.0004        162.0004
 -22270812.34549 -17328161.61147  20832568.348    20832568.9644   20832572.6074
       204.0004        205.0004
 -20317815.71849 -15823118.26247  21263139.991    21263139.9074   21263147.8224
       195.0004        195.0004
  -2436570.02247  -1888638.50245  23314171.185    23314171.4804   23314176.3204
       156.0004        157.0004
 -12185902.51148  -9289898.25546  21821927.860    21821927.8874   21821933.2684
       186.0004        185.0004
 21  2  1  0 26  0.0000000  0 10G30G28G08G09G17G04G07G01G14G21
  -9741996.74548  -7561678.46346  22605665.452    22605665.3434   22605672.6254
       181.0004        182.0004
   -834135.96847   -639379.16445  23645894.260    23645893.8934   23645898.4894
       153.0004        155.0004
 -11105506.23849  -8639689.36547  22562083.813    22562084.3144   22562092.8854
       203.0004        204.0004
 -14257782.65249 -11079774.44547  21723244.528    21723244.6304   21723252.0574
       200.0004        200.0004
  -8200265.90048  -6368111.84946  22901765.487    22901765.2944   22901769.6894
       173.0004        174.0004
  -4784274.03547  -3666995.97245  23409866.977    23409867.8734   23409873.2514
       160.0004        159.0004
 -22328649.37649 -17373229.42647  20821562.360    20821563.1654   20821566.8974
       205.0004        205.0004
 -20369268.00849 -15863210.95447  21253348.174    21253349.2474   21253356.6564
       195.0004        195.0004
  -2462634.81547  -1908948.71745  23309210.014    23309210.3024   23309218.0474
       155.0004        158.0004
 -12165079.72148  -9273672.68646  21825890.335    21825890.0784   21825895.6244
       186.0004        186.0004
 21  2  1  0 26 30.0000000  0 10G30G28G08G09G17G04G07G01G14G21
  -9828521.64448  -7629100.46246  22589199.974    22589200.2264   22589206.4344
       180.0004        180.0004
   -849048.91147   -650999.59145  23643056.483    23643056.3494   23643060.6724
       152.0004        154.0004
 -11013160.29649  -8567731.50347  22579656.342    22579656.7534   22579666.0254
       203.0004        203.0004
 -14192416.61649 -11028839.89347  21735682.432    21735682.6684   21735690.5174
       199.0004        199.0004
  -8274031.52848  -6425591.52346  22887726.983    22887727.8724   22887732.9094
       172.0004        174.0004
  -4685956.36947  -3590384.83645  23428574.511    23428576.0044   23428582.6944
       158.0004        159.0004
 -22386179.34249 -17418057.97747  20810615.533    20810615.2914   20810619.5414
       205.0004        206.0004
 -20420307.60749 -15902982.06647  21243636.130    21243636.2614   21243643.9394
       195.0004        196.0004
  -2488711.41947  -1929268.13045  23304250.034    23304250.3184   23304254.2984
       155.0004        158.0004
 -12143758.44848  -9257058.69246  21829948.416    21829947.4084   21829952.9214
       185.0004        185.0004
 21  2  1  0 27  0.0000000  0 10G30G28G08G09G17G04G07G01G14G21
  -9914959.85048  -7696454.88046  22572750.542    22572750.7234   22572758.1524
       181.0004        182.0004
   -863966.03047   -662623.25445  23640217.668    23640217.4574   23640222.5034
       153.0004        157.0004
 -10920708.61549  -8495691.21847  22597247.747    22597248.9484   22597258.0494
       202.0004        201.0004
 -14126754.59449 -10977674.69247  21748178.067    21748178.2544   21748185.1224
       199.0004        199.0004
  -8347429.20648  -6482784.48446  22873760.987    22873761.8394   22873764.9204
