     2.11           OBSERVATION DATA    G (GPS)             RINEX VERSION / TYPE
teqc  2018Jun8                          20210202 03:10:38UTCPGM / RUN BY / DATE
Linux2.6.32-573.12.1.el6.x86_64|x86_64|gcc|Win64-MinGW64|=+ COMMENT
BIT 2 OF LLI FLAGS DATA COLLECTED UNDER A/S CONDITION       COMMENT
-Unknown-                                                   MARKER NAME
CRNO                                                        MARKER NUMBER
-Unknown-           -Unknown-                               OBSERVER / AGENCY
-Unknown-           ASHTECH             -Unknown-           REC # / TYPE / VERS
-Unknown-           -Unknown-                               ANT # / TYPE
   408077.4825 -6158372.0476  1605163.0470                  APPROX POSITION XYZ
        0.0000        0.0000        0.0000                  ANTENNA: DELTA H/E/N
     1     1                                                WAVELENGTH FACT L1/2
     7    L1    L2    C1    P1    P2    S1    S2            # / TYPES OF OBSERV
    30.0000                                                 INTERVAL
Forced Modulo Decimation to 30 seconds                      COMMENT
 SNR is mapped to RINEX snr flag value [1-9]                COMMENT
  L1: 1 -> 1;  90 -> 5; 210 -> 9                            COMMENT
  L2: 1 -> 1; 150 -> 5; 250 -> 9                            COMMENT
pseudorange smoothing corrections not applied               COMMENT
  2021     2     5     0     0   30.0000000     GPS         TIME OF FIRST OBS
                                                            END OF HEADER
 21  2  5  0  0 30.0000000  0  9G27G03G07G08G21G16G09G04G01
 -15259154.91749 -11869943.32247  22131022.136    22131022.7964   22131030.4574
       212.0004        212.0004
    254255.67048    221855.27146  24440828.779    24440829.6794   24440839.3964
       171.0004        172.0004
  -6995565.93347  -5421269.42546  23554263.732    23554264.3024   23554269.3824
       164.0004        167.0004
 -22666910.95349 -17634668.08647  20229174.242    20229174.4134   20229182.2794
       212.0004        212.0004
 -11552607.12047  -8989051.73845  22538428.206    22538426.3874   22538432.4514
       160.0004        162.0004
    127040.75146    134779.85445  24607853.149    24607853.2824   24607858.6724
       127.0004        134.0004
 -19012774.52749 -14465333.73047  20921728.830    20921729.1944   20921735.6694
       211.0004        211.0004
 -20105078.27049 -15640782.57347  20526286.995    20526287.4864   20526293.3334
       208.0004        207.0004
  -4381545.37247  -3394512.72045  23819299.372    23819300.8194   23819314.5894
       140.0004        144.0004
 21  2  5  0  1  0.0000000  0  9G27G03G07G08G21G16G09G04G01
 -15172928.59349 -11802753.99247  22147430.961    22147430.7794   22147438.6874
       212.0004        212.0004
    307372.50448    263244.84446  24450938.428    24450939.3384   24450948.2154
       173.0004        175.0004
  -7066720.74948  -5476714.73646  23540724.687    23540725.1164   23540729.2064
       167.0004        170.0004
 -22642990.72349 -17616028.95047  20233726.004    20233726.2614   20233734.2374
       211.0004        212.0004
 -11600455.07247  -9026335.82545  22529321.281    22529320.2464   22529327.1774
       160.0004        162.0004
    202890.63646    193883.68445  24622287.172    24622286.7514   24622293.5794
       127.0004        136.0004
 -19041788.91549 -14487942.35747  20916207.242    20916207.5534   20916214.7444
       211.0004        211.0004
 -20062507.22749 -15607610.35947  20534387.905    20534388.2904   20534394.6754
       208.0004        207.0004
  -4454243.14947  -3451160.23045  23805467.412    23805469.7774   23805480.3574
       142.0004        147.0004
 21  2  5  0  1 30.0000000  0  9G27G03G07G08G21G16G09G04G01
 -15086340.65949 -11735282.87647  22163907.570    22163907.9774   22163915.8624
       212.0004        212.0004
    360267.13048    304461.27946  24461003.066    24461003.5784   24461013.6114
       173.0004        173.0004
  -7137990.42948  -5532249.52646  23527161.339    23527162.1274   23527167.3864
       168.0004        169.0004
 -22618489.55149 -17596937.11847  20238388.436    20238388.7644   20238396.7364
       211.0004        212.0004
 -11648150.02447  -9063500.65545  22520244.730    22520244.6434   22520250.7294
       160.0004        162.0004
    278575.59246    252858.96045  24636690.408    24636690.4134   24636696.5464
       125.0004        132.0004
 -19070252.43249 -14510121.71747  20910790.595    20910791.0274   20910797.8954
       210.0004        210.0004
 -20019412.35249 -15574029.94947  20542588.646    20542589.1374   20542595.4224
       208.0004        207.0004
  -4527100.28347  -3507931.91245  23791605.499    23791605.0334   23791614.9594
       144.0004        148.0004
 21  2  5  0  2  0.0000000  0  9G27G03G07G08G21G16G09G04G01
 -14999393.32349 -11667531.67947  22180451.765    22180453.2684   22180461.1924
       212.0004        211.0004
    412938.67848    345503.90546  24471026.499    24471027.0184   24471038.1534
       172.0004        173.0004
  -7209372.98848  -5587872.22346  23513577.267    23513577.8214   23513583.5504
       167.0004        168.0004
 -22593407.77449 -17577392.83647  20243161.581    20243161.6694   20243169.4504
       211.0004        211.0004
 -11695688.00647  -9100543.17546  22511199.947    22511199.4744   22511204.0794
       161.0004        163.0004
    354096.09946    311706.17545  24651061.271    24651062.2414   24651065.6634
       124.0004        132.0004
 -19098163.32449 -14531870.45347  20905480.142    20905480.6204   20905486.9664
       211.0004        212.0004
 -19975794.41649 -15540041.92347  20550888.817    20550889.2804   20550895.5954
       208.0004        207.0004
  -4600113.63347  -3564825.24745  23777709.005    23777709.2554   23777721.0284
       143.0004        147.0004
 21  2  5  0  2 30.0000000  0  9G27G03G07G08G21G16G09G04G01
 -14912088.28049 -11599501.79047  22197065.751    22197067.0054   22197074.3464
       211.0004        211.0004
    465386.59548    386372.23546  24481005.662    24481007.1444   24481017.9524
       171.0004        171.0004
  -7280865.10348  -5643580.32746  23499974.548    23499974.1864   23499979.1724
       167.0004        169.0004
 -22567745.41349 -17557396.18147  20248044.151    20248044.4714   20248052.6634
       211.0004        211.0004
 -11743065.14847  -9137460.37846  22502184.872    22502183.9364   22502188.1604
       162.0004        164.0004
    429452.39046    370425.39745  24665402.121    24665400.1404   24665407.6414
       128.0004        136.0004
 -19125519.47549 -14553186.94847  20900274.086    20900274.3744   20900281.2814
       211.0004        212.0004
 -19931653.82649 -15505646.67247  20559288.189    20559288.8004   20559295.2984
       208.0004        206.0004
  -4673279.57947  -3621837.54145  23763784.795    23763786.3954   23763797.6404
       143.0004        147.0004
 21  2  5  0  3  0.0000000  0  9G27G03G07G08G21G16G09G04G01
 -14824430.07849 -11531196.68147  22213748.262    22213748.1254   22213755.2524
       211.0004        212.0004
    517607.64548    427063.76846  24490944.015    24490944.9704   24490955.4654
       170.0004        171.0004
  -7352467.85648  -5699374.64946  23486348.596    23486349.4014   23486352.8894
       169.0004        171.0004
 -22541505.69449 -17536949.61047  20253037.724    20253038.1654   20253046.0804
       211.0004        212.0004
 -11790280.62847  -9174251.61346  22493199.156    22493198.9454   22493205.1914
       162.0004        165.0004
    504642.12246    429014.81145  24679710.055    24679710.9374   24679715.0064
       130.0004        137.0004
 -19152321.59049 -14574071.68847  20895173.078    20895173.7344   20895180.9384
       211.0004        211.0004
 -19886993.78249 -15470846.62947  20567786.401    20567787.2074   20567793.5124
       207.0004        206.0004
  -4746597.41147  -3678968.21045  23749833.437    23749835.3464   23749845.8484
       144.0004        148.0004
 21  2  5  0  3 30.0000000  0  9G27G03G07G08G21G16G09G04G01
 -14736421.04949 -11462618.24447  22230495.356    22230495.9964   22230502.6264
       212.0004        211.0004
    569600.71048    467577.64146  24500839.417    24500839.7114   24500850.1874
       171.0004        172.0004
  -7424179.49248  -5755253.85346  23472701.770    23472701.9444   23472706.2494
       169.0004        170.0004
 -22514689.02949 -17516053.51147  20258141.035    20258141.4844   20258149.0064
       211.0004        211.0004
 -11837331.08447  -9210914.28546  22484244.703    22484244.3534   22484251.2294
       164.0004        166.0004
    579665.47846    487474.55845  24693987.022    24693987.7024   24693992.7224
       132.0004        139.0004
 -19178568.17849 -14594523.59047  20890179.267    20890179.5374   20890186.1304
       211.0004        211.0004
 -19841815.29149 -15435642.64047  20576384.355    20576384.7794   20576390.7994
       207.0004        206.0004
  -4820064.10947  -3736214.85245  23735854.454    23735854.6804   23735864.6974
       146.0004        149.0004
 21  2  5  0  4  0.0000000  0  9G27G03G07G08G21G16G09G04G01
 -14648063.83049 -11393768.44147  22247310.556    22247309.8494   22247316.9794
       212.0004        211.0004
    621364.54248    507912.88646  24510689.042    24510689.5024   24510698.9944
       170.0004        171.0004
  -7495998.20948  -5811216.44846  23459035.229    23459036.0234   23459039.9064
       169.0004        170.0004
 -22487296.72049 -17494708.83547  20263353.526    20263353.9944   20263361.7594
       211.0004        212.0004
 -11884213.23547  -9247445.76546  22475322.404    22475322.2004   22475329.4934
       163.0004        164.0004
    654522.19647    545804.51045  24708230.797    24708231.1564   24708236.4104
       135.0004        141.0004
 -19204258.00049 -14614541.62947  20885290.145    20885290.7094   20885297.5894
       211.0004        212.0004
 -19796119.60849 -15400035.61547  20585079.980    20585080.1704   20585086.9964
       207.0004        206.0004
  -4893676.94147  -3793575.37245  23721844.562    23721845.7034   23721858.0054
       146.0004        149.0004
 21  2  5  0  4 30.0000000  0  8G27G03G07G08G21G09G04G01
 -14559359.98349 -11324648.56147  22264188.816    22264189.2514   22264196.7734
       211.0004        211.0004
    672898.81148    548069.28646  24520495.076    24520496.3364   24520506.7514
       169.0004        169.0004
  -7567921.80448  -5867260.80046  23445348.313    23445349.0384   23445353.4124
       169.0004        169.0004
 -22459328.65949 -17472915.51847  20268675.705    20268675.9734   20268683.7244
       211.0004        211.0004
 -11930923.33047  -9283843.20546  22466434.192    22466434.4044   22466441.0024
       164.0004        165.0004
 -19229388.89649 -14634124.14447  20880508.485    20880508.9814   20880515.6004
       211.0004        212.0004
 -19749907.11549 -15364025.88247  20593873.679    20593874.2234   20593880.5234
       206.0004        205.0004
  -4967432.08947  -3851046.77245  23707809.782    23707811.5904   23707822.5754
       148.0004        151.0004
 21  2  5  0  5  0.0000000  0  8G27G03G07G08G21G09G04G01
 -14470313.09649 -11255261.36847  22281133.731    22281134.6534   22281141.9794
       212.0004        212.0004
    724201.32048    588045.02846  24530259.211    24530259.7924   24530270.6444
       169.0004        171.0004
  -7639949.12248  -5923385.93346  23431641.125    23431641.8524   23431647.8864
       168.0004        169.0004
 -22430786.80549 -17450675.09147  20274107.181    20274107.3984   20274114.8364
       211.0004        211.0004
 -11977458.96247  -9320104.68346  22457578.289    22457578.5034   22457585.1474
       164.0004        165.0004
 -19253960.74949 -14653271.02847  20875832.333    20875832.7064   20875839.8014
       212.0004        212.0004
 -19703180.09849 -15327615.22247  20602765.975    20602766.4594   20602772.3114
       206.0004        205.0004
  -5041327.83547  -3908627.73545  23693747.668    23693748.4884   23693760.1704
       148.0004        152.0004
 21  2  5  0  5 30.0000000  0  8G27G03G07G08G21G09G04G01
 -14380927.84749 -11185610.53547  22298144.967    22298144.6564   22298151.5904
       212.0004        212.0004
    775268.74248    627837.57846  24539977.297    24539977.3544   24539987.1724
       169.0004        170.0004
  -7712080.36648  -5979592.06646  23417916.672    23417916.6864   23417921.5154
       170.0004        173.0004
 -22401674.46749 -17427990.14447  20279647.389    20279647.3744   20279654.7454
       211.0004        212.0004
 -12023818.63447  -9356229.07646  22448757.563    22448757.4284   22448763.8414
       163.0004        164.0004
 -19277974.38449 -14671982.96147  20871262.557    20871263.1254   20871269.9904
       212.0004        212.0004
 -19655941.95949 -15290806.29447  20611754.869    20611755.2924   20611761.2514
       206.0004        204.0004
  -5115363.32547  -3966317.58745  23679660.867    23679660.2994   23679670.8814
       149.0004        151.0004
 21  2  5  0  6  0.0000000  0  8G27G03G07G08G21G09G04G01
 -14291208.32049 -11115699.20447  22315217.721    22315217.5344   22315225.0054
       212.0004        212.0004
    826098.32248    667444.83046  24549648.984    24549650.0674   24549661.4284
       169.0004        171.0004
  -7784315.49648  -6035879.17846  23404171.073    23404170.9604   23404175.8474
       174.0004        176.0004
 -22371994.02849 -17404862.50947  20285295.201    20285295.4904   20285302.7474
       211.0004        212.0004
 -12070001.00747  -9392215.29846  22439970.215    22439969.8054   22439973.8234
       164.0004        166.0004
 -19301430.18349 -14690260.19847  20866799.609    20866800.0054   20866806.2024
       212.0004        212.0004
 -19608195.51649 -15253601.27247  20620840.279    20620840.6874   20620847.0264
       205.0004        203.0004
  -5189537.26947  -4024115.31545  23665545.536    23665546.3604   23665555.8774
       149.0004        153.0004
 21  2  5  0  6 30.0000000  0  8G27G03G07G08G21G09G04G01
 -14201155.57449 -11045528.22947  22332351.447    22332353.1694   22332361.1754
       212.0004        211.0004
    876690.41148    706866.99446  24559277.058    24559277.5444   24559289.0054
       171.0004        172.0004
  -7856651.48148  -6092244.82346  23390403.040    23390405.3874   23390409.5404
       173.0004        172.0004
 -22341745.33549 -17381292.08347  20291051.452    20291051.3874   20291059.0334
       211.0004        211.0004
 -12116001.54848  -9428059.84346  22431215.971    22431215.0064   22431220.9684
       165.0004        166.0004
 -19324325.56249 -14708100.74747  20862442.784    20862442.8554   20862449.6224
       212.0004        212.0004
 -19559940.68349 -15216000.11447  20630023.469    20630023.7974   20630029.4524
       205.0004        204.0004
  -5263845.38747  -4082017.62945  23651405.578    23651405.8204   23651415.1234
       150.0004        153.0004
 21  2  5  0  7  0.0000000  0  8G27G03G07G08G21G09G04G01
 -14110772.25349 -10975099.67147  22349552.115    22349552.5864   22349559.6534
       211.0004        210.0004
    927043.73548    746103.11546  24568857.845    24568858.5594   24568869.4584
       167.0004        167.0004
  -7929086.63548  -6148687.80246  23376623.306    23376623.0224   23376625.9374
       173.0004        175.0004
 -22310929.53149 -17357279.75347  20296914.722    20296915.3044   20296923.4944
       211.0004        212.0004
 -12161817.49148  -9463760.52946  22422497.328    22422496.9654   22422504.1764
       165.0004        166.0004
 -19346659.48949 -14725503.80647  20858192.514    20858193.0774   20858199.7264
       212.0004        212.0004
 -19511178.92049 -15178003.94747  20639302.276    20639302.6604   20639308.7224
       205.0004        203.0004
  -5338284.84947  -4140022.27245  23637241.255    23637241.2834   23637250.3934
       151.0004        153.0004
 21  2  5  0  7 30.0000000  0  8G27G03G07G08G21G09G04G01
 -14020062.69349 -10904416.89447  22366813.561    22366814.3684   22366820.7424
       210.0004        208.0004
    977155.40948    785150.96146  24578394.387    24578394.6604   24578405.3574
       165.0004        166.0004
  -8001620.45048  -6205207.63646  23362818.898    23362817.9914   23362823.5224
       172.0004        170.0004
 -22279549.32049 -17332827.61847  20302885.877    20302886.7744   20302894.9374
       211.0004        212.0004
 -12207446.74848  -9499315.76346  22413815.478    22413814.4874   22413820.8294
       166.0004        167.0004
 -19368432.61349 -14742469.87147  20854049.185    20854049.2854   20854056.4554
       212.0004        212.0004
 -19461913.29049 -15139615.15547  20648677.113    20648677.8584   20648683.7074
       205.0004        204.0004
  -5412854.47947  -4198128.32345  23623049.468    23623050.1904   23623058.7684
       151.0004        154.0004
 21  2  5  0  8  0.0000000  0  8G27G03G07G08G21G09G04G01
 -13929029.40949 -10833481.84747  22384136.844    22384137.6304   22384144.5744
       210.0004        210.0004
   1027024.39448    824009.67346  24587885.075    24587885.7784   24587895.4664
       167.0004        169.0004
  -8074251.76348  -6261803.43646  23348997.593    23348997.7304   23349001.6564
       170.0004        171.0004
 -22247605.98749 -17307936.69747  20308965.570    20308965.8704   20308973.2604
       211.0004        212.0004
 -12252886.53448  -9534723.35046  22405167.551    22405167.5664   22405172.3884
       165.0004        166.0004
 -19389643.78149 -14758998.05447  20850012.842    20850013.2214   20850020.0114
       212.0004        212.0004
 -19412145.17549 -15100834.82247  20658147.967    20658148.4204   20658154.6324
       205.0004        203.0004
  -5487551.26147  -4256333.45945  23608835.431    23608835.3834   23608845.1984
       152.0004        155.0004
 21  2  5  0  8 30.0000000  0  8G27G03G07G08G21G09G04G01
 -13837674.43649 -10762296.14947  22401521.304    22401521.4284   22401528.8214
       209.0004        208.0004
   1076650.04148    862678.81146  24597330.303    24597329.9434   24597339.7644
       170.0004        172.0004
  -8146978.20248  -6318473.37646  23335157.649    23335159.3494   23335162.4454
       171.0004        174.0004
 -22215100.49049 -17282607.72447  20315151.186    20315151.3764   20315158.8654
       211.0004        212.0004
 -12298133.25148  -9569980.47246  22396557.581    22396557.2864   22396563.0454
       165.0004        166.0004
 -19410291.47649 -14775087.16047  20846083.661    20846084.0674   20846090.7004
       212.0004        212.0004
 -19361875.47949 -15061663.64547  20667713.587    20667714.1484   20667720.3424
       204.0004        203.0004
  -5562371.85147  -4314635.07545  23594598.575    23594598.4674   23594606.6464
       153.0004        157.0004
 21  2  5  0  9  0.0000000  0  8G27G03G07G08G21G09G04G01
 -13746002.25849 -10690863.29847  22418964.697    22418966.3264   22418973.0534
       208.0004        207.0004
   1126029.25948    901155.91246  24606725.012    24606726.0144   24606736.9484
       171.0004        172.0004
  -8219799.55648  -6375217.26746  23321300.277    23321300.9074   23321305.7204
       172.0004        174.0004
 -22182035.05649 -17256842.44347  20321443.301    20321443.2754   20321451.0634
       211.0004        212.0004
 -12343185.27448  -9605085.93446  22387985.226    22387983.6474   22387989.5784
       165.0004        166.0004
 -19430376.56649 -14790737.87448  20842261.271    20842261.7854   20842269.0114
       212.0004        213.0004
 -19311107.50949 -15022104.19547  20677375.336    20677375.2404   20677380.8014
       204.0004        203.0004
  -5637315.20647  -4373032.38845  23580336.540    23580336.9514   23580346.2784
       155.0004        157.0004
 21  2  5  0  9 30.0000000  0  8G27G03G07G08G21G09G04G01
 -13654012.96049 -10619183.34047  22436471.963    22436471.8674   22436478.1044
       208.0004        208.0004
   1175163.54848    939442.12946  24616076.312    24616076.5714   24616086.8474
       171.0004        173.0004
  -8292711.74948  -6432031.91746  23307424.523    23307425.0714   23307431.0254
       172.0004        172.0004
 -22148408.90549 -17230640.24947  20327842.396    20327842.6144   20327849.4534
       211.0004        211.0004
 -12388036.65247  -9640035.04346  22379449.523    22379449.3114   22379454.4864
       164.0004        165.0004
 -19449895.53649 -14805947.46748  20838547.607    20838547.9304   20838554.5984
       212.0004        213.0004
 -19259840.25649 -14982155.70647  20687130.287    20687130.8124   20687136.8024
       204.0004        202.0004
  -5712375.78847  -4431521.03545  23566052.790    23566053.2584   23566062.5394
       154.0004        157.0004
 21  2  5  0 10  0.0000000  0  8G27G03G07G08G21G09G04G01
 -13561711.78649 -10547260.34047  22454036.159    22454036.2564   22454042.5424
       208.0004        208.0004
   1224049.15848    977534.59746  24625378.413    24625378.7464   24625390.0474
       171.0004        173.0004
  -8365715.45848  -6488917.91246  23293533.899    23293533.9344   23293537.4844
       171.0004        171.0004
 -22114226.14149 -17204004.31747  20334346.894    20334346.9024   20334354.5004
       211.0004        211.0004
 -12432687.60348  -9674827.96646  22370953.032    22370953.0114   22370957.6174
       165.0004        166.0004
 -19468850.13949 -14820717.28747  20834940.662    20834940.7324   20834947.4074
       212.0004        212.0004
 -19208077.86449 -14941821.39347  20696980.327    20696980.7004   20696986.7034
       203.0004        202.0004
  -5787553.38647  -4490100.86145  23551745.948    23551745.4524   23551755.7174
       153.0004        154.0004
 21  2  5  0 10 30.0000000  0  8G27G03G07G08G21G09G04G01
 -13469102.22749 -10475097.03547  22471658.351    22471659.0984   22471665.3374
       208.0004        207.0004
   1272684.00948   1015431.68046  24634633.608    24634633.6314   24634644.9564
       172.0004        172.0004
  -8438809.63648  -6545874.38546  23279624.386    23279625.1774   23279628.0574
       171.0004        172.0004
 -22079488.60149 -17176936.08247  20340957.817    20340957.8644   20340964.2234
       211.0004        211.0004
 -12477135.66148  -9709462.76446  22362494.548    22362494.3734   22362499.4594
       165.0004        166.0004
 -19487240.32649 -14835047.29448  20831440.391    20831441.0584   20831448.1044
       212.0004        213.0004
 -19155822.77049 -14901103.12747  20706924.015    20706924.6494   20706931.0424
       203.0004        202.0004
  -5862845.93447  -4548770.24445  23537418.105    23537418.7774   23537428.3504
       151.0004        154.0004
 21  2  5  0 11  0.0000000  0  8G27G03G07G08G21G09G04G01
 -13376185.94449 -10402694.75547  22489339.928    22489339.8784   22489347.0114
       207.0004        207.0004
   1321068.06748   1053133.30546  24643839.862    24643840.4614   24643852.0964
       169.0004        169.0004
  -8511991.36048  -6602899.06646  23265698.181    23265698.9144   23265703.1674
       172.0004        173.0004
 -22044196.81249 -17149435.98947  20347672.396    20347672.6784   20347680.5244
       211.0004        212.0004
 -12521376.58247  -9743936.20446  22354074.302    22354074.6414   22354081.1464
       164.0004        166.0004
 -19505064.26749 -14848936.10348  20828048.834    20828049.2794   20828056.3164
       212.0004        213.0004
 -19103075.51049 -14860001.40147  20716962.039    20716962.4794   20716968.5194
       203.0004        202.0004
  -5938249.47347  -4607526.14945  23523068.673    23523069.1664   23523080.0024
       152.0004        154.0004
 21  2  5  0 11 30.0000000  0  8G27G03G07G08G21G09G04G01
 -13282966.58449 -10330056.28347  22507079.869    22507079.4974   22507086.8544
       208.0004        208.0004
   1369199.12248   1090637.78346  24652999.622    24653000.5654   24653011.3244
       168.0004        169.0004
  -8585260.34148  -6659991.75146  23251755.564    23251756.3664   23251759.0764
       172.0004        172.0004
 -22008353.16349 -17121505.85047  20354493.698    20354493.8554   20354501.0984
       211.0004        211.0004
 -12565408.58747  -9778246.82846  22345696.797    22345697.2594   22345701.8654
       164.0004        166.0004
 -19522322.14749 -14862383.79048  20824764.731    20824765.3024   20824772.1594
       213.0004        214.0004
 -19049838.74749 -14818518.21147  20727092.302    20727092.7604   20727099.1784
       203.0004        202.0004
  -6013762.12347  -4666367.04645  23508700.398    23508700.7064   23508709.4734
       154.0004        157.0004
 21  2  5  0 12  0.0000000  0  8G27G03G07G08G21G09G04G01
 -13189447.56849 -10257184.31847  22524874.360    22524875.5304   22524883.0994
       207.0004        207.0004
   1417075.36248   1127943.73346  24662111.254    24662112.0614   24662123.4784
       170.0004        172.0004
  -8658615.31948  -6717151.43946  23237795.799    23237796.2344   23237800.5664
       169.0004        169.0004
 -21971959.89349 -17093147.44047  20361418.627    20361419.0784   20361426.8604
       211.0004        211.0004
 -12609229.02847  -9812392.61246  22337357.447    22337356.9374   22337362.6354
       164.0004        166.0004
 -19539013.89349 -14875390.33948  20821588.743    20821588.7474   20821595.9214
       213.0004        213.0004
 -18996114.82349 -14776655.42747  20737314.967    20737316.0154   20737322.5434
       203.0004        202.0004
  -6089381.68047  -4725291.28345  23494309.476    23494310.1144   23494320.4664
       155.0004        158.0004
 21  2  5  0 12 30.0000000  0  8G27G03G07G08G21G09G04G01
 -13095631.12249 -10184080.62147  22542727.356    22542727.6974   22542735.0924
       206.0004        205.0004
   1464696.05048   1165050.48846  24671172.615    24671173.2064   24671185.1374
       170.0004        171.0004
  -8732053.95148  -6774376.33246  23223822.382    23223822.5984   23223827.1404
       170.0004        172.0004
 -21935017.83049 -17064361.41647  20368449.008    20368449.0274   20368456.4224
       210.0004        211.0004
 -12652834.50347  -9846370.87646  22329058.816    22329059.2284   22329065.3354
       164.0004        165.0004
 -19555138.37749 -14887954.88448  20818520.077    20818520.5554   20818527.4364
       213.0004        213.0004
 -18941904.98349 -14734414.00847  20747631.498    20747632.2584   20747638.4344
       203.0004        202.0004
  -6165104.84047  -4784296.27945  23479899.494    23479900.0084   23479909.5274
       153.0004        155.0004
 21  2  5  0 13  0.0000000  0  8G27G03G07G08G21G09G04G01
 -13001520.68749 -10110747.81047  22560635.302    22560635.9044   22560643.5804
       205.0004        204.0004
   1512059.38048   1201956.73046  24680185.992    24680186.2374   24680197.3324
       169.0004        170.0004
  -8805575.39048  -6831665.74246  23209829.769    23209829.7044   23209834.6464
       170.0004        170.0004
 -21897529.07549 -17035149.38847  20375581.934    20375582.5294   20375590.6194
       210.0004        211.0004
 -12696222.50948  -9880179.69746  22320804.053    22320803.7244   22320807.9424
       166.0004        169.0004
 -19570695.58249 -14900077.37948  20815559.910    20815560.4294   20815566.9064
       213.0004        213.0004
 -18887211.66549 -14691795.84647  20758039.286    20758039.6794   20758046.2454
       204.0004        202.0004
  -6240929.29847  -4843380.14845  23465469.333    23465470.5064   23465481.5004
       152.0004        155.0004
 21  2  5  0 13 30.0000000  0  8G27G03G07G08G21G09G04G01
 -12907119.54749 -10037188.47247  22578600.492    22578600.6894   22578608.0504
       205.0004        205.0004
   1559163.63748   1238661.12746  24689147.820    24689148.8414   24689161.7914
       168.0004        170.0004
  -8879178.24848  -6889018.57146  23195824.264    23195824.7054   23195829.5214
       170.0004        173.0004
 -21859496.21849 -17005513.37447  20382819.588    20382820.3944   20382828.0464
       210.0004        211.0004
 -12739391.14148  -9913817.57746  22312589.357    22312588.5964   22312593.5544
       167.0004        168.0004
 -19585685.46049 -14911757.78948  20812707.929    20812707.8254   20812714.3904
       213.0004        213.0004
 -18832037.14649 -14648802.71547  20768538.828    20768539.3114   20768545.2794
       203.0004        201.0004
  -6316852.79047  -4902541.19445  23451022.602    23451023.2264   23451033.5144
       155.0004        158.0004
 21  2  5  0 14  0.0000000  0  8G27G03G07G08G21G09G04G01
 -12812429.44849  -9963403.99347  22596617.660    22596618.5924   22596627.0074
       204.0004        204.0004
   1606008.70048   1275163.52146  24698064.216    24698064.7994   24698077.1994
       169.0004        171.0004
  -8952859.49548  -6946432.51846  23181803.868    23181804.5024   23181808.8404
       172.0004        174.0004
 -21820919.40049 -16975453.52947  20390161.010    20390161.3694   20390168.8004
       210.0004        211.0004
 -12782336.07448  -9947281.14646  22304416.176    22304415.5304   22304421.3874
       165.0004        165.0004
 -19600106.34949 -14922994.86348  20809963.724    20809964.0374   20809970.5214
       214.0004        214.0004
 -18776382.23749 -14605435.28247  20779129.221    20779129.6334   20779136.2994
       203.0004        201.0004
  -6392871.37047  -4961776.41245  23436558.164    23436558.5114   23436567.4924
       154.0004        156.0004
 21  2  5  0 14 30.0000000  0  8G27G03G07G08G21G09G04G01
 -12717455.94049  -9889398.65247  22614690.839    22614691.1184   22614699.5844
       203.0004        203.0004
   1652590.67948   1311460.92146  24706929.143    24706929.5624   24706941.3284
       170.0004        171.0004
  -9026620.36448  -7003908.47146  23167766.471    23167767.2994   23167772.0414
       171.0004        171.0004
 -21781803.13849 -16944973.30947  20397604.690    20397605.3144   20397612.2104
       210.0004        211.0004
 -12825056.86247  -9980570.01846  22296286.503    22296286.8174   22296292.0424
       164.0004        167.0004
 -19613960.48749 -14933790.28648  20807326.785    20807327.2254   20807333.8434
       214.0004        213.0004
 -18720251.52349 -14561697.07047  20789810.640    20789811.3124   20789817.9494
       202.0004        202.0004
  -6468984.93947  -5021085.57845  23422071.068    23422073.3734   23422083.5204
       154.0004        156.0004
 21  2  5  0 15  0.0000000  0  8G27G03G07G08G21G09G04G01
 -12622199.53449  -9815172.88747  22632818.735    22632818.8214   22632825.8554
       203.0004        203.0004
   1698910.73448   1347554.20546  24715742.274    24715743.1094   24715755.6804
       168.0004        169.0004
  -9100456.68548  -7061443.25146  23153717.456    23153717.4604   23153722.0924
       171.0004        173.0004
 -21742147.00949 -16914072.41447  20405150.327    20405150.9234   20405158.8364
       210.0004        210.0004
 -12867548.45848 -10013680.33846  22288201.970    22288202.4584   22288205.9094
       165.0004        165.0004
 -19627245.14649 -14944141.96048  20804798.933    20804799.2874   20804805.9974
       213.0004        214.0004
 -18663644.64349 -14517587.82347  20800582.800    20800583.3884   20800589.5974
       202.0004        201.0004
  -6545188.34347  -5080464.77545  23407571.398    23407572.3864   23407581.5154
       154.0004        156.0004
 21  2  5  0 15 30.0000000  0  8G27G03G07G08G21G09G04G01
 -12526664.34349  -9740729.89147  22650997.995    22650998.0054   22651006.0174
       203.0004        203.0004
   1744966.28448   1383441.38646  24724507.314    24724508.3634   24724520.0274
       168.0004        170.0004
  -9174368.39448  -7119036.76346  23139651.810    23139651.4314   23139656.9094
       172.0004        172.0004
 -21701953.97549 -16882753.16047  20412798.646    20412799.0254   20412807.0984
       210.0004        210.0004
 -12909809.21647 -10046610.75245  22280156.646    22280156.3474   22280163.2894
       163.0004        162.0004
 -19639961.10949 -14954050.53048  20802379.169    20802379.6134   20802386.3174
       213.0004        214.0004
 -18606564.71049 -14473109.96447  20811444.897    20811445.3474   20811451.5584
       202.0004        201.0004
  -6621479.90147  -5139912.69245  23393054.121    23393054.4364   23393064.1984
       154.0004        157.0004
 21  2  5  0 16  0.0000000  0  8G27G03G07G08G21G09G04G01
 -12430854.42049  -9666072.83247  22669230.969    22669230.7684   22669238.1604
       203.0004        203.0004
   1790754.92948   1419120.53846  24733222.236    24733222.4724   24733233.5254
       170.0004        172.0004
  -9248354.78048  -7176688.49346  23125572.558    23125572.1844   23125576.7054
       170.0004        171.0004
 -21661226.76349 -16851017.66547  20420549.937    20420549.8604   20420557.4444
       210.0004        211.0004
 -12951837.80447 -10079360.24246  22272158.784    22272159.4514   22272165.7584
       161.0004        164.0004
 -19652109.19349 -14963516.57748  20800067.707    20800067.6734   20800074.9174
       214.0004        214.0004
 -18549014.95749 -14428266.01547  20822395.817    20822396.5264   20822402.9454
       202.0004        201.0004
  -6697858.15947  -5199428.14045  23378519.286    23378520.5544   23378531.2234
       153.0004        156.0004
 21  2  5  0 16 30.0000000  0  8G27G03G07G08G21G09G04G01
 -12334771.96049  -9591203.35947  22687513.424    22687513.9094   22687521.9184
       202.0004        201.0004
   1836276.17248   1454591.34946  24741884.204    24741884.9984   24741895.9974
       170.0004        171.0004
  -9322413.38548  -7234396.47346  23111479.897    23111479.6174   23111484.3644
       171.0004        174.0004
 -21619966.56449 -16818866.83547  20428400.921    20428400.9734   20428408.6844
       210.0004        210.0004
 -12993630.58448 -10111926.00846  22264211.437    22264209.7974   22264212.9454
       166.0004        170.0004
 -19663688.39949 -14972539.32548  20797863.225    20797863.8814   20797871.1694
       213.0004        213.0004
 -18490996.67549 -14383056.94847  20833437.045    20833437.2274   20833443.4954
       203.0004        201.0004
  -6774319.48747  -5259008.31145  23363970.051    23363970.7094   23363980.0954
       153.0004        156.0004
 21  2  5  0 17  0.0000000  0  8G27G03G07G08G21G09G04G01
 -12238419.07949  -9516123.20347  22705848.915    22705849.7434   22705857.4154
       202.0004        203.0004
   1881529.54948   1489853.37746  24750494.089    24750494.6454   24750507.4934
       167.0004        167.0004
  -9396541.65048  -7292158.76546  23097373.364    23097373.3084   23097378.5854
       173.0004        174.0004
 -21578174.61349 -16786301.68347  20436353.524    20436353.8384   20436361.4974
       210.0004        210.0004
 -13035183.80848 -10144305.15646  22256302.800    22256301.9674   22256306.4204
       169.0004        171.0004
 -19674697.60449 -14981117.94948  20795768.755    20795769.3224   20795776.2314
       213.0004        214.0004
 -18432511.14849 -14337483.82647  20844566.245    20844566.3314   20844572.9124
       203.0004        201.0004
  -6850860.30247  -5318650.40645  23349404.174    23349404.9714   23349415.2684
       153.0004        156.0004
 21  2  5  0 17 30.0000000  0  8G27G03G07G08G21G09G04G01
 -12141800.52049  -9440835.98647  22724236.918    22724236.1954   22724243.2384
       203.0004        203.0004
   1926512.12548   1524904.41746  24759055.746    24759055.6514   24759068.4944
       167.0004        168.0004
  -9470739.65448  -7349975.34846  23083252.206    23083253.2324   23083258.4024
       173.0004        173.0004
 -21535854.48249 -16753324.93047  20444406.520    20444407.1024   20444414.5644
       210.0004        210.0004
 -13076496.72548 -10176496.99446  22248437.993    22248437.7484   22248445.7854
       167.0004        166.0004
 -19685138.38849 -14989253.60548  20793782.167    20793782.7824   20793789.3494
       213.0004        214.0004
 -18373562.23949 -14291549.60647  20855783.908    20855783.9984   20855790.7674
       202.0004        201.0004
  -6927479.63647  -5378353.66545  23334824.330    23334825.0054   23334832.6514
       153.0004        155.0004
 21  2  5  0 18  0.0000000  0  8G27G03G07G08G21G09G04G01
 -12044916.93749  -9365342.30847  22742672.166    22742672.4454   22742678.9244
       203.0004        202.0004
   1971224.85848   1559745.14746  24767563.971    24767564.6074   24767577.4514
       168.0004        169.0004
  -9545003.48748  -7407843.27046  23069122.117    23069122.1364   23069127.2734
       174.0004        177.0004
 -21493005.35549 -16719936.01747  20452560.717    20452561.1784   20452568.7604
       210.0004        210.0004
 -13117564.22847 -10208497.59546  22240621.092    22240621.7464   22240629.2174
       164.0004        163.0004
 -19695008.31249 -14996944.46248  20791903.947    20791904.2374   20791911.4814
       214.0004        214.0004
 -18314149.82649 -14245254.24747  20867089.496    20867090.0584   20867095.9774
       202.0004        200.0004
  -7004172.36947  -5438114.20445  23320231.368    23320230.6944   23320239.3104
       151.0004        154.0004
 21  2  5  0 18 30.0000000  0  8G27G03G07G08G21G09G04G01
 -11947774.21149  -9289646.66647  22761157.825    22761157.9024   22761164.3754
       202.0004        201.0004
   2015663.65748   1594372.47746  24776020.218    24776020.9544   24776034.2084
       168.0004        170.0004
  -9619334.55148  -7465763.54346  23054977.431    23054978.2774   23054982.3334
       176.0004        178.0004
 -21449632.96849 -16686139.32247  20460813.872    20460814.4094   20460822.5224
       210.0004        210.0004
 -13158385.83447 -10240306.62046  22232855.135    22232854.8944   22232861.2084
       163.0004        165.0004
 -19704310.07749 -15004192.57748  20790133.687    20790134.1624   20790141.0504
       214.0004        214.0004
 -18254278.95349 -14198601.60647  20878482.389    20878482.9434   20878489.1244
       202.0004        200.0004
  -7080938.67147  -5497932.02545  23305621.926    23305622.1934   23305632.6714
       152.0004        155.0004
 21  2  5  0 19  0.0000000  0  8G27G03G07G08G21G09G04G01
 -11850373.85449  -9213750.29047  22779691.651    22779692.3804   22779698.9304
       201.0004        200.0004
   2059828.74048   1628786.46646  24784425.810    24784426.3824   24784438.0654
       169.0004        171.0004
  -9693729.55448  -7523733.67246  23040821.307    23040821.0724   23040825.0514
       178.0004        180.0004
 -21405737.32149 -16651934.91747  20469167.189    20469167.5714   20469174.9794
       209.0004        210.0004
 -13198958.13548 -10271921.37946  22225135.987    22225135.2224   22225141.1714
       165.0004        168.0004
 -19713042.18949 -15010996.82348  20788472.009    20788472.2854   20788479.5894
       214.0004        214.0004
 -18193950.35549 -14151592.32347  20889962.878    20889963.3504   20889969.0454
       202.0004        200.0004
  -7157774.25047  -5557803.81145  23291000.578    23291000.8654   23291010.4924
       153.0004        156.0004
 21  2  5  0 19 30.0000000  0  7G27G07G08G21G09G04G01
 -11752716.70849  -9137653.82147  22798275.183    22798275.9894   22798282.5634
       200.0004        201.0004
  -9768184.74348  -7581750.65246  23026651.440    23026651.9074   23026656.9464
       177.0004        177.0004
 -21361318.50749 -16617322.86147  20477619.741    20477620.0794   20477627.8884
       209.0004        210.0004
 -13239276.31748 -10303338.14546  22217464.688    22217463.5244   22217469.4094
       169.0004        172.0004
 -19721202.38049 -15017355.41848  20786918.769    20786919.6424   20786926.7514
       213.0004        214.0004
 -18133164.10249 -14104226.42047  20901529.987    20901530.2784   20901536.2204
       202.0004        200.0004
  -7234674.18247  -5617725.75945  23276366.072    23276367.8634   23276376.4124
       153.0004        156.0004
 21  2  5  0 20  0.0000000  0  7G27G07G08G21G09G04G01
 -11654800.50649  -9061355.49847  22816908.668    22816908.8414   22816915.5724
       202.0004        201.0004
  -9842693.08348  -7639809.11746  23012474.806    23012474.1744   23012478.6364
       178.0004        178.0004
 -21316373.33649 -16582300.66447  20486172.711    20486173.1474   20486180.6154
       209.0004        210.0004
 -13279332.03748 -10334550.40346  22209841.828    22209841.1864   22209846.5464
       171.0004        172.0004
 -19728785.34649 -15023264.23948  20785476.478    20785476.8384   20785483.2864
       213.0004        214.0004
 -18071917.17349 -14056501.55747  20913185.070    20913185.3664   20913191.2374
       201.0004        200.0004
  -7311630.48947  -5677691.65645  23261721.825    23261722.5224   23261732.0914
       153.0004        156.0004
 21  2  5  0 20 30.0000000  0  7G27G07G08G21G09G04G01
 -11556640.71949  -8984867.33847  22835588.348    22835588.1504   22835594.3034
       200.0004        200.0004
  -9917265.15048  -7697917.17546  22998282.653    22998283.2494   22998288.1044
       178.0004        180.0004
 -21270916.33049 -16546879.59447  20494823.245    20494823.6334   20494830.9784
       209.0004        210.0004
 -13319135.27548 -10365565.87746  22202266.646    22202266.8204   22202271.8804
       170.0004        171.0004
 -19735803.53449 -15028732.92948  20784140.660    20784140.9844   20784147.8034
       213.0004        214.0004
 -18010224.27649 -14008429.15047  20924924.629    20924925.2904   20924931.0514
       201.0004        200.0004
  -7388652.76447  -5737708.93345  23247065.468    23247066.5294   23247074.8024
       153.0004        156.0004
 21  2  5  0 21  0.0000000  0  7G27G07G08G21G09G04G01
 -11458236.45349  -8908188.69747  22854314.764    22854314.4964   22854321.2934
       202.0004        203.0004
  -9991895.62048  -7756070.78746  22984081.434    22984081.4014   22984086.1304
       179.0004        179.0004
 -21224945.86349 -16511058.45647  20503570.959    20503571.2754   20503579.0784
       209.0004        210.0004
 -13358679.10748 -10396379.24146  22194741.534    22194741.5934   22194747.1544
       170.0004        170.0004
 -19742253.10849 -15033758.58048  20782913.447    20782913.9324   20782920.8184
       213.0004        214.0004
 -17948083.82549 -13960008.03147  20936749.466    20936750.1384   20936755.8514
       201.0004        199.0004
  -7465734.34347  -5797772.44945  23232397.930    23232398.4624   23232408.0064
       155.0004        157.0004
 21  2  5  0 21 30.0000000  0  7G27G07G08G21G09G04G01
 -11359590.81849  -8831321.98247  22873085.284    22873085.0824   22873092.4444
       202.0004        201.0004
 -10066582.97148  -7814268.72946  22969868.866    22969868.8794   22969873.4384
       178.0004        179.0004
 -21178464.01549 -16474838.84047  20512416.387    20512416.6544   20512424.0264
       209.0004        210.0004
 -13397961.74248 -10426989.07846  22187266.257    22187266.2554   22187272.0144
       169.0004        170.0004
 -19748134.25049 -15038341.30548  20781794.423    20781794.8254   20781801.6564
       214.0004        215.0004
 -17885498.22849 -13911240.06347  20948659.058    20948659.6684   20948666.0474
       201.0004        199.0004
  -7542872.56847  -5857880.10045  23217717.526    23217718.1954   23217727.8954
       156.0004        158.0004
 21  2  5  0 22  0.0000000  0  7G27G07G08G21G09G04G01
 -11260706.76949  -8754269.46147  22891901.356    22891902.0704   22891909.6334
       202.0004        201.0004
 -10141325.23548  -7872509.43046  22955646.083    22955647.0724   22955652.0124
       180.0004        181.0004
 -21131472.77249 -16438222.25947  20521358.215    20521358.7624   20521365.8714
       209.0004        209.0004
 -13436980.27548 -10457393.08646  22179840.296    22179839.9284   22179846.1584
       168.0004        168.0004
 -19753446.95949 -15042481.05548  20780783.502    20780783.6454   20780790.6674
       214.0004        214.0004
 -17822469.72749 -13862126.93047  20960653.634    20960653.7324   20960659.5054
       201.0004        199.0004
  -7620064.47047  -5918029.56145  23203030.000    23203030.8034   23203039.3304
       159.0004        162.0004
 21  2  5  0 22 30.0000000  0  7G27G07G08G21G09G04G01
 -11161586.14049  -8677032.62147  22910763.155    22910764.3164   22910771.9774
       201.0004        201.0004
 -10216119.60648  -7930790.75746  22941412.839    22941413.7434   22941418.6824
       180.0004        180.0004
 -21083973.54149 -16401209.87947  20530397.687    20530397.6984   20530405.0134
       209.0004        209.0004
 -13475730.71248 -10487588.22446  22172465.938    22172466.8764   22172472.3334
       167.0004        168.0004
 -19758190.19049 -15046177.10348  20779880.803    20779881.0854   20779887.8654
       214.0004        214.0004
 -17758999.54149 -13812669.66147  20972731.150    20972731.7224   20972737.7694
       200.0004        199.0004
  -7697306.23147  -5978217.91745  23188331.226    23188331.0474   23188339.6624
       158.0004        159.0004
 21  2  5  0 23  0.0000000  0  7G27G07G08G21G09G04G01
 -11062233.16449  -8599614.70247  22929669.117    22929670.7384   22929677.6934
       200.0004        200.0004
 -10290965.66548  -7989112.33346  22927170.156    22927169.7494   22927175.0404
       180.0004        181.0004
 -21035969.50849 -16363804.11047  20539532.068    20539532.1694   20539539.7994
       209.0004        209.0004
 -13514211.60548 -10517573.29646  22165143.666    22165142.8844   22165149.5124
       167.0004        168.0004
 -19762365.33849 -15049430.45148  20779086.368    20779086.7404   20779093.3864
       214.0004        214.0004
 -17695091.23249 -13762870.97047  20984893.110    20984893.3414   20984899.2044
       201.0004        199.0004
  -7774596.11047  -6038443.74745  23173624.202    23173623.9924   23173632.5344
       159.0004        162.0004
 21  2  5  0 23 30.0000000  0  7G27G07G08G21G09G04G01
 -10962649.58649  -8522017.09947  22948620.134    22948620.7774   22948627.3974
       200.0004        200.0004
 -10365860.36748  -8047471.83046  22912917.697    22912918.2394   22912922.5274
       180.0004        181.0004
 -20987461.54349 -16326005.68047  20548762.482    20548762.8634   20548770.4754
       208.0004        209.0004
 -13552418.77348 -10547345.07646  22157873.865    22157872.6364   22157879.6894
       168.0004        170.0004
 -19765971.26049 -15052240.25448  20778400.313    20778400.7634   20778407.3554
       214.0004        215.0004
 -17630745.97149 -13712731.80347  20997137.009    20997137.4534   20997143.1624
       200.0004        198.0004
  -7851930.01247  -6098703.86345  23158906.321    23158907.7204   23158916.7124
       160.0004        162.0004
 21  2  5  0 24  0.0000000  0  7G27G07G08G21G09G04G01
 -10862839.15349  -8444242.73347  22967614.439    22967614.1084   22967621.0664
       200.0004        199.0004
 -10440802.65148  -8105868.39946  22898656.521    22898657.3124   22898662.3234
       181.0004        182.0004
 -20938452.55649 -16287816.85047  20558089.192    20558089.2934   20558096.7434
       209.0004        209.0004
 -13590351.12448 -10576902.71846  22150656.376    22150655.3224   22150661.4704
       170.0004        172.0004
 -19769008.94749 -15054607.30048  20777822.404    20777822.7124   20777829.4104
       215.0004        215.0004
 -17565966.73949 -13662254.49547  21009463.971    21009464.3974   21009470.4584
       200.0004        198.0004
  -7929305.88147  -6158996.70646  23144183.306    23144183.4524   23144193.3984
       161.0004        163.0004
 21  2  5  0 24 30.0000000  0  7G27G07G08G21G09G04G01
 -10762804.68349  -8366293.80547  22986649.652    22986649.6734   22986657.0164
       200.0004        200.0004
 -10515790.54248  -8164300.51346  22884387.224    22884387.7844   22884391.7624
       181.0004        182.0004
 -20888944.86949 -16249239.41247  20567510.384    20567510.5784   20567517.4004
       209.0004        209.0004
 -13628005.59248 -10606243.84046  22143491.089    22143490.1774   22143495.6974
       171.0004        172.0004
 -19771478.41549 -15056531.56548  20777352.228    20777352.7194   20777359.5044
       215.0004        215.0004
 -17500755.83649 -13611440.81447  21021872.799    21021873.3894   21021879.6454
       200.0004        198.0004
  -8006720.66047  -6219319.84746  23129452.240    23129452.4564   23129461.4514
       162.0004        164.0004
 21  2  5  0 25  0.0000000  0  7G27G07G08G21G09G04G01
 -10662548.67449  -8288172.24947  23005728.077    23005728.1134   23005735.3254
       200.0004        199.0004
 -10590821.66448  -8222766.31246  22870109.439    22870109.5814   22870113.8104
       180.0004        179.0004
 -20838939.95149 -16210274.54047  20577026.119    20577026.0904   20577033.0864
       209.0004        209.0004
 -13665378.62748 -10635365.66046  22136379.098    22136378.8224   22136383.4144
       172.0004        174.0004
 -19773379.39049 -15058012.85748  20776990.314    20776990.7214   20776997.5624
       215.0004        215.0004
 -17435115.14149 -13560292.24447  21034364.762    21034364.8854   21034370.6504
       199.0004        198.0004
  -8084170.94947  -6279670.66645  23114712.175    23114712.6764   23114722.5374
       161.0004        162.0004
 21  2  5  0 25 30.0000000  0  7G27G07G08G21G09G04G01
 -10562074.61449  -8209880.77647  23024847.868    23024847.9994   23024855.3984
       198.0004        198.0004
 -10665894.25448  -8281264.43646  22855824.143    22855824.3424   22855829.0064
       179.0004        181.0004
 -20788440.80249 -16170924.55447  20586634.957    20586635.7314   20586642.9914
       209.0004        209.0004
 -13702468.39848 -10664266.76046  22129320.330    22129320.1434   22129325.4214
       173.0004        173.0004
 -19774712.66649 -15059051.78248  20776736.507    20776736.9764   20776743.9594
       214.0004        214.0004
 -17369047.60149 -13508811.05647  21046936.781    21046937.0714   21046942.8714
       199.0004        198.0004
  -8161654.37847  -6340047.31945  23099968.439    23099968.8834   23099977.1954
       160.0004        162.0004
 21  2  5  0 26  0.0000000  0  7G27G07G08G21G09G04G01
 -10461386.29949  -8131422.34147  23044008.255    23044008.7494   23044015.4144
       197.0004        197.0004
 -10741008.31148  -8339794.82946  22841531.222    22841531.1784   22841534.4174
       180.0004        182.0004
 -20737450.63849 -16131191.92147  20596337.954    20596338.2934   20596345.6284
       208.0004        208.0004
 -13739272.96348 -10692945.58046  22122316.192    22122315.8984   22122322.1624
       172.0004        174.0004
 -19775479.39949 -15059649.20848  20776590.097    20776591.2564   20776597.9374
       214.0004        215.0004
 -17302556.51249 -13456999.80847  21059589.037    21059589.6904   21059595.6124
       199.0004        197.0004
  -8239168.88847  -6400448.18545  23085216.117    23085217.3954   23085225.9024
       160.0004        162.0004
 21  2  5  0 26 30.0000000  0  7G27G07G08G21G09G04G01
 -10360485.43549  -8052798.32047  23063209.303    23063209.3174   23063216.1484
       197.0004        196.0004
 -10816160.38748  -8398354.90446  22827228.615    22827228.4944   22827233.8354
       180.0004        180.0004
 -20685970.17449 -16091077.28847  20606134.437    20606134.3504   20606142.1724
       208.0004        208.0004
 -13775788.56548 -10721399.30946  22115367.782    22115368.2964   22115373.9624
       173.0004        173.0004
 -19775678.57649 -15059804.44748  20776553.426    20776553.6234   20776560.3764
       215.0004        216.0004
 -17235643.00949 -13404859.46547  21072322.862    21072322.8664   21072328.7024
       198.0004        197.0004
  -8316710.28747  -6460870.05346  23070461.988    23070462.4164   23070471.8784
       161.0004        164.0004
 21  2  5  0 27  0.0000000  0  7G27G07G08G21G09G04G01
 -10259376.31549  -7974011.98147  23082449.119    23082449.6874   23082456.2104
       196.0004        196.0004
 -10891349.54448  -8456943.82646  22812921.687    22812921.4254   22812924.6454
       180.0004        180.0004
 -20634003.14049 -16050583.47247  20616022.229    20616023.2134   20616031.3594
       207.0004        207.0004
 -13812014.38448 -10749627.16946  22108474.736    22108474.2064   22108479.9194
       172.0004        172.0004
 -19775311.85449 -15059518.66248  20776622.433    20776623.0064   20776629.7084
       215.0004        215.0004
 -17168310.83549 -13352392.81347  21085135.339    21085135.7544   21085141.6164
       198.0004        197.0004
  -8394276.93247  -6521311.52946  23055701.886    23055702.5544   23055711.6654
       162.0004        165.0004
 21  2  5  0 27 30.0000000  0  7G27G07G08G21G09G04G01
 -10158061.11449  -7895065.08747  23101728.602    23101728.5514   23101736.0774
       195.0004        196.0004
 -10966573.48248  -8515559.89546  22798606.381    22798606.1324   22798610.4594
       180.0004        180.0004
 -20581551.12849 -16009711.79347  20626005.294    20626005.2714   20626012.4474
       208.0004        208.0004
 -13847946.37748 -10777626.11746  22101637.263    22101636.1584   22101642.2844
       171.0004        171.0004
 -19774378.84849 -15058791.67348  20776800.105    20776800.6584   20776807.4814
       215.0004        216.0004
 -17100561.69249 -13299601.29947  21098028.059    21098028.3294   21098034.4704
       199.0004        197.0004
  -8471865.10747  -6581769.80946  23040937.726    23040937.9954   23040946.5554
       164.0004        165.0004
 21  2  5  0 28  0.0000000  0  7G27G07G08G21G09G04G01
 -10056542.29149  -7815959.49047  23121045.721    23121046.3094   23121054.4564
       195.0004        193.0004
 -11041829.92048  -8574201.24646  22784284.396    22784285.1384   22784290.1564
       178.0004        179.0004
 -20528616.03649 -15968463.65447  20636078.950    20636078.6804   20636085.9344
       208.0004        209.0004
 -13883581.83748 -10805393.97646  22094855.706    22094855.6774   22094861.1404
       171.0004        172.0004
 -19772879.41049 -15057623.27148  20777085.813    20777086.0514   20777092.8644
       215.0004        216.0004
 -17032397.53749 -13246486.37247  21110998.736    21110999.0694   21111005.8454
       198.0004        197.0004
  -8549471.43747  -6642242.21846  23026168.403    23026168.5764   23026177.8244
       162.0004        163.0004
 21  2  5  0 28 30.0000000  0  7G27G07G08G21G09G04G01
  -9954820.20148  -7736695.53247  23140402.398    23140403.3204   23140411.7384
       193.0004        192.0004
 -11117114.11648  -8632864.23246  22769959.229    22769959.8674   22769964.7694
       179.0004        180.0004
 -20475197.54549 -15926838.84147  20646243.407    20646243.5624   20646250.8614
       208.0004        208.0004
 -13918915.91348 -10832926.98146  22088132.061    22088130.8064   22088137.4384
       172.0004        173.0004
 -19770811.39349 -15056011.83848  20777479.048    20777479.7874   20777486.6734
       215.0004        216.0004
 -16963818.29149 -13193048.00947  21124048.586    21124049.2074   21124056.1084
       198.0004        197.0004
  -8627090.30247  -6702724.40646  23011397.433    23011399.4384   23011407.4334
       162.0004        164.0004
 21  2  5  0 29  0.0000000  0  7G27G07G08G21G09G04G01
  -9852900.71348  -7657277.75447  23159797.447    23159798.5224   23159806.8914
       192.0004        193.0004
 -11192427.14948  -8691549.70946  22755628.065    22755628.2264   22755632.4104
       179.0004        180.0004
 -20421301.13149 -15884841.63847  20656499.595    20656499.6914   20656506.8314
       207.0004        207.0004
 -13953948.46248 -10860225.04246  22081465.440    22081464.0874   22081470.9444
       171.0004        172.0004
 -19768178.16149 -15053959.97848  20777980.294    20777980.4854   20777987.5134
       215.0004        215.0004
 -16894829.36949 -13139290.42247  21137177.121    21137177.2984   21137184.0044
       198.0004        196.0004
  -8704721.63647  -6763216.32346  22996625.441    22996626.6534   22996635.1324
       162.0004        163.0004
 21  2  5  0 29 30.0000000  0  7G27G07G08G21G09G04G01
  -9750788.26248  -7577709.62447  23179228.727    23179229.5604   23179238.0434
       192.0004        192.0004
 -11267768.90248  -8750257.55446  22741290.748    22741291.5854   22741296.2354
       179.0004        180.0004
 -20366930.32549 -15842474.76447  20666845.500    20666845.8154   20666853.3344
       207.0004        207.0004
 -13988678.66948 -10887287.50846  22074856.641    22074855.4084   22074861.4664
       171.0004        172.0004
 -19764981.64449 -15051469.18948  20778588.592    20778588.7774   20778595.7944
       215.0004        215.0004
 -16825434.75849 -13085216.71547  21150382.594    21150382.9724   21150389.5504
       198.0004        196.0004
  -8782363.97947  -6823716.80746  22981849.916    22981851.2394   22981860.2824
       162.0004        164.0004
 21  2  5  0 30  0.0000000  0  7G27G07G08G21G09G04G01
  -9648485.24948  -7497992.98147  23198698.004    23198697.3644   23198706.3584
       192.0004        192.0004
 -11343136.23248  -8808985.32246  22726948.000    22726948.3344   22726952.9074
       179.0004        179.0004
 -20312087.16349 -15799739.82647  20677281.307    20677281.7104   20677289.8444
       206.0004        206.0004
 -14023103.52148 -10914112.03446  22068305.647    22068305.3104   22068311.2184
       172.0004        172.0004
 -19761221.80149 -15048539.43848  20779303.863    20779304.3194   20779310.9004
       215.0004        215.0004
 -16755636.45749 -13030828.43547  21163664.675    21163665.2714   21163671.7364
       198.0004        196.0004
  -8860013.82847  -6884223.14046  22967073.907    22967074.6214   22967084.6174
       162.0004        164.0004
 21  2  5  0 30 30.0000000  0  7G27G07G08G21G09G04G01
  -9545994.63348  -7418130.18747  23218200.615    23218200.4024   23218209.1044
       190.0004        190.0004
 -11418527.43348  -8867731.71946  22712601.767    22712602.1644   22712606.6084
       179.0004        180.0004
 -20256774.48549 -15756639.04947  20687807.009    20687807.8054   20687815.5254
       206.0004        207.0004
 -14057220.29148 -10940696.51846  22061812.601    22061812.4754   22061818.3344
       172.0004        173.0004
 -19756899.19049 -15045171.18648  20780126.377    20780126.8624   20780133.7404
       215.0004        215.0004
 -16685437.03549 -12976127.61347  21177023.093    21177024.0644   21177029.8684
       197.0004        196.0004
  -8937668.18147  -6944733.00646  22952298.376    22952297.3994   22952307.0754
       162.0004        163.0004
 21  2  5  0 31  0.0000000  0  7G27G07G08G21G09G04G01
  -9443320.06348  -7338124.03347  23237739.793    23237739.7234   23237747.0374
       190.0004        191.0004
 -11493941.46048  -8926495.90546  22698251.184    22698251.3664   22698256.0754
       180.0004        181.0004
 -20200994.73249 -15713174.29147  20698422.112    20698422.7664   20698430.0494
       206.0004        207.0004
 -14091027.19648 -10967039.52646  22055379.773    22055379.8434   22055385.3354
       172.0004        174.0004
 -19752014.99649 -15041365.31848  20781055.950    20781056.4004   20781063.3434
       215.0004        215.0004
 -16614839.68949 -12921116.70947  21190457.665    21190458.1224   21190464.5384
       198.0004        197.0004
  -9015324.67447  -7005244.50445  22937518.704    22937519.4954   22937529.0674
       161.0004        162.0004
 21  2  5  0 31 30.0000000  0  7G27G07G08G21G09G04G01
  -9340461.87448  -7257974.78747  23257312.846    23257313.0934   23257320.7004
       191.0004        191.0004
 -11569373.74448  -8985274.29046  22683896.612    22683896.6784   22683901.8214
       180.0004        181.0004
 -20144748.05649 -15669345.67847  20709126.197    20709126.1014   20709133.2544
       207.0004        207.0004
 -14124519.11948 -10993137.07446  22049007.710    22049007.2474   22049011.7324
       174.0004        175.0004
 -19746567.23949 -15037120.30148  20782093.034    20782093.4214   20782099.9204
       215.0004        216.0004
 -16543844.46249 -12865795.76347  21203967.839    21203968.3414   21203973.9954
       198.0004        196.0004
  -9092977.69747  -7065753.30346  22922741.482    22922742.1134   22922751.7774
       161.0004        163.0004
 21  2  5  0 32  0.0000000  0  7G27G07G08G21G09G04G01
  -9237423.52248  -7177685.17347  23276918.636    23276919.8164   23276927.5014
       189.0004        189.0004
 -11644822.86648  -9044065.82046  22669538.996    22669540.0694   22669544.7964
       180.0004        181.0004
 -20088037.63649 -15625155.74147  20719917.284    20719917.7194   20719924.8544
