     2.11           OBSERVATION DATA    G (GPS)             RINEX VERSION / TYPE
teqc  2018Jun8                          20210202 03:10:43UTCPGM / RUN BY / DATE
Linux2.6.32-573.12.1.el6.x86_64|x86_64|gcc|Win64-MinGW64|=+ COMMENT
BIT 2 OF LLI FLAGS DATA COLLECTED UNDER A/S CONDITION       COMMENT
-Unknown-                                                   MARKER NAME
CRNO                                                        MARKER NUMBER
-Unknown-           -Unknown-                               OBSERVER / AGENCY
-Unknown-           ASHTECH             -Unknown-           REC # / TYPE / VERS
-Unknown-           -Unknown-                               ANT # / TYPE
   408078.1237 -6158372.0603  1605161.9661                  APPROX POSITION XYZ
        0.0000        0.0000        0.0000                  ANTENNA: DELTA H/E/N
     1     1                                                WAVELENGTH FACT L1/2
     7    L1    L2    C1    P1    P2    S1    S2            # / TYPES OF OBSERV
    30.0000                                                 INTERVAL
Forced Modulo Decimation to 30 seconds                      COMMENT
 SNR is mapped to RINEX snr flag value [1-9]                COMMENT
  L1: 1 -> 1;  90 -> 5; 210 -> 9                            COMMENT
  L2: 1 -> 1; 150 -> 5; 250 -> 9                            COMMENT
pseudorange smoothing corrections not applied               COMMENT
  2021     2     1     0     0   30.0000000     GPS         TIME OF FIRST OBS
                                                            END OF HEADER
 21  2  1  0  0 30.0000000  0  7G08G07G21G09G04G27G01
 -19421277.07749 -15113048.82147  20913402.859    20913403.3334   20913410.0724
       203.0004        204.0004
 -12178997.51948  -9452810.25046  22383608.046    22383608.9504   22383613.2204
       186.0004        186.0004
 -12746757.49948  -9918468.66346  21924892.196    21924891.8124   21924896.8844
       175.0004        176.0004
 -18905520.26949 -14704128.67948  20821168.419    20821169.1424   20821175.9754
       213.0004        214.0004
 -15157222.93748 -11789227.98047  21506760.776    21506761.4074   21506767.8274
       193.0004        192.0004
  -9861177.33448  -7663994.42546  23650854.072    23650853.4364   23650860.2004
       184.0004        183.0004
 -10897342.18248  -8466056.11146  22636992.140    22636994.2774   22637003.9304
       169.0004        171.0004
 21  2  1  0  1  0.0000000  0  7G08G07G21G09G04G27G01
 -19356617.83849 -15062664.97647  20925706.568    20925707.3204   20925714.0324
       203.0004        203.0004
 -12254179.44848  -9511393.56046  22369301.790    22369302.6394   22369305.9254
       186.0004        187.0004
 -12773723.07048  -9939480.76646  21919760.713    21919759.9434   21919765.2674
       175.0004        177.0004
 -18887744.79649 -14690277.66048  20824551.406    20824551.7344   20824558.8034
       214.0004        214.0004
 -15078047.62848 -11727532.94847  21521827.567    21521827.8004   21521834.7634
       192.0004        192.0004
  -9755178.69148  -7581398.10346  23671024.304    23671024.3964   23671031.8404
       183.0004        185.0004
 -10974369.22348  -8526077.12746  22622336.437    22622337.1004   22622345.6644
       170.0004        171.0004
 21  2  1  0  1 30.0000000  0  8G08G07G21G30G09G04G27G01
 -19291547.84149 -15011961.07247  20938088.723    20938089.3754   20938096.2944
       202.0004        202.0004
 -12329335.56648  -9569956.75646  22354999.790    22355000.5274   22355004.6934
       187.0004        187.0004
 -12800326.16448  -9960210.41746  21914698.506    21914697.9544   21914702.2684
       176.0004        178.0004
  -1213156.08256   -915821.61045  24337795.374                    24337804.3174
       131.0004        146.0004
 -18869429.32149 -14676005.85748  20828036.438    20828037.0764   20828043.6924
       214.0004        214.0004
 -14998539.75248 -11665578.76747  21536957.677    21536957.7834   21536964.0354
       192.0004        191.0004
  -9649062.66948  -7498710.27746  23691218.546    23691218.0524   23691224.1944
       184.0004        184.0004
 -11051329.98248  -8586046.51446  22607691.556    22607692.1704   22607699.7874
       170.0004        171.0004
 21  2  1  0  2  0.0000000  0  8G08G07G21G30G09G04G27G01
 -19226069.87849 -14960939.27347  20950548.555    20950549.1344   20950556.6284
       202.0004        202.0004
 -12404463.71248  -9628498.16946  22340703.560    22340703.8444   22340707.8934
       186.0004        186.0004
 -12826564.97448  -9980656.20746  21909704.536    21909704.2224   21909709.2674
       177.0004        178.0004
  -1297104.33447   -981235.83845  24321820.518    24321821.3914   24321828.2594
       143.0004        150.0004
 -18850574.91349 -14661314.10048  20831624.233    20831624.9024   20831631.9084
       213.0004        214.0004
 -14918701.96348 -11603367.51547  21552150.219    21552150.5344   21552156.1104
       192.0004        191.0004
  -9542831.83648  -7415933.03947  23711435.140    23711434.3354   23711439.8024
       186.0004        188.0004
 -11128221.14948  -8645961.66246  22593059.252    22593059.3754   22593068.6714
       170.0004        171.0004
 21  2  1  0  2 30.0000000  0  8G08G07G21G30G09G04G27G01
 -19160187.74349 -14909602.53847  20963085.696    20963086.0564   20963093.0634
       201.0004        201.0004
 -12479562.17148  -9687016.42146  22326412.024    22326412.3244   22326417.6354
       186.0004        186.0004
 -12852437.75648 -10000816.79146  21904780.967    21904780.5034   21904785.8084
       177.0004        177.0004
  -1381165.04547  -1046737.68645  24305824.555    24305824.0274   24305830.9474
       146.0004        150.0004
 -18831183.70449 -14646204.06448  20835314.920    20835315.2634   20835322.1094
       214.0004        215.0004
 -14838537.99448 -11540902.09447  21567404.337    21567404.8344   21567411.6554
       191.0004        191.0004
  -9436489.95148  -7333069.22746  23731671.621    23731669.7734   23731675.7254
       185.0004        186.0004
 -11205040.47948  -8705820.82946  22578440.241    22578440.7924   22578450.0314
       170.0004        170.0004
 21  2  1  0  3  0.0000000  0  8G08G07G21G30G09G04G27G01
 -19093901.72749 -14857951.08547  20975699.542    20975700.0474   20975706.8564
       201.0004        201.0004
 -12554626.85048  -9745508.35147  22312128.703    22312128.7004   22312133.0044
       187.0004        188.0004
 -12877940.17248 -10020688.79046  21899927.978    21899927.7724   21899933.9384
       178.0004        178.0004
  -1465334.84547  -1112324.50845  24289807.968    24289807.4134   24289815.1984
       147.0004        151.0004
 -18811254.84549 -14630675.07748  20839107.267    20839107.5084   20839114.0004
       214.0004        214.0004
 -14758048.53748 -11478183.04047  21582721.838    21582721.9964   21582728.2104
       192.0004        191.0004
  -9330037.69948  -7250119.43446  23751928.091    23751927.3254   23751933.0274
       186.0004        187.0004
 -11281782.60448  -8765619.83946  22563836.813    22563838.0194   22563846.4714
       170.0004        172.0004
 21  2  1  0  3 30.0000000  0  8G08G07G21G30G09G04G27G01
 -19027213.79349 -14805986.44747  20988389.962    20988390.2054   20988397.5124
       201.0004        202.0004
 -12629654.80248  -9803971.68946  22297851.278    22297851.0574   22297854.7344
       187.0004        186.0004
 -12903069.20348 -10040269.81846  21895145.531    21895146.0294   21895151.7614
       178.0004        178.0004
  -1549611.46547  -1177994.57645  24273771.186    24273770.4334   24273777.8324
       151.0004        155.0004
 -18790788.69649 -14614727.43548  20843001.283    20843001.8984   20843008.9044
       214.0004        214.0004
 -14677235.56748 -11415211.89847  21598099.069    21598099.4214   21598106.7654
       192.0004        191.0004
  -9223476.99648  -7167085.12846  23772202.455    23772203.1494   23772210.5054
       184.0004        183.0004
 -11358443.49948  -8825355.55346  22549249.262    22549249.0504   22549258.4184
       170.0004        170.0004
 21  2  1  0  4  0.0000000  0  8G08G07G21G30G09G04G27G01
 -18960126.47149 -14753710.60947  21001155.782    21001156.5884   21001163.9774
       201.0004        201.0004
 -12704643.34648  -9862404.31046  22283580.047    22283581.4284   22283585.8424
       186.0004        186.0004
 -12927822.46848 -10059558.05746  21890436.964    21890435.9774   21890441.6534
       178.0004        180.0004
  -1633993.43747  -1243746.73045  24257712.511    24257713.0734   24257720.3824
       153.0004        156.0004
 -18769786.43949 -14598362.03648  20846998.069    20846998.4714   20847005.3304
       213.0004        214.0004
 -14596101.71348 -11351990.73047  21613538.990    21613539.3554   21613546.1964
       191.0004        190.0004
  -9116810.46848  -7083968.35146  23792500.976    23792500.7154   23792508.4954
       183.0004        184.0004
 -11435019.74148  -8885025.32746  22534677.756    22534678.5044   22534686.4554
       169.0004        171.0004
 21  2  1  0  4 30.0000000  0  8G08G07G21G30G09G04G27G01
 -18892643.25449 -14701126.27347  21013997.905    21013998.1284   21014005.6494
       201.0004        201.0004
 -12779590.06748  -9920804.35246  22269319.476    22269319.5634   22269323.9264
       187.0004        187.0004
 -12952197.38548 -10078551.46646  21885798.047    21885797.2674   21885802.4114
       179.0004        180.0004
  -1718479.30747  -1309579.86645  24241636.002    24241635.3804   24241642.1694
       152.0004        154.0004
 -18748249.23849 -14581579.79748  20851096.654    20851097.0184   20851103.9044
       213.0004        214.0004
 -14514649.74448 -11288521.66347  21629038.994    21629038.9804   21629044.8364
       191.0004        189.0004
  -9010040.82948  -7000771.23046  23812818.122    23812818.8324   23812825.7624
       182.0004        181.0004
 -11511508.06448  -8944626.56046  22520121.231    22520121.5284   22520131.0624
       169.0004        170.0004
 21  2  1  0  5  0.0000000  0  8G08G07G21G30G09G04G27G01
 -18824766.95349 -14648235.63547  21026913.184    21026914.1974   21026921.3414
       200.0004        200.0004
 -12854493.96048  -9979171.02546  22255066.238    22255065.8064   22255070.0134
       187.0004        187.0004
 -12976193.33048 -10097249.57946  21881231.453    21881230.9984   21881236.5134
       179.0004        179.0004
  -1803068.78947  -1375493.71745  24225538.803    24225537.7964   24225545.2534
       152.0004        155.0004
 -18726179.53049 -14564382.61948  20855296.662    20855296.6474   20855303.2754
       213.0004        213.0004
 -14432883.55948 -11224807.75647  21644598.462    21644598.8844   21644604.9784
       190.0004        190.0004
  -8903171.84348  -6917496.67446  23833154.547    23833155.1334   23833162.4654
       180.0004        180.0004
 -11587906.31948  -9004157.61646  22505583.638    22505584.4214   22505592.9744
       169.0004        169.0004
 21  2  1  0  5 30.0000000  0  8G08G07G21G30G09G04G27G01
 -18756501.26949 -14595041.58547  21039904.136    21039904.7124   21039912.3584
       200.0004        200.0004
 -12929353.41548 -10037503.04746  22240819.786    22240820.0824   22240824.7034
       186.0004        186.0004
 -12999808.68648 -10115651.13646  21876737.868    21876737.2964   21876741.5384
       179.0004        179.0004
  -1887761.15347  -1441487.73545  24209422.244    24209421.7094   24209428.9084
       154.0004        157.0004
 -18703579.34049 -14546772.07148  20859596.589    20859597.0964   20859604.0504
       213.0004        213.0004
 -14350806.63448 -11160851.71947  21660216.974    21660217.4784   21660223.8484
       191.0004        190.0004
  -8796206.96948  -6834147.42046  23853510.524    23853510.7814   23853515.3744
       180.0004        180.0004
 -11664211.93348  -9063616.48046  22491063.478    22491063.4024   22491072.2144
       169.0004        170.0004
 21  2  1  0  6  0.0000000  0  8G08G07G21G30G09G04G27G01
 -18687848.14549 -14541545.63147  21052969.775    21052969.4354   21052976.4744
       200.0004        200.0004
 -13004165.09348 -10095797.84247  22226582.823    22226583.8684   22226588.4244
       186.0004        188.0004
 -13023040.55748 -10133753.86646  21872316.208    21872315.5984   21872321.7414
       179.0004        179.0004
  -1972554.08047  -1507560.12445  24193285.196    24193285.7634   24193294.0864
       155.0004        157.0004
 -18680449.19149 -14528748.57348  20863998.217    20863998.4814   20864005.9214
       213.0004        213.0004
 -14268421.02248 -11096655.13147  21675894.325    21675894.7594   21675901.1904
       191.0004        190.0004
  -8689148.08248  -6750724.90146  23873881.622    23873882.9614   23873889.7254
       180.0004        181.0004
 -11740420.81148  -9122999.96346  22476561.114    22476561.6934   22476570.8144
       170.0004        172.0004
 21  2  1  0  6 30.0000000  0  8G08G07G21G30G09G04G27G01
 -18618809.96349 -14487749.63747  21066106.821    21066107.0344   21066113.8744
       200.0004        200.0004
 -13078926.23148 -10154053.27247  22212357.184    22212357.8654   22212361.9884
       188.0004        188.0004
 -13045886.23648 -10151555.65946  21867968.185    21867969.0594   21867973.9964
       179.0004        179.0004
  -2057445.82847  -1573709.53445  24177131.210    24177132.3954   24177139.9364
       156.0004        158.0004
 -18656790.08949 -14510312.90948  20868500.561    20868500.8934   20868507.8084
       213.0004        213.0004
 -14185729.15148 -11032219.92047  21691630.228    21691630.4204   21691636.9274
       191.0004        190.0004
  -8581997.58248  -6667231.00546  23894272.489    23894273.2554   23894279.6514
       181.0004        182.0004
 -11816529.25848  -9182305.20446  22462077.791    22462078.9314   22462087.2314
       171.0004        171.0004
 21  2  1  0  7  0.0000000  0  8G08G07G21G30G09G04G27G01
 -18549390.60449 -14433656.61647  21079316.108    21079316.3154   21079324.1494
       199.0004        199.0004
 -13153635.35248 -10212268.15347  22198141.202    22198141.0964   22198145.1774
       189.0004        189.0004
 -13068344.65348 -10169055.70346  21863694.838    21863694.7034   21863701.3784
       179.0004        180.0004
  -2142436.00247  -1639935.61345  24160958.432    24160958.9014   24160967.2494
       156.0004        158.0004
 -18632604.42349 -14491466.92348  20873103.320    20873103.1374   20873110.5194
       213.0004        214.0004
 -14102734.83648 -10967549.03347  21707424.031    21707424.2024   21707430.2104
       190.0004        189.0004
  -8474759.06848  -6583668.53846  23914678.960    23914679.2504   23914687.3984
       180.0004        180.0004
 -11892535.03248  -9241530.42746  22447614.176    22447614.9734   22447623.3344
       170.0004        169.0004
 21  2  1  0  7 30.0000000  0  8G08G07G21G30G09G04G27G01
 -18479593.52649 -14379269.29347  21092598.760    21092598.4204   21092606.1794
       198.0004        198.0004
 -13228291.62048 -10270441.86747  22183933.910    22183934.6524   22183938.4954
       189.0004        189.0004
 -13090414.54248 -10186253.01246  21859494.288    21859495.0674   21859501.1234
       179.0004        180.0004
  -2227524.04747  -1706237.97145  24144767.997    24144767.6324   24144774.6744
       157.0004        160.0004
 -18607894.62049 -14472212.54348  20877804.839    20877805.3554   20877812.2284
       213.0004        213.0004
 -14019441.98648 -10902645.52647  21723274.305    21723274.3974   21723280.5384
       190.0004        189.0004
  -8367436.35548  -6500040.45446  23935102.578    23935101.8964   23935110.6084
       179.0004        179.0004
 -11968435.86948  -9300673.89046  22433170.784    22433171.5824   22433179.8964
       169.0004        170.0004
 21  2  1  0  8  0.0000000  0  8G08G07G21G30G09G04G27G01
 -18409421.24849 -14324589.58747  21105951.180    21105951.9044   21105959.2824
       198.0004        198.0004
 -13302892.05848 -10328572.07347  22169738.659    22169738.7514   22169742.3964
       188.0004        188.0004
 -13112093.46648 -10203145.65446  21855371.240    21855371.2374   21855375.5474
       180.0004        180.0004
  -2312708.29947  -1772615.31045  24128557.610    24128557.6764   24128564.3974
       158.0004        160.0004
 -18582661.97949 -14452550.74347  20882606.822    20882607.0004   20882613.7994
       212.0004        212.0004
 -13935853.21648 -10837511.42647  21739180.734    21739180.6304   21739186.7414
       190.0004        189.0004
  -8260031.89948  -6416348.67246  23955542.381    23955541.4924   23955547.9074
       178.0004        179.0004
 -12044228.28048  -9359732.86846  22418747.964    22418748.6944   22418757.4174
       170.0004        172.0004
 21  2  1  0  8 30.0000000  0  8G08G07G21G30G09G04G27G01
 -18338877.29949 -14269620.25647  21119375.120    21119375.8614   21119383.5774
       198.0004        199.0004
 -13377434.55348 -10386657.11446  22155553.015    22155553.3084   22155556.8614
       187.0004        187.0004
 -13133379.96148 -10219732.50546  21851319.195    21851319.7534   21851324.6894
       179.0004        179.0004
  -2397987.66947  -1839066.74845  24112328.979    24112329.1334   24112336.1514
       157.0004        159.0004
 -18556908.24849 -14432482.89447  20887507.222    20887507.7184   20887514.5784
       212.0004        212.0004
 -13851971.65048 -10772149.17347  21755141.975    21755143.1394   21755148.3154
       189.0004        188.0004
  -8152548.71048  -6332595.53246  23975994.611    23975993.8194   23976001.3984
       178.0004        177.0004
 -12119909.28748  -9418705.01446  22404346.228    22404346.9324   22404356.0824
       171.0004        173.0004
 21  2  1  0  9  0.0000000  0  8G08G07G21G30G09G04G27G01
 -18267963.60049 -14214362.82047  21132870.025    21132870.7984   21132877.9734
       198.0004        199.0004
 -13451916.28748 -10444694.81147  22141379.389    22141380.0504   22141384.3254
       189.0004        190.0004
 -13154271.31648 -10236011.46946  21847342.585    21847343.1644   21847348.8344
       178.0004        178.0004
  -2483359.99347  -1905590.59745  24096084.487    24096083.6234   24096089.7074
       157.0004        158.0004
 -18530634.31649 -14412009.68847  20892507.286    20892507.6354   20892514.1664
       212.0004        212.0004
 -13767799.55248 -10706560.51947  21771159.564    21771160.1134   21771166.6124
       189.0004        188.0004
  -8044988.79148  -6248782.64546  23996461.261    23996462.1664   23996469.2454
       175.0004        174.0004
 -12195474.99448  -9477587.32146  22389965.909    22389966.9524   22389975.8534
       171.0004        172.0004
 21  2  1  0  9 30.0000000  0  8G08G07G21G30G09G04G27G01
 -18196681.99549 -14158818.70547  21146434.664    21146434.7814   21146442.3414
       198.0004        198.0004
 -13526334.05148 -10502682.65847  22127217.365    22127219.0474   22127223.0304
       190.0004        191.0004
 -13174764.86848 -10251980.45246  21843443.807    21843444.1064   21843448.6324
       178.0004        178.0004
  -2568822.92647  -1972185.07445  24079820.227    24079820.5574   24079826.9724
       156.0004        158.0004
 -18503840.87249 -14391131.67247  20897605.948    20897606.1164   20897613.0834
       212.0004        212.0004
 -13683338.96648 -10640747.07547  21787232.152    21787232.3374   21787237.9694
       189.0004        188.0004
  -7937353.99648  -6164911.37246  24016943.279    24016943.9204   24016950.6544
       173.0004        172.0004
 -12270921.26848  -9536376.57246  22375609.736    22375610.3464   22375619.2984
       172.0004        173.0004
 21  2  1  0 10  0.0000000  0  8G08G07G21G30G09G04G27G01
 -18125036.26549 -14102990.87847  21160067.729    21160068.2934   21160076.1124
       197.0004        196.0004
 -13600685.83248 -10560619.11447  22113070.244    22113070.2844   22113074.0354
       191.0004        191.0004
 -13194858.77848 -10267638.02746  21839621.104    21839620.0474   21839625.9584
       179.0004        179.0004
  -2654375.66247  -2038849.50545  24063540.818    24063540.1684   24063547.0704
       157.0004        160.0004
 -18476530.09149 -14369850.55448  20902802.725    20902803.0064   20902810.0704
       212.0004        213.0004
 -13598593.41648 -10574711.59546  21803357.990    21803358.5714   21803364.7604
       188.0004        187.0004
  -7829647.64348  -6080984.38346  24037439.772    24037440.6324   24037447.6534
       173.0004        175.0004
 -12346245.40148  -9595070.66046  22361275.256    22361275.9424   22361284.7584
       173.0004        174.0004
 21  2  1  0 10 30.0000000  0  8G08G07G21G30G09G04G27G01
 -18053029.04149 -14046881.34047  21173770.610    21173771.2654   21173778.8494
       197.0004        197.0004
 -13674969.55948 -10618502.52147  22098934.509    22098934.3234   22098938.5864
       191.0004        191.0004
 -13214551.31448 -10282982.84246  21835873.145    21835872.2404   21835878.4974
       179.0004        180.0004
  -2740016.81547  -2105582.82845  24047241.927    24047242.9144   24047250.8784
       158.0004        161.0004
 -18448703.71349 -14348167.65447  20908098.214    20908098.4344   20908105.1704
       212.0004        212.0004
 -13513565.92248 -10508456.41346  21819538.876    21819539.1004   21819545.4094
       188.0004        187.0004
  -7721872.52148  -5997003.77046  24057948.224    24057948.1474   24057955.8724
       172.0004        173.0004
 -12421444.27848  -9653667.14846  22346966.713    22346967.1424   22346974.8954
       173.0004        174.0004
 21  2  1  0 11  0.0000000  0  8G08G07G21G30G09G04G27G01
 -17980662.68649 -13990491.94747  21187541.538    21187541.7404   21187549.7964
       197.0004        198.0004
 -13749182.52648 -10676330.80347  22084811.346    22084812.3274   22084816.7224
       191.0004        191.0004
 -13233840.44848 -10298013.31746  21832202.533    21832201.5774   21832207.2284
       179.0004        179.0004
  -2825744.61947  -2172383.69346  24030929.261    24030929.7724   24030937.7114
       160.0004        163.0004
 -18420363.14849 -14326084.09947  20913490.595    20913491.1124   20913498.6334
       212.0004        212.0004
 -13428259.18348 -10441983.63346  21835772.216    21835772.4724   21835778.3604
       187.0004        186.0004
  -7614031.14148  -5912971.55146  24078470.025    24078470.1234   24078477.2694
       173.0004        175.0004
 -12496514.43948  -9712163.33546  22332681.251    22332681.6504   22332690.0434
       174.0004        175.0004
 21  2  1  0 11 30.0000000  0  8G08G07G21G30G09G04G27G01
 -17907941.41849 -13933826.00047  21201379.666    21201380.1834   21201387.8544
       197.0004        197.0004
 -13823323.35648 -10734102.86347  22070703.660    22070704.0804   22070707.5044
       191.0004        192.0004
 -13252724.83948 -10312728.40746  21828607.963    21828608.5624   21828613.9634
       179.0004        179.0004
  -2911558.59747  -2239251.71146  24014600.862    24014600.7744   24014607.3634
       162.0004        164.0004
 -18391511.01949 -14303601.91547  20918981.353    20918981.5774   20918988.8474
       212.0004        212.0004
 -13342677.07148 -10375296.28346  21852057.593    21852057.7604   21852063.6034
       186.0004        185.0004
  -7506127.12548  -5828890.47946  24099002.260    24099003.7314   24099011.1594
       173.0004        175.0004
 -12571453.55048  -9770557.39146  22318420.445    22318421.1424   22318429.4714
       174.0004        176.0004
 21  2  1  0 12  0.0000000  0  8G08G07G21G30G09G04G27G01
 -17834867.66449 -13876885.40947  21215285.016    21215285.8264   21215293.3434
       196.0004        196.0004
 -13897389.22848 -10791816.51947  22056608.949    22056609.7384   22056613.6624
       192.0004        193.0004
 -13271202.17948 -10327126.30846  21825092.288    21825092.1204   21825098.5664
       179.0004        179.0004
  -2997456.74147  -2306185.30745  23998253.083    23998253.9484   23998260.9104
       159.0004        158.0004
 -18362148.46749 -14280721.99547  20924569.105    20924569.3404   20924576.2884
       212.0004        212.0004
 -13256822.02748 -10308396.24346  21868395.316    21868396.1194   21868401.4694
       185.0004        185.0004
  -7398162.61348  -5744762.31246  24119547.704    24119548.6464   24119556.0534
       173.0004        174.0004
 -12646257.82448  -9828846.37846  22304184.748    22304185.2734   22304194.7364
       174.0004        175.0004
 21  2  1  0 12 30.0000000  0  8G08G07G21G30G09G04G27G01
 -17761443.57649 -13819671.83847  21229257.515    21229258.1084   21229264.9934
       196.0004        196.0004
 -13971377.06848 -10849469.38047  22042529.798    22042530.0784   22042533.7094
       192.0004        192.0004
 -13289269.93448 -10341205.06346  21821654.880    21821653.8154   21821659.9464
       179.0004        180.0004
  -3083436.88547  -2373182.81445  23981893.266    23981893.6404   23981898.6634
       155.0004        157.0004
 -18332276.55349 -14257445.18247  20930253.003    20930253.6124   20930260.4594
       212.0004        212.0004
 -13170696.35748 -10241285.33346  21884783.991    21884784.8524   21884791.4374
       185.0004        185.0004
  -7290139.70848  -5660588.58946  24140103.481    24140104.9924   24140112.4174
       174.0004        175.0004
 -12720923.30448  -9887027.23846  22289975.589    22289976.6554   22289986.1804
       174.0004        175.0004
 21  2  1  0 13  0.0000000  0  8G08G07G21G30G09G04G27G01
 -17687672.32849 -13762187.75047  21243296.187    21243296.2574   21243303.0514
       196.0004        196.0004
 -14045284.66548 -10907059.71447  22028464.415    22028465.1484   22028469.6304
       191.0004        191.0004
 -13306926.80148 -10354963.63946  21818294.584    21818294.4824   21818299.5214
       180.0004        181.0004
  -3169497.92347  -2440243.35645  23965515.538    23965515.9184   23965522.6944
       156.0004        158.0004
 -18301897.51549 -14233773.20747  20936034.077    20936034.3744   20936041.8104
       211.0004        211.0004
 -13084303.44448 -10173966.20346  21901224.422    21901225.1664   21901231.5344
       186.0004        185.0004
  -7182061.47648  -5576371.82646  24160670.634    24160671.7064   24160679.3404
       176.0004        177.0004
 -12795447.27448  -9945097.81646  22275795.476    22275796.1274   22275805.3414
       174.0004        175.0004
 21  2  1  0 13 30.0000000  0  8G08G07G21G30G09G04G27G01
 -17613557.48149 -13704435.90447  21257399.309    21257399.8834   21257407.0104
       196.0004        196.0004
 -14119110.30348 -10964586.18147  22014416.819    22014417.1524   22014421.3344
       191.0004        192.0004
 -13324171.30048 -10368400.90446  21815012.735    21815012.1834   21815017.4254
       180.0004        180.0004
  -3255638.77547  -2507366.08145  23949122.525    23949123.0844   23949130.2734
       156.0004        158.0004
 -18271013.54749 -14209707.77347  20941910.772    20941911.3974   20941918.6574
       211.0004        212.0004
 -12997646.76448 -10106441.50946  21917715.158    21917715.1834   21917721.9334
       185.0004        184.0004
  -7073931.04148  -5492114.33346  24181246.804    24181247.3184   24181255.2014
       174.0004        175.0004
 -12869826.87548 -10003055.90546  22261642.031    22261642.1234   22261651.0354
       175.0004        176.0004
 21  2  1  0 14  0.0000000  0  8G08G07G21G30G09G04G27G01
 -17539101.71149 -13646418.40447  21271568.177    21271568.6194   21271575.7094
       196.0004        196.0004
 -14192851.27548 -11022046.66047  22000384.415    22000384.8444   22000388.4824
       192.0004        193.0004
 -13341001.44948 -10381515.27946  21811809.174    21811809.6224   21811815.4144
       180.0004        181.0004
  -3341857.70747  -2574549.60245  23932715.800    23932715.0094   23932724.0304
       155.0004        157.0004
 -18239626.17549 -14185250.07447  20947884.313    20947884.6194   20947891.6364
       212.0004        212.0004
 -12910728.96848 -10038713.35746  21934254.109    21934254.6534   21934262.3094
       184.0004        184.0004
  -6965750.79748  -5407818.07146  24201833.671    24201833.9934   24201841.6084
       175.0004        176.0004
 -12944058.58148 -10060898.75146  22247515.684    22247516.7884   22247524.8304
       175.0004        177.0004
 21  2  1  0 14 30.0000000  0  8G08G07G21G30G09G04G27G01
 -17464307.93649 -13588137.53947  21285800.948    21285801.1934   21285808.4774
       196.0004        197.0004
 -14266505.47248 -11079439.53547  21986369.299    21986369.2784   21986372.3914
       193.0004        193.0004
 -13357415.50448 -10394305.42346  21808686.760    21808686.8224   21808691.7944
       181.0004        181.0004
  -3428153.26847  -2641792.86745  23916294.183    23916293.9324   23916302.5964
       155.0004        158.0004
 -18207737.43449 -14160401.70147  20953952.540    20953952.6554   20953959.7544
       212.0004        212.0004
 -12823553.27948  -9970784.24846  21950843.500    21950844.1934   21950850.0584
       185.0004        184.0004
  -6857523.59548  -5323485.18246  24222427.992    24222429.6194   24222435.9724
       176.0004        178.0004
 -13018139.30448 -10118623.94346  22233417.923    22233419.4304   22233427.7394
       176.0004        178.0004
 21  2  1  0 15  0.0000000  0  8G08G07G21G30G09G04G27G01
 -17389178.88349 -13529595.40847  21300096.179    21300096.9754   21300104.7364
       196.0004        196.0004
 -14340070.23048 -11136762.70647  21972368.916    21972369.6034   21972373.5314
       193.0004        193.0004
 -13373411.74948 -10406770.01546  21805643.667    21805642.6814   21805647.6204
       181.0004        182.0004
  -3514523.84147  -2709094.60145  23899859.656    23899859.7144   23899866.3574
       158.0004        161.0004
 -18175348.94549 -14135163.91147  20960115.828    20960115.8024   20960123.4694
       212.0004        212.0004
 -12736122.44548  -9902656.33546  21967481.676    21967481.7864   21967487.9464
       184.0004        184.0004
  -6749251.98048  -5239117.70346  24243031.779    24243032.9814   24243039.2554
       177.0004        177.0004
 -13092065.64148 -10176228.83146  22219350.625    22219351.0864   22219359.0864
       176.0004        177.0004
 21  2  1  0 15 30.0000000  0  8G08G07G21G30G09G04G27G01
 -17313718.46149 -13470795.07847  21314456.133    21314456.7914   21314464.6394
       195.0004        196.0004
 -14413543.76248 -11194014.81447  21958388.158    21958388.7194   21958391.8934
       192.0004        192.0004
 -13388988.82248 -10418907.96446  21802677.821    21802678.1974   21802682.9664
       181.0004        181.0004
  -3600968.60547  -2776454.14345  23883410.148    23883409.5874   23883416.4844
       159.0004        162.0004
 -18142463.40349 -14109538.81847  20966373.791    20966373.9474   20966381.2474
       212.0004        212.0004
 -12648440.30748  -9834332.59046  21984166.843    21984167.1614   21984172.9324
       184.0004        183.0004
  -6640939.36148  -5154718.24546  24263643.700    24263644.4554   24263651.0714
       179.0004        181.0004
 -13165835.12348 -10233711.50046  22205313.237    22205313.2104   22205322.2674
       176.0004        177.0004
 21  2  1  0 16  0.0000000  0  8G08G07G21G30G09G04G27G01
 -17237928.87149 -13411738.25447  21328879.895    21328880.3064   21328886.8574
       196.0004        197.0004
 -14486922.87148 -11251193.33147  21944424.530    21944424.9084   21944428.6394
       193.0004        193.0004
 -13404144.40548 -10430717.48646  21799794.815    21799794.3994   21799799.6894
       181.0004        182.0004
  -3687485.56447  -2843869.92245  23866945.338    23866945.6414   23866952.6204
       158.0004        159.0004
 -18109082.33649 -14083527.58947  20972725.273    20972726.0404   20972732.5434
       212.0004        212.0004
 -12560509.35848  -9765814.94846  22000898.670    22000899.4334   22000906.4054
       184.0004        184.0004
  -6532587.94648  -5070288.59446  24284262.495    24284263.0774   24284268.9414
       179.0004        179.0004
 -13239444.00648 -10291069.02046  22191305.580    22191305.6094   22191314.9294
       177.0004        178.0004
 21  2  1  0 16 30.0000000  0  8G08G07G21G30G09G04G27G01
 -17161811.78549 -13352426.23347  21343364.895    21343364.9064   21343371.9934
       197.0004        197.0004
 -14560204.07748 -11308295.55947  21930479.625    21930480.1214   21930484.2434
       193.0004        195.0004
 -13418875.64348 -10442196.35946  21796991.581    21796990.9654   21796997.5264
       182.0004        182.0004
  -3774071.60947  -2911339.55745  23850468.325    23850468.7644   23850475.8114
       156.0004        157.0004
 -18075205.84649 -14057130.32647  20979172.441    20979173.1594   20979179.4374
       212.0004        212.0004
 -12472331.11148  -9697104.63946  22017679.238    22017679.4164   22017686.3834
       184.0004        183.0004
  -6424198.74348  -4985829.48146  24304887.720    24304888.5224   24304894.1664
       175.0004        173.0004
 -13312887.45648 -10348297.65746  22177329.053    22177330.2584   22177338.3824
       177.0004        178.0004
 21  2  1  0 17  0.0000000  0  8G08G07G21G30G09G04G27G01
 -17085369.89049 -13292861.10947  21357910.667    21357911.3174   21357917.8914
       196.0004        196.0004
 -14633384.91149 -11365319.58847  21916554.812    21916554.5254   21916558.1824
       195.0004        194.0004
 -13433180.67648 -10453343.12246  21794270.235    21794269.3344   21794274.6204
       182.0004        182.0004
  -3860725.04447  -2978861.70545  23833979.057    23833979.6004   23833986.6564
       154.0004        156.0004
 -18040835.99049 -14030348.62747  20985713.147    20985713.1984   20985720.1164
       212.0004        212.0004
 -12383908.49548  -9628203.91846  22034505.827    22034506.0934   22034511.3564
       184.0004        183.0004
  -6315774.37648  -4901342.93346  24325522.193    24325521.3074   24325526.8374
       173.0004        174.0004
 -13386162.22048 -10405394.83646  22163386.047    22163386.9284   22163394.7834
       177.0004        178.0004
 21  2  1  0 17 30.0000000  0  8G08G07G21G30G09G04G27G01
 -17008607.96349 -13233046.61547  21372518.522    21372518.8764   21372525.2544
       195.0004        195.0004
 -14706464.62248 -11422264.78747  21902645.860    21902646.4864   21902651.8104
       194.0004        194.0004
 -13447059.53748 -10464157.78046  21791627.769    21791627.3154   21791632.1964
       181.0004        181.0004
  -3947446.25847  -3046436.67745  23817476.269    23817476.3824   23817483.7224
       153.0004        156.0004
 -18005976.59049 -14003185.44847  20992346.286    20992346.4784   20992353.6384
       212.0004        212.0004
 -12295246.42948  -9559116.57646  22051376.973    22051377.8544   22051384.2424
       183.0004        184.0004
  -6207319.37748  -4816832.57646  24346160.696    24346159.6474   24346165.0294
       171.0004        170.0004
 -13459266.93048 -10462359.49246  22149473.465    22149475.1804   22149483.8594
       177.0004        177.0004
 21  2  1  0 18  0.0000000  0  8G08G07G21G30G09G04G27G01
 -16931528.38249 -13172984.59247  21387185.586    21387186.2964   21387192.9004
       195.0004        196.0004
 -14779439.48948 -11479128.31247  21888759.533    21888760.3014   21888765.1444
       194.0004        194.0004
 -13460509.49448 -10474638.24746  21789067.210    21789067.4944   21789073.2104
       181.0004        181.0004
  -4034232.54847  -3114062.30545  23800960.254    23800960.8224   23800969.7054
       153.0004        157.0004
 -17970628.58849 -13975641.54647  20999072.493    20999072.4154   20999080.5634
       211.0004        212.0004
 -12206346.83848  -9489844.16646  22068293.515    22068293.9204   22068301.1334
       184.0004        183.0004
  -6098835.26548  -4732299.44846  24366804.169    24366803.9344   24366808.5114
       171.0004        172.0004
 -13532197.20048 -10519188.23146  22135595.190    22135595.7794   22135605.6334
       177.0004        177.0004
 21  2  1  0 18 30.0000000  0  8G08G07G21G30G09G04G27G01
 -16854133.74649 -13112677.08547  21401913.522    21401913.7784   21401920.5344
       195.0004        195.0004
 -14852307.35148 -11535908.45747  21874893.904    21874893.8624   21874898.5444
       193.0004        194.0004
 -13473528.90548 -10484783.22646  21786590.448    21786590.2974   21786595.3594
       181.0004        181.0004
  -4121082.38847  -3181737.49945  23784435.061    23784435.2894   23784441.7804
       156.0004        160.0004
 -17934794.07549 -13947718.55847  21005892.043    21005892.1034   21005899.3204
       211.0004        212.0004
 -12117212.89248  -9420389.16946  22085255.157    22085255.9634   22085262.4304
       183.0004        183.0004
  -5990324.82748  -4647745.86446  24387452.847    24387452.5824   24387458.4494
       172.0004        172.0004
 -13604949.91048 -10575878.63746  22121751.212    22121752.3384   22121761.9044
       177.0004        179.0004
 21  2  1  0 19  0.0000000  0  8G08G07G21G30G09G04G27G01
 -16776427.48249 -13052126.73547  21416700.938    21416701.1114   21416707.8784
       195.0004        195.0004
 -14925066.26748 -11592603.69547  21861048.196    21861048.8054   21861053.0724
       194.0004        194.0004
 -13486116.80348 -10494591.96246  21784195.864    21784195.5634   21784200.1394
       180.0004        181.0004
  -4207994.63847  -3249461.36345  23767896.955    23767896.6814   23767903.2964
       157.0004        160.0004
 -17898475.57449 -13919418.42047  21012802.811    21012803.3904   21012810.3364
       211.0004        211.0004
 -12027848.11548  -9350754.27446  22102261.496    22102261.7314   22102268.4624
       184.0004        184.0004
  -5881791.06448  -4563174.14146  24408105.053    24408105.6724   24408111.9154
       171.0004        173.0004
 -13677522.34148 -10632428.54146  22107942.046    22107942.7884   22107950.2834
       177.0004        178.0004
 21  2  1  0 19 30.0000000  0  8G08G07G21G30G09G04G27G01
 -16698412.52549 -12991335.85347  21431546.165    21431546.9414   21431553.7024
       195.0004        195.0004
 -14997713.73549 -11649212.11147  21847224.801    21847225.1304   21847229.0974
       195.0004        196.0004
 -13498271.50948 -10504063.14046  21781883.048    21781881.7384   21781887.3744
       181.0004        182.0004
  -4294967.43447  -3317232.33245  23751345.354    23751345.5354   23751353.6584
       159.0004        161.0004
 -17861674.86049 -13890742.54147  21019805.813    21019806.1374   21019813.0254
       210.0004        210.0004
 -11938255.22448  -9280941.63846  22119310.614    22119311.0214   22119317.0014
       184.0004        183.0004
  -5773236.35948  -4478586.04846  24428761.766    24428762.5914   24428768.6904
       170.0004        170.0004
 -13749910.89748 -10688835.18346  22094166.823    22094166.7744   22094176.0074
       178.0004        179.0004
 21  2  1  0 20  0.0000000  0  9G08G07G21G30G09G04G27G17G01
 -16620091.37148 -12930306.37547  21446449.051    21446449.9384   21446457.7504
       194.0004        194.0004
 -15070246.76149 -11705731.34247  21833421.499    21833422.1534   21833426.4944
       195.0004        195.0004
 -13509991.09548 -10513195.26846  21779653.192    21779652.7964   21779656.5404
       182.0004        183.0004
  -4381998.89747  -3385049.01945  23734784.586    23734784.1354   23734791.8104
       160.0004        162.0004
 -17824393.71549 -13861692.29647  21026900.415    21026900.6004   21026907.7024
       210.0004        210.0004
 -11848437.01748  -9210953.42646  22136402.604    22136402.8094   22136409.2864
       184.0004        184.0004
  -5664663.01348  -4393983.48846  24449422.969    24449423.0434   24449430.2124
       168.0004        168.0004
  -1501781.12654  -1122312.79145  24074452.512
        74.0004        155.0004
 -13822112.07248 -10745095.79046  22080427.123    22080427.5884   22080437.3904
       179.0004        180.0004
 21  2  1  0 20 30.0000000  0  9G08G07G21G30G09G04G27G17G01
 -16541467.90148 -12869041.33847  21461411.556    21461412.0354   21461419.3234
       194.0004        195.0004
 -15142663.39149 -11762159.86647  21819640.837    21819641.1774   21819646.1834
       195.0004        194.0004
 -13521274.66648 -10521987.63546  21777505.422    21777505.0044   21777510.5784
       183.0004        184.0004
  -4469088.03847  -3452910.69245  23718211.473    23718210.7024   23718218.6014
       159.0004        160.0004
 -17786634.96049 -13832269.88647  21034084.521    21034085.2594   21034092.4424
       209.0004        209.0004
 -11758397.23948  -9140792.55646  22153536.464    22153537.1324   22153543.6304
       184.0004        184.0004
  -5556074.27748  -4309368.87946  24470086.152    24470087.5474   24470092.8784
       169.0004        171.0004
  -1597220.22847  -1196680.79745  24056292.874    24056292.1224   24056298.2554
       149.0004        157.0004
 -13894123.31748 -10801208.41046  22066724.179    22066724.6094   22066733.9964
       179.0004        181.0004
 21  2  1  0 21  0.0000000  0  9G08G07G21G30G09G04G27G17G01
 -16462546.82048 -12807544.38347  21476430.644    21476430.9594   21476437.1654
       194.0004        194.0004
 -15214962.97749 -11818497.20247  21805883.170    21805883.9204   21805887.5774
       195.0004        195.0004
 -13532122.27548 -10530440.29746  21775440.115    21775440.2134   21775446.8714
       183.0004        183.0004
  -4556234.92947  -3520817.35245  23701628.145    23701628.3794   23701636.2654
       157.0004        159.0004
 -17748402.37949 -13802478.26847  21041360.678    21041361.0254   21041367.9554
       209.0004        210.0004
 -11668140.56748  -9070462.69046  22170711.766    22170711.9624   22170718.2984
       183.0004        181.0004
  -5447474.52448  -4224745.74746  24490750.645    24490752.3864   24490759.8794
       169.0004        169.0004
  -1692423.07547  -1270864.71045  24038175.472    24038175.9034   24038181.5334
       153.0004        157.0004
 -13965943.02348 -10857171.79946  22053056.665    22053057.2284   22053066.1374
       180.0004        180.0004
 21  2  1  0 21 30.0000000  0  9G08G07G21G30G09G04G27G17G01
 -16383328.43948 -12745815.76047  21491505.330    21491505.7434   21491512.1094
       194.0004        194.0004
 -15287140.59749 -11874739.49847  21792147.537    21792148.1664   21792152.9084
       195.0004        195.0004
 -13542529.85048 -10538550.07646  21773459.926    21773460.2834   21773465.5184
       182.0004        183.0004
  -4643435.39747  -3588765.74345  23685034.980    23685034.6564   23685041.3794
       157.0004        160.0004
 -17709695.64249 -13772317.17547  21048726.490    21048726.8054   21048733.8824
       209.0004        210.0004
 -11577667.63448  -8999964.30546  22187927.082    22187928.2834   22187934.3684
       182.0004        182.0004
  -5338863.64748  -4140113.93046  24511419.142    24511420.4904   24511427.6244
       168.0004        169.0004
  -1787385.28147  -1344861.09045  24020105.301    24020105.1944   24020110.0644
       152.0004        153.0004
 -14037565.51848 -10912981.51546  22039428.611    22039428.9634   22039436.2724
       179.0004        180.0004
 21  2  1  0 22  0.0000000  0  9G08G07G21G30G09G04G27G17G01
 -16303815.64848 -12683857.73047  21506634.952    21506635.7224   21506642.0414
       193.0004        193.0004
 -15359193.54949 -11930884.63247  21778437.045    21778436.9724   21778441.4264
       195.0004        195.0004
 -13552495.93248 -10546315.82846  21771564.688    21771563.5604   21771568.6774
       182.0004        182.0004
  -4730687.70047  -3656754.55345  23668431.402    23668430.5824   23668438.0524
       158.0004        161.0004
 -17670516.81149 -13741788.21047  21056182.207    21056182.4814   21056189.0894
       210.0004        210.0004
 -11486981.41348  -8929299.71146  22205184.826    22205185.1354   22205191.4884
       181.0004        180.0004
  -5230244.31148  -4055475.45046  24532088.387    24532090.0664   24532096.6904
       167.0004        168.0004
  -1882104.26747  -1418667.99245  24002080.715    24002081.1184   24002085.6894
       150.0004        152.0004
 -14108987.46448 -10968634.93046  22025835.577    22025836.8914   22025845.5674
       179.0004        180.0004
 21  2  1  0 22 30.0000000  0  9G08G07G21G30G09G04G27G17G01
 -16224010.44048 -12621671.84847  21521821.645    21521822.2034   21521828.9184
       192.0004        193.0004
 -15431117.99149 -11986929.64247  21764749.795    21764750.2934   21764754.9014
       195.0004        196.0004
 -13562017.56848 -10553735.27146  21769752.968    21769752.2084   21769756.0734
       182.0004        181.0004
  -4817988.84247  -3724781.40745  23651817.864    23651817.9234   23651824.4964
       159.0004        162.0004
 -17630866.70849 -13710892.01847  21063727.197    21063727.4204   21063734.3494
       210.0004        210.0004
 -11396083.54348  -8858470.20346  22222482.429    22222482.4754   22222488.4364
       181.0004        180.0004
  -5121617.51748  -3970831.17346  24552757.934    24552759.5444   24552768.6264
       167.0004        167.0004
  -1976576.89047  -1492282.92245  23984102.562    23984102.1134   23984108.4034
       151.0004        154.0004
 -14180204.19648 -11024128.45646  22012283.831    22012284.1784   22012294.0184
       179.0004        179.0004
 21  2  1  0 23  0.0000000  0  9G08G07G21G30G09G04G27G17G01
 -16143914.96748 -12559259.78547  21537063.450    21537064.0744   21537070.8504
       193.0004        193.0004
 -15502910.80849 -12042872.08947  21751088.457    21751088.8434   21751092.8864
       195.0004        196.0004
 -13571093.02148 -10560807.03546  21768025.517    21768024.7654   21768029.4404
       182.0004        183.0004
  -4905336.54247  -3792844.54546  23635195.966    23635196.2404   23635203.6414
       161.0004        163.0004
 -17590747.06149 -13679629.95447  21071361.773    21071362.1254   21071369.3164
       210.0004        210.0004
 -11304976.65048  -8787477.81646  22239818.089    22239819.3394   22239825.9054
       181.0004        179.0004
  -5012985.52348  -3886182.96946  24573432.674    24573433.1084   24573440.7694
       168.0004        170.0004
  -2070800.37847  -1565703.69745  23966172.270    23966172.9394   23966177.6644
       152.0004        155.0004
 -14251212.00648 -11079459.19446  21998771.650    21998772.7374   21998781.3964
       179.0004        180.0004
 21  2  1  0 23 30.0000000  0  8G08G07G21G30G09G04G17G01
 -16063533.14448 -12496624.60847  21552360.092    21552360.4544   21552366.9684
       193.0004        193.0004
 -15574570.23749 -12098710.60047  21737452.145    21737452.3734   21737456.6214
       196.0004        197.0004
 -13579721.39748 -10567530.43846  21766383.204    21766382.8384   21766386.8054
       182.0004        182.0004
  -4992729.73247  -3860943.11545  23618564.795    23618565.3834   23618573.2574
       159.0004        160.0004
 -17550160.56249 -13648004.11047  21079084.718    21079084.9944   21079092.1684
       209.0004        209.0004
 -11213664.24548  -8716325.31346  22257195.618    22257195.9244   22257202.9364
       181.0004        181.0004
  -2164773.20947  -1638929.17045  23948288.937    23948289.8144   23948295.7144
       153.0004        155.0004
 -14322008.15848 -11134625.00046  21985299.941    21985300.6484   21985309.0654
       180.0004        180.0004
 21  2  1  0 24  0.0000000  0  9G08G07G14G21G30G09G04G17G01
 -15982867.29748 -12433768.09647  21567710.494    21567710.8384   21567717.0314
       193.0004        193.0004
 -15646093.70649 -12154443.15647  21723841.589    21723841.8904   21723845.9754
       196.0004        197.0004
  -1056296.30856   -816243.51645  23604394.351                    23604400.1764
       123.0004        143.0004
 -13587900.77648 -10573903.96446  21764825.511    21764825.9754   21764831.2124
       182.0004        183.0004
  -5080166.57147  -3929075.67145  23601926.021    23601926.7564   23601933.7954
       158.0004        161.0004
 -17509109.37849 -13616016.16147  21086896.906    21086896.9864   21086904.1274
       209.0004        209.0004
 -11122149.34348  -8645015.00346  22274610.895    22274610.7104   22274617.5374
       180.0004        179.0004
  -2258493.40547  -1711957.75145  23930454.517    23930455.5194   23930461.7434
       154.0004        157.0004
 -14392589.32548 -11189623.26346  21971869.382    21971869.6244   21971877.3584
       179.0004        180.0004
 21  2  1  0 24 30.0000000  0  9G08G07G14G21G30G09G04G17G01
 -15901922.45149 -12370694.19747  21583113.386    21583113.3974   21583119.9994
       206.0004        209.0004
 -15717479.79449 -12210068.67547  21710257.570    21710257.7924   21710261.8664
       196.0004        197.0004
  -1083547.16746   -837477.87945  23599209.162    23599209.1734   23599209.7944
       134.0004        142.0004
 -13595631.45448 -10579927.85746  21763354.610    21763354.6454   21763360.4604
       182.0004        182.0004
  -5167646.69947  -3997241.98546  23585280.520    23585280.7624   23585288.0314
       161.0004        164.0004
 -17467597.17649 -13583668.99147  21094795.994    21094796.3174   21094804.0274
       209.0004        210.0004
 -11030436.38848  -8573550.37746  22292062.484    22292063.0724   22292068.4314
       178.0004        178.0004
  -2351960.08947  -1784788.81645  23912670.288    23912669.4654   23912675.7664
       156.0004        158.0004
 -14462953.59448 -11244452.55446  21958478.953    21958479.2144   21958487.9454
       179.0004        180.0004
 21  2  1  0 25  0.0000000  0  9G08G07G14G21G30G09G04G17G01
 -15820701.78149 -12307405.36147  21598568.763    21598569.3284   21598575.6674
       210.0004        209.0004
 -15788726.77449 -12265585.79347  21696699.452    21696700.0984   21696703.5144
       196.0004        196.0004
  -1110741.25447   -858668.02345  23594034.123    23594034.8144   23594037.7634
       137.0004        144.0004
 -13602912.62748 -10585601.48146  21761969.663    21761969.8164   21761974.5144
       183.0004        184.0004
  -5255169.14547  -4065441.29046  23568625.217    23568625.7174   23568632.4704
       162.0004        163.0004
 -17425626.89349 -13550964.88147  21102783.732    21102783.8694   21102790.4844
       209.0004        210.0004
 -10938529.11248  -8501934.31646  22309552.932    22309552.5594   22309558.2394
       177.0004        176.0004
  -2445172.10447  -1857421.44745  23894931.400    23894931.7364   23894937.7574
       155.0004        158.0004
 -14533098.50648 -11299110.89246  21945131.084    21945131.6004   21945139.6744
       180.0004        180.0004
 21  2  1  0 25 30.0000000  0  9G08G07G14G21G30G09G04G17G01
 -15739207.40849 -12243903.23648  21614077.172    21614077.4954   21614083.8924
       219.0004        223.0004
 -15859831.33049 -12320991.93847  21683168.668    21683169.2044   21683173.0344
       196.0004        196.0004
  -1137879.06547   -879814.32745  23588870.470    23588869.9934   23588874.5524
       139.0004        144.0004
 -13609742.44248 -10590923.37146  21760670.972    21760669.5844   21760675.4114
       183.0004        183.0004
  -5342731.34847  -4133671.55746  23551962.365    23551962.9624   23551969.8994
       162.0004        164.0004
 -17383200.09149 -13517905.02447  21110856.181    21110856.5664   21110864.0084
       209.0004        209.0004
 -10846429.88048  -8430168.66846  22327077.900    22327078.3774   22327084.9244
       178.0004        178.0004
  -2538126.45047  -1929853.27945  23877243.150    23877243.5954   23877248.7784
       157.0004        160.0004
 -14603019.95348 -11353595.10546  21931825.985    21931826.3574   21931834.8684
       180.0004        181.0004
 21  2  1  0 26  0.0000000  0  9G08G07G14G21G30G09G04G17G01
 -15657443.68349 -12180191.22848  21629636.150    21629636.6784   21629642.9684
       224.0004        224.0004
 -15930791.91149 -12376285.88347  21669665.139    21669665.7434   21669669.5694
       196.0004        196.0004
  -1164962.97947   -900918.60745  23583714.379    23583715.5204   23583723.1144
       141.0004        147.0004
 -13616120.37248 -10595893.16546  21759457.616    21759457.2834   21759461.8024
       184.0004        184.0004
  -5430332.54847  -4201932.22646  23535292.364    23535292.8654   23535300.1534
       164.0004        166.0004
 -17340320.04549 -13484491.98847  21119015.431    21119016.6004   21119023.6314
       209.0004        209.0004
 -10754142.67448  -8358256.56646  22344639.093    22344639.2744   22344646.3154
       178.0004        178.0004
  -2630822.09047  -2002083.51845  23859602.620    23859603.1224   23859609.5854
       156.0004        157.0004
 -14672715.73448 -11407903.46646  21918562.356    21918563.2854   21918570.6334
       180.0004        180.0004
 21  2  1  0 26 30.0000000  0  9G08G07G14G21G30G09G04G17G01
 -15575411.25349 -12116269.84748  21645246.300    21645246.6284   21645253.5934
       225.0004        224.0004
 -16001603.26449 -12431463.55547  21656190.285    21656190.3444   21656194.4274
       196.0004        196.0004
  -1191991.55347   -921979.83245  23578571.349    23578572.3394   23578582.0064
       149.0004        155.0004
 -13622042.42848 -10600507.72746  21758328.688    21758328.9184   21758335.0024
       184.0004        184.0004
  -5517968.39348  -4270219.86146  23518615.232    23518615.7864   23518624.0504
       165.0004        166.0004
 -17296986.42549 -13450725.52647  21127263.039    21127263.3034   21127269.6304
       209.0004        209.0004
 -10661667.92248  -8286198.31946  22362235.007    22362236.8214   22362243.7214
       177.0004        177.0004
  -2723254.28947  -2074108.48545  23842012.334    23842013.1124   23842019.9664
       155.0004        158.0004
 -14742179.94848 -11462031.39346  21905343.630    21905344.3074   21905352.3544
       180.0004        181.0004
 21  2  1  0 27  0.0000000  0  9G08G07G14G21G30G09G04G17G01
 -15493112.05449 -12052140.60148  21660907.447    21660907.3144   21660914.3144
       224.0004        222.0004
 -16072262.43749 -12486522.64647  21642743.465    21642744.2824   21642748.8014
       196.0004        197.0004
  -1218965.72747   -942998.66945  23573439.344    23573439.9414   23573448.3764
       154.0004        158.0004
 -13627507.11248 -10604765.91846  21757289.058    21757289.3104   21757295.1104
       183.0004        183.0004
  -5605636.57348  -4338532.68746  23501933.662    23501933.8354   23501941.2394
       165.0004        166.0004
 -17253201.08849 -13416607.08047  21135594.148    21135594.6274   21135601.7894
       208.0004        208.0004
 -10569008.20548  -8213995.95746  22379868.449    22379868.9094   22379875.3584
       176.0004        174.0004
  -2815420.74547  -2145926.38445  23824475.146    23824475.0534   23824481.3264
       156.0004        159.0004
 -14811408.85248 -11515975.96346  21892170.535    21892170.6214   21892180.2194
       181.0004        182.0004
 21  2  1  0 27 30.0000000  0  9G08G07G14G21G30G09G04G17G01
 -15410551.37949 -11987807.59548  21676616.841    21676617.8334   21676625.2414
       223.0004        222.0004
 -16142769.00249 -12541462.81247  21629326.618    21629327.1394   21629331.9914
       196.0004        196.0004
  -1245888.79347   -963977.66245  23568316.663    23568317.2884   23568322.9654
       155.0004        157.0004
 -13632514.97848 -10608668.13046  21756335.794    21756336.7194   21756341.0954
       183.0004        182.0004
  -5693337.38348  -4406870.96946  23485244.988    23485245.2044   23485251.6204
       166.0004        168.0004
 -17208968.45349 -13382140.08647  21144011.988    21144012.3004   21144019.3294
       209.0004        210.0004
 -10476168.61248  -8141653.43046  22397536.431    22397536.4664   22397543.7654
       176.0004        177.0004
  -2907321.37447  -2217537.18245  23806988.107    23806987.4264   23806992.3134
       156.0004        158.0004
 -14880401.28648 -11569736.27346  21879041.048    21879041.9684   21879050.7494
       181.0004        182.0004
 21  2  1  0 28  0.0000000  0  9G08G07G14G21G30G09G04G17G01
 -15327732.38949 -11923273.32648  21692377.679    21692378.0814   21692385.1024
       223.0004        223.0004
 -16213120.16849 -12596281.89247  21615939.280    21615939.6234   21615944.2824
       196.0004        196.0004
  -1272762.09347   -984917.88045  23563203.623    23563203.8874   23563208.1704
       155.0004        156.0004
 -13637064.79048 -10612213.42046  21755471.492    21755471.1964   21755475.8534
       183.0004        184.0004
  -5781068.88248  -4475233.17146  23468550.598    23468550.2544   23468557.0014
       166.0004        167.0004
 -17164290.82649 -13347326.34947  21152513.869    21152513.8084   21152521.2854
       209.0004        209.0004
 -10383152.22848  -8069173.13946  22415237.456    22415237.7584   22415243.8564
       177.0004        177.0004
  -2998954.15547  -2288939.24745  23789547.376    23789549.8914   23789555.8144
       154.0004        155.0004
 -14949153.94848 -11623309.74846  21865957.026    21865958.1324   21865966.5304
       181.0004        182.0004
 21  2  1  0 28 30.0000000  0  9G08G07G14G21G30G09G04G17G01
 -15244657.24549 -11858539.45348  21708187.354    21708187.6614   21708193.6084
       224.0004        223.0004
 -16283312.90949 -12650977.54047  21602582.723    21602583.2224   21602586.8494
       196.0004        197.0004
  -1299586.55547  -1005820.02345  23558096.873    23558097.1104   23558102.0434
       152.0004        154.0004
 -13641155.00148 -10615400.57346  21754692.515    21754692.0134   21754697.1184
       183.0004        183.0004
  -5868828.97948  -4543617.65546  23451849.362    23451849.4814   23451856.1854
       166.0004        166.0004
 -17119170.20849 -13312167.41647  21161099.290    21161099.3674   21161107.0664
       209.0004        208.0004
 -10289961.57648  -7996557.04846  22432970.817    22432970.6574   22432977.2134
       176.0004        176.0004
  -3090316.71247  -2360130.72045  23772161.975    23772162.8054   23772169.0274
       150.0004        151.0004
 -15017663.10448 -11676693.47846  21852920.662    21852921.7274   21852929.4044
       181.0004        183.0004
 21  2  1  0 29  0.0000000  0  9G08G07G14G21G30G09G04G17G01
 -15161328.48749 -11793607.94248  21724044.239    21724044.2054   21724050.4334
       224.0004        222.0004
 -16353343.98449 -12705547.19247  21589256.548    21589256.5534   21589260.9864
       198.0004        198.0004
  -1326362.66447  -1026684.51245  23553003.325    23553003.6194   23553007.6804
       154.0004        157.0004
 -13644783.07948 -10618227.63446  21754001.890    21754001.2124   21754006.3844
       183.0004        183.0004
  -5956615.08447  -4612022.38845  23435143.347    23435143.6714   23435151.0754
       163.0004        162.0004
 -17073608.26949 -13276664.60347  21169770.456    21169770.7684   21169777.2364
       209.0004        210.0004
 -10196599.08748  -7923807.03946  22450736.202    22450737.0514   22450743.1584
       176.0004        176.0004
  -3181406.17247  -2431109.42245  23754830.532    23754830.5984   23754836.4944
       154.0004        159.0004
 -15085924.87048 -11729884.44346  21839931.330    21839931.6244   21839940.1044
       182.0004        182.0004
 21  2  1  0 29 30.0000000  0  9G08G07G14G21G30G09G04G17G01
 -15077749.28049 -11728481.27848  21739947.837    21739947.9924   21739955.3534
       222.0004        220.0004
 -16423211.05949 -12759989.06247  21575960.174    21575961.0134   21575965.6994
       198.0004        198.0004
  -1353092.11047  -1047512.62045  23547916.013    23547916.7284   23547921.3474
       156.0004        158.0004
 -13647948.90048 -10620694.48746  21753399.642    21753399.2644   21753404.3004
       183.0004        184.0004
  -6044425.67047  -4680446.22146  23418432.856    23418434.5264   23418441.0584
       162.0004        164.0004
 -17027607.72649 -13240820.02847  21178523.895    21178524.1634   21178530.9664
       209.0004        209.0004
 -10103068.08348  -7850925.73646  22468535.332    22468535.3544   22468541.5424
       177.0004        177.0004
  -3272221.08347  -2501874.18345  23737549.562    23737549.1494   23737553.4264
       156.0004        159.0004
 -15153936.32848 -11782880.34446  21826989.000    21826988.9694   21826998.3414
       182.0004        183.0004
 21  2  1  0 32  0.0000000  0  9G01G21G04G17G14G07G08G09G30
    -28880.03754     -5963.77743  19287271.886
        74.0004         74.0004
    -30946.88958    -18389.06747  19275977.138                    19275983.4984
       174.0004        189.0004
