     2.11           OBSERVATION DATA    G (GPS)             RINEX VERSION / TYPE
teqc  2018Jun8                          20210202 03:10:40UTCPGM / RUN BY / DATE
Linux2.6.32-573.12.1.el6.x86_64|x86_64|gcc|Win64-MinGW64|=+ COMMENT
BIT 2 OF LLI FLAGS DATA COLLECTED UNDER A/S CONDITION       COMMENT
-Unknown-                                                   MARKER NAME
CRNO                                                        MARKER NUMBER
-Unknown-           -Unknown-                               OBSERVER / AGENCY
-Unknown-           ASHTECH             -Unknown-           REC # / TYPE / VERS
-Unknown-           -Unknown-                               ANT # / TYPE
   408078.9651 -6158371.1334  1605162.4106                  APPROX POSITION XYZ
        0.0000        0.0000        0.0000                  ANTENNA: DELTA H/E/N
     1     1                                                WAVELENGTH FACT L1/2
     7    L1    L2    C1    P1    P2    S1    S2            # / TYPES OF OBSERV
    30.0000                                                 INTERVAL
Forced Modulo Decimation to 30 seconds                      COMMENT
 SNR is mapped to RINEX snr flag value [1-9]                COMMENT
  L1: 1 -> 1;  90 -> 5; 210 -> 9                            COMMENT
  L2: 1 -> 1; 150 -> 5; 250 -> 9                            COMMENT
pseudorange smoothing corrections not applied               COMMENT
  2021     2     2     0     0   30.0000000     GPS         TIME OF FIRST OBS
                                                            END OF HEADER
 21  2  2  0  0 30.0000000  0  8G08G27G09G07G03G21G01G04
 -22641323.85249 -17614524.03747  20427246.088    20427246.6764   20427254.3644
       209.0004        209.0004
 -11756504.47849  -9140214.26647  22700784.127    22700785.6954   22700792.2684
       201.0004        201.0004
 -19199856.16049 -14930264.54448  20791539.135    20791539.7064   20791546.5704
       213.0004        213.0004
 -11533054.73448  -8974069.04046  23095841.065    23095840.8524   23095845.3754
       172.0004        174.0004
   1589169.88848   1272021.78946  24749211.941    24749212.9874   24749220.9294
       167.0004        166.0004
 -12777392.13848  -9945434.30046  22257095.140    22257094.3564   22257096.3224
       166.0004        170.0004
  -8473247.35747  -6579221.34545  23357271.253    23357270.7464   23357281.0284
       151.0004        154.0004
 -19385255.78249 -15088237.29747  20847539.116    20847539.5334   20847545.7744
       201.0004        199.0004
 21  2  2  0  1  0.0000000  0  8G08G27G09G07G03G21G01G04
 -22599477.52749 -17581916.50047  20435209.199    20435209.6494   20435217.3404
       209.0004        209.0004
 -11659961.22249  -9064985.74447  22719157.636    22719157.9824   22719163.5784
       201.0004        202.0004
 -19210101.39349 -14938247.83848  20789589.954    20789590.2404   20789597.0354
       213.0004        213.0004
 -11607186.55648  -9031834.08646  23081733.019    23081734.5184   23081737.8674
       172.0004        172.0004
   1634255.23348   1307153.18546  24757791.860    24757792.3074   24757801.0884
       165.0004        166.0004
 -12818974.84348  -9977836.42346  22249181.552    22249180.4924   22249184.2334
       169.0004        170.0004
  -8549862.55447  -6638921.44345  23342692.716    23342693.4194   23342700.5904
       152.0004        156.0004
 -19326145.06249 -15042176.99847  20858787.469    20858788.0454   20858794.4994
       201.0004        199.0004
 21  2  2  0  1 30.0000000  0  8G08G27G09G07G03G21G01G04
 -22557102.51249 -17548896.98547  20443272.892    20443273.2824   20443280.7394
       208.0004        209.0004
 -11563153.36449  -8989551.04447  22737579.062    22737579.6464   22737585.7674
       202.0004        202.0004
 -19219776.87049 -14945787.15648  20787748.117    20787748.7734   20787755.4864
       213.0004        213.0004
 -11681385.72548  -9089651.61146  23067613.620    23067614.6134   23067619.0824
       173.0004        174.0004
   1679069.85448   1342073.64046  24766320.692    24766321.0304   24766330.3794
       166.0004        169.0004
 -12860315.25348 -10010049.70646  22241312.930    22241311.3364   22241317.0974
       168.0004        167.0004
  -8626553.89447  -6698680.89445  23328098.008    23328098.5484   23328106.2714
       152.0004        154.0004
 -19266572.71549 -14995756.98247  20870123.746    20870124.3944   20870130.1224
       201.0004        200.0004
 21  2  2  0  2  0.0000000  0  8G08G27G09G07G03G21G01G04
 -22514200.87649 -17515467.13347  20451437.461    20451437.5054   20451444.7224
       209.0004        209.0004
 -11466083.83049  -8913912.45747  22756051.125    22756051.0704   22756057.2834
       201.0004        200.0004
 -19228882.40849 -14952882.38648  20786016.176    20786016.3854   20786022.8814
       213.0004        213.0004
 -11755650.13948  -9147519.97646  23053482.612    23053483.1614   23053487.2524
       175.0004        177.0004
   1723612.51048   1376782.18446  24774795.192    24774796.2804   24774806.9404
       167.0004        169.0004
 -12901410.24747 -10042071.71745  22233489.179    22233489.5264   22233497.5204
       164.0004        162.0004
  -8703318.60847  -6758497.51045  23313490.125    23313490.6804   23313499.8004
       152.0004        154.0004
 -19206540.85849 -14948978.92147  20881547.332    20881548.0864   20881553.6184
       200.0004        199.0004
 21  2  2  0  2 30.0000000  0  8G08G27G09G07G03G21G01G04
 -22470774.11049 -17481628.07947  20459700.549    20459701.2704   20459708.8004
       208.0004        209.0004
 -11368755.48749  -8838072.20247  22774571.166    22774571.9594   22774578.1304
       200.0004        199.0004
 -19237417.77749 -14959533.32948  20784390.914    20784391.7134   20784398.6824
       212.0004        213.0004
 -11829978.12948  -9205437.90846  23039338.688    23039338.8494   23039343.6364
       176.0004        177.0004
   1767882.01148   1411277.85646  24783220.809    24783221.3234   24783230.6764
       169.0004        172.0004
 -12942257.32447 -10073900.58946  22225717.627    22225717.9984   22225723.4864
       162.0004        165.0004
  -8780153.72247  -6818368.98645  23298870.172    23298869.3904   23298877.9554
       152.0004        155.0004
 -19146051.54349 -14901844.39547  20893058.076    20893058.6194   20893064.3814
       200.0004        199.0004
 21  2  2  0  3  0.0000000  0  8G08G27G09G07G03G21G01G04
 -22426825.55449 -17447382.43547  20468063.929    20468064.1384   20468071.7524
       208.0004        209.0004
 -11271172.44749  -8762033.45747  22793140.027    22793140.7854   22793147.4274
       199.0004        199.0004
 -19245384.06949 -14965740.82348  20782875.528    20782876.1764   20782882.5564
       212.0004        213.0004
 -11904369.12548  -9263404.89246  23025182.597    23025183.1544   23025186.7134
       176.0004        177.0004
   1811876.15148   1445558.94746  24791592.742    24791593.0484   24791601.9634
       169.0004        169.0004
 -12982854.60148 -10105534.78746  22217993.585    22217993.8334   22217999.3874
       165.0004        168.0004
  -8857057.60947  -6878294.05845  23284235.240    23284234.9874   23284243.7244
       152.0004        155.0004
 -19085108.15249 -14854356.03047  20904655.007    20904655.7724   20904662.1904
       200.0004        199.0004
 21  2  2  0  3 30.0000000  0  7G08G27G09G07G21G01G04
 -22382350.11049 -17412726.22147  20476527.499    20476527.7354   20476535.0504
       208.0004        209.0004
 -11173330.24049  -8685792.77347  22811759.295    22811760.1444   22811766.1174
       200.0004        201.0004
 -19252773.71049 -14971498.97648  20781469.930    20781469.8834   20781476.4224
       213.0004        213.0004
 -11978814.07048  -9321413.93446  23011016.505    23011016.3004   23011020.3444
       177.0004        178.0004
 -13023191.74348 -10136966.32146  22210318.600    22210318.5974   22210323.3414
       168.0004        170.0004
  -8934019.96947  -6938264.68945  23269589.345    23269589.5244   23269597.4454
       153.0004        155.0004
 -19023705.38949 -14806509.72647  20916339.805    20916340.1624   20916346.6354
       200.0004        199.0004
 21  2  2  0  4  0.0000000  0  7G08G27G09G07G21G01G04
 -22337358.76249 -17377668.01047  20485089.069    20485089.2244   20485096.5164
       208.0004        208.0004
 -11075241.32049  -8609359.83547  22830424.964    22830425.7754   22830431.4074
       200.0004        199.0004
 -19259596.19449 -14976815.19448  20780170.898    20780171.6394   20780178.2904
       213.0004        214.0004
 -12053320.84348  -9379471.14646  22996837.374    22996838.4324   22996842.3984
       178.0004        180.0004
 -13063275.62748 -10168200.50946  22202691.334    22202690.1194   22202694.0714
       169.0004        171.0004
  -9011047.50047  -6998286.07445  23254930.777    23254931.7824   23254939.5854
       152.0004        155.0004
 -18961854.99249 -14758314.60947  20928109.913    20928110.2764   20928115.7824
       200.0004        198.0004
 21  2  2  0  4 30.0000000  0  7G08G27G09G07G21G01G04
 -22291852.91649 -17342208.90047  20493748.709    20493748.9964   20493756.2374
       208.0004        209.0004
 -10976907.77849  -8532736.30847  22849138.401    22849138.4454   22849144.0804
       200.0004        201.0004
 -19265850.70949 -14981688.83948  20778981.091    20778981.3254   20778988.2524
       213.0004        214.0004
 -12127886.87148  -9437574.54246  22982647.734    22982648.1664   22982652.7514
       178.0004        178.0004
 -13103102.94048 -10199234.77346  22195111.023    22195111.0544   22195115.2774
       169.0004        170.0004
  -9088136.60347  -7058355.47045  23240260.719    23240262.2464   23240270.2954
       153.0004        156.0004
 -18899558.39849 -14709771.81847  20939964.324    20939964.8844   20939971.0444
       200.0004        199.0004
 21  2  2  0  5  0.0000000  0  7G08G27G09G07G21G01G04
 -22245833.32949 -17306349.47147  20502505.535    20502505.9024   20502513.4094
       208.0004        208.0004
 -10878331.14349  -8455923.33847  22867897.467    22867897.1554   22867902.5664
       201.0004        200.0004
 -19271535.75449 -14986118.74448  20777899.725    20777899.9304   20777906.2304
       214.0004        214.0004
 -12202508.43348  -9495721.21946  22968447.951    22968448.3864   22968453.0824
       177.0004        177.0004
 -13142669.48748 -10230065.80546  22187581.900    22187582.1194   22187586.9284
       169.0004        170.0004
  -9165282.83847  -7118469.37745  23225580.306    23225581.3844   23225590.9284
       155.0004        157.0004
 -18836816.35949 -14660881.91947  20951903.627    20951904.2884   20951910.6084
       200.0004        199.0004
 21  2  2  0  5 30.0000000  0  7G08G27G09G07G21G01G04
 -22199302.05349 -17270091.32547  20511360.050    20511360.7624   20511367.8854
       208.0004        208.0004
 -10779514.84349  -8378923.63147  22886701.175    22886700.9714   22886707.2854
       201.0004        201.0004
 -19276651.89249 -14990105.34848  20776925.582    20776925.9674   20776932.5724
       213.0004        213.0004
 -12277184.81248  -9553910.60746  22954237.434    22954237.7304   22954242.6114
       178.0004        179.0004
 -13181973.03048 -10260691.91846  22180102.343    22180101.7004   22180106.9524
       168.0004        168.0004
  -9242483.97647  -7178626.05745  23210889.137    23210890.3194   23210900.1174
       156.0004        159.0004
 -18773631.70449 -14611647.12647  20963927.598    20963928.1834   20963933.8444
       200.0004        198.0004
 21  2  2  0  6  0.0000000  0  7G08G27G09G07G21G01G04
 -22152261.98649 -17233436.70347  20520311.437    20520312.2704   20520319.1034
       208.0004        208.0004
 -10680461.88749  -8301739.49747  22905548.833    22905549.4854   22905556.6444
       200.0004        200.0004
 -19281199.22049 -14993648.70648  20776059.704    20776060.3984   20776067.2024
       213.0004        213.0004
 -12351913.84948  -9612141.00746  22940017.623    22940018.0214   22940021.2624
       179.0004        180.0004
 -13221010.63048 -10291110.79646  22172673.245    22172673.5054   22172678.1114
       167.0004        167.0004
  -9319737.08147  -7238823.26245  23196190.659    23196190.8474   23196198.5954
       158.0004        160.0004
 -18710006.71849 -14562069.21147  20976035.096    20976035.6754   20976041.0144
       200.0004        199.0004
 21  2  2  0  6 30.0000000  0  7G08G27G09G07G21G01G04
 -22104715.09949 -17196387.16847  20529359.850    20529360.3104   20529367.4184
       208.0004        209.0004
 -10581175.21649  -8224373.26047  22924441.362    22924442.6144   22924449.4254
       199.0004        198.0004
 -19285177.88349 -14996748.96148  20775303.365    20775303.7454   20775309.9584
       213.0004        214.0004
 -12426693.81248  -9670411.10746  22925787.816    22925787.9414   22925791.6424
       180.0004        181.0004
 -13259780.13748 -10321320.76946  22165294.862    22165295.6954   22165301.5944
       167.0004        168.0004
  -9397039.39347  -7299058.81445  23181479.220    23181480.0914   23181487.4164
       157.0004        159.0004
 -18645943.74849 -14512150.01347  20988225.978    20988226.3744   20988232.3984
       200.0004        199.0004
 21  2  2  0  7  0.0000000  0  7G08G27G09G07G21G01G04
 -22056662.81749 -17158943.81347  20538503.391    20538503.8194   20538511.4944
       208.0004        208.0004
 -10481657.58849  -8146827.05647  22943380.153    22943380.4354   22943386.9044
       198.0004        198.0004
 -19288587.75249 -14999405.99348  20774654.816    20774654.7994   20774661.2884
       214.0004        214.0004
 -12501522.93648  -9728719.50946  22911547.092    22911548.1304   22911552.4104
       180.0004        181.0004
 -13298278.39648 -10351319.36246  22157970.281    22157969.7784   22157975.4964
       167.0004        170.0004
  -9474387.75647  -7359330.23945  23166761.761    23166761.3554   23166769.9554
       159.0004        162.0004
 -18581444.84749 -14461891.12947  21000499.635    21000499.8434   21000505.6294
       199.0004        198.0004
 21  2  2  0  7 30.0000000  0  7G08G27G09G07G21G01G04
 -22008107.24049 -17121108.28847  20547743.054    20547743.7004   20547751.1664
       207.0004        207.0004
 -10381911.46849  -8069102.80347  22962362.029    22962361.8774   22962368.0814
       198.0004        198.0004
 -19291428.51749 -15001619.57548  20774113.713    20774114.1044   20774121.1114
       214.0004        214.0004
 -12576399.04648  -9787064.52346  22897298.988    22897300.0784   22897303.3414
       180.0004        181.0004
 -13336502.19248 -10381104.09446  22150696.426    22150695.8264   22150701.3494
       168.0004        169.0004
  -9551778.81547  -7419634.93945  23152033.600    23152034.2604   23152042.3114
       160.0004        162.0004
 -18516511.95549 -14411294.06947  21012856.036    21012856.2874   21012862.1094
       199.0004        198.0004
 21  2  2  0  8  0.0000000  0  7G08G27G09G07G21G01G04
 -21959051.51949 -17082883.04747  20557078.567    20557078.7934   20557086.3914
       207.0004        208.0004
 -10281940.76149  -7991203.56047  22981386.270    22981386.0714   22981392.2734
       198.0004        199.0004
 -19293701.29449 -15003390.56748  20773681.056    20773681.5934   20773688.4574
       214.0004        215.0004
 -12651321.00548  -9845445.27246  22883041.729    22883042.2634   22883046.1334
       180.0004        181.0004
 -13374449.86448 -10410673.69046  22143475.936    22143475.3184   22143480.8284
       170.0004        171.0004
  -9629210.53547  -7479971.31746  23137298.731    23137299.0794   23137308.0844
       161.0004        163.0004
 -18451148.28149 -14360361.34847  21025293.970    21025294.6274   21025300.6174
       199.0004        197.0004
 21  2  2  0  8 30.0000000  0  7G08G27G09G07G21G01G04
 -21909497.38149 -17044269.41947  20566508.653    20566509.0054   20566515.8924
       208.0004        208.0004
 -10181747.80349  -7913131.13147  23000451.133    23000452.0094   23000458.3144
       198.0004        198.0004
 -19295405.70049 -15004718.67048  20773356.770    20773357.1744   20773364.0184
       214.0004        214.0004
 -12726286.13148  -9903859.65446  22868776.195    22868776.5684   22868780.1864
       179.0004        178.0004
 -13412117.97448 -10440025.43346  22136307.637    22136306.4794   22136311.9944
       171.0004        173.0004
  -9706679.49047  -7540336.70346  23122557.098    23122557.8844   23122565.9874
       162.0004        163.0004
 -18385355.62549 -14309094.35247  21037813.871    21037814.2494   21037819.9254
       198.0004        196.0004
 21  2  2  0  9  0.0000000  0  7G08G27G09G07G21G01G04
 -21859446.27149 -17005268.54347  20576033.319    20576033.5914   20576040.4604
       208.0004        208.0004
 -10081335.27349  -7834887.60347  23019559.419    23019559.9224   23019566.6694
       197.0004        197.0004
 -19296541.68249 -15005603.84848  20773140.515    20773140.7984   20773147.5934
       213.0004        213.0004
 -12801292.76048  -9962306.37146  22854503.784    22854503.6114   22854508.4244
       178.0004        178.0004
 -13449503.94748 -10469157.34146  22129193.658    22129193.1564   22129197.2964
       172.0004        173.0004
  -9784182.43647  -7600728.59045  23107808.066    23107808.4344   23107817.7784
       160.0004        160.0004
 -18319136.12049 -14257494.74747  21050415.231    21050415.7254   21050421.0984
       198.0004        196.0004
 21  2  2  0  9 30.0000000  0  7G08G27G09G07G21G01G04
 -21808901.77549 -16965883.20347  20585651.331    20585651.9204   20585658.9384
       208.0004        208.0004
  -9980706.77749  -7756475.79347  23038708.382    23038708.8454   23038715.2874
       195.0004        195.0004
 -19297110.17449 -15006046.81948  20773032.472    20773032.9354   20773039.5794
       213.0004        214.0004
 -12876339.60348 -10020784.42646  22840223.700    22840224.0524   22840227.6994
       179.0004        180.0004
 -13486605.48348 -10498067.60046  22122132.241    22122131.9754   22122136.7084
       172.0004        173.0004
  -9861717.14147  -7661145.23345  23093054.164    23093054.5314   23093062.6564
       159.0004        160.0004
 -18252492.80349 -14205564.88147  21063097.034    21063097.2874   21063102.8664
       197.0004        195.0004
 21  2  2  0 10  0.0000000  0  7G08G27G09G07G21G01G04
 -21757865.89049 -16926114.96847  20595362.797    20595363.2444   20595370.6464
       208.0004        207.0004
  -9879865.40449  -7677898.09947  23057899.169    23057898.2304   23057904.7774
       195.0004        194.0004
 -19297111.62349 -15006047.94648  20773032.311    20773032.7944   20773039.3914
       214.0004        214.0004
 -12951424.91248 -10079292.43646  22825933.616    22825934.4314   22825938.3874
       179.0004        179.0004
 -13523420.16748 -10526754.33146  22115125.935    22115126.0224   22115131.0494
       172.0004        173.0004
  -9939280.75547  -7721584.40345  23078293.692    23078294.9194   23078302.8994
       159.0004        162.0004
 -18185428.26849 -14153306.80147  21075858.643    21075859.4404   21075864.5574
       197.0004        195.0004
 21  2  2  0 10 30.0000000  0  7G08G27G09G07G21G01G04
 -21706341.04549 -16885965.72347  20605167.044    20605167.4694   20605175.2094
       207.0004        207.0004
  -9778814.33848  -7599157.01247  23077126.634    23077126.9274   23077134.6714
       194.0004        194.0004
 -19296546.61249 -15005607.66948  20773139.295    20773139.8304   20773146.8614
       214.0004        214.0004
 -13026546.87148 -10137829.02946  22811639.783    22811640.3044   22811642.8344
       179.0004        180.0004
 -13559945.72148 -10555215.79246  22108175.916    22108176.1154   22108181.5544
       171.0004        172.0004
 -10016870.58647  -7782044.00646  23063530.667    23063530.3244   23063537.6474
       161.0004        164.0004
 -18117945.18149 -14100722.56847  21088700.475    21088700.9594   21088706.7684
       197.0004        196.0004
 21  2  2  0 11  0.0000000  0  7G08G27G09G07G21G01G04
 -21654330.39549 -16845437.93947  20615064.413    20615064.8734   20615072.7064
       206.0004        206.0004
  -9677557.01548  -7520255.21147  23096396.110    23096395.8714   23096402.8034
       194.0004        194.0004
 -19295415.92949 -15004726.60548  20773354.895    20773355.2524   20773361.9864
       214.0004        215.0004
 -13101704.24248 -10196393.20846  22797337.041    22797337.2634   22797340.7404
       179.0004        179.0004
 -13596180.38448 -10583450.57846  22101282.161    22101281.5894   22101285.5894
       171.0004        172.0004
 -10094484.18647  -7842522.10046  23048759.944    23048761.0874   23048769.8644
       162.0004        164.0004
 -18050046.40849 -14047814.42747  21101621.468    21101621.7204   21101627.8264
       198.0004        197.0004
 21  2  2  0 11 30.0000000  0  7G08G27G09G07G21G01G04
 -21601835.67949 -16804532.95647  20625054.859    20625055.1704   20625062.0504
       206.0004        207.0004
  -9576095.85749  -7441194.56547  23115703.162    23115703.2774   23115710.4844
       195.0004        194.0004
 -19293719.41749 -15003404.65048  20773677.775    20773678.0254   20773684.8454
       214.0004        215.0004
 -13176894.49648 -10254983.01346  22783026.964    22783027.6444   22783033.3164
       177.0004        178.0004
 -13632120.38048 -10611455.75546  22094441.549    22094441.4084   22094446.7494
       170.0004        170.0004
 -10172118.07847  -7903016.02746  23033986.395    23033986.9644   23033995.4304
       162.0004        163.0004
 -17981733.91149 -13994583.90947  21114620.186    21114621.0104   21114627.7094
       198.0004        196.0004
 21  2  2  0 12  0.0000000  0  7G08G27G09G07G21G01G04
 -21548856.02649 -16763250.10447  20635136.581    20635136.8674   20635144.0574
       207.0004        208.0004
  -9474431.36848  -7361975.49847  23135049.117    23135049.4774   23135056.5554
       193.0004        193.0004
 -19291455.14349 -15001640.28048  20774108.546    20774109.0344   20774115.8254
       214.0004        215.0004
 -13252113.39748 -10313595.13746  22768714.839    22768714.7524   22768719.2554
       177.0004        178.0004
 -13667761.14948 -10639227.77446  22087659.724    22087659.3354   22087664.3654
       170.0004        172.0004
 -10249766.85847  -7963521.55345  23019211.046    23019211.1194   23019218.6554
       161.0004        162.0004
 -17913007.78649 -13941031.10647  21127698.333    21127698.8504   21127705.3784
       197.0004        196.0004
 21  2  2  0 12 30.0000000  0  7G08G27G09G07G21G01G04
 -21495396.10849 -16721593.01247  20645310.023    20645309.9384   20645316.8004
       207.0004        208.0004
  -9372568.22348  -7282601.61647  23154431.864    23154433.0424   23154440.9064
       191.0004        191.0004
 -19288625.19449 -14999435.12548  20774647.081    20774647.5224   20774654.4394
       214.0004        215.0004
 -13327360.88848 -10372229.53446  22754396.645    22754397.2624   22754399.9884
       178.0004        179.0004
 -13703101.92548 -10666766.01946  22080935.199    22080934.2694   22080939.7604
       171.0004        172.0004
 -10327429.21947  -8024037.66846  23004431.068    23004431.6934   23004439.7894
       161.0004        163.0004
 -17843872.20449 -13887159.23347  21140854.644    21140855.1214   21140861.1334
       197.0004        195.0004
 21  2  2  0 13  0.0000000  0  7G08G27G09G07G21G01G04
 -21441459.69949 -16679564.62247  20655573.228    20655573.4894   20655580.3094
       207.0004        207.0004
  -9270510.32748  -7203075.99247  23173852.982    23173852.9614   23173862.0084
       190.0004        190.0004
 -19285231.01949 -14996790.31248  20775293.008    20775293.4234   20775300.2054
       214.0004        215.0004
 -13402635.78748 -10430885.28646  22740072.191    22740071.8624   22740075.8234
       178.0004        179.0004
 -13738140.09248 -10694068.46446  22074266.608    22074266.5844   22074271.7634
       171.0004        171.0004
 -10405103.21847  -8084562.82846  22989651.316    22989651.6134   22989660.3174
       161.0004        163.0004
 -17774330.66549 -13832971.02747  21154088.257    21154088.7874   21154094.8244
       197.0004        196.0004
 21  2  2  0 13 30.0000000  0  7G08G27G09G07G21G01G04
 -21387048.93349 -16637166.60947  20665926.655    20665926.7924   20665934.3704
       206.0004        205.0004
  -9168261.08048  -7123401.24047  23193311.059    23193311.3984   23193320.0204
       190.0004        192.0004
 -19281273.57049 -14993706.58448  20776046.089    20776046.5954   20776053.2304
       214.0004        214.0004
 -13477936.62348 -10489561.24546  22725741.556    22725742.1614   22725746.0284
       177.0004        177.0004
 -13772874.93148 -10721134.55146  22067656.409    22067656.2564   22067661.9574
       170.0004        171.0004
 -10482786.24547  -8145095.01945  22974869.064    22974869.2244   22974877.4184
       161.0004        162.0004
 -17704386.13749 -13778468.80547  21167399.028    21167398.7334   21167404.5484
       197.0004        195.0004
 21  2  2  0 14  0.0000000  0  7G08G27G09G07G21G01G04
 -21332166.57149 -16594401.13547  20676370.063    20676370.5324   20676377.7524
       205.0004        205.0004
  -9065823.27048  -7043579.59247  23212804.405    23212804.0054   23212812.2464
       189.0004        188.0004
 -19276753.27949 -14990184.27448  20776905.936    20776906.4224   20776913.5064
       214.0004        215.0004
 -13553261.39848 -10548255.85946  22711407.907    22711408.5554   22711412.5224
       177.0004        178.0004
 -13807303.03148 -10747961.62246  22061106.076    22061105.3104   22061110.5704
       171.0004        172.0004
 -10560475.27947  -8205631.90145  22960084.288    22960085.3454   22960093.0264
       160.0004        162.0004
 -17634041.05049 -13723654.44847  21180784.423    21180785.1224   21180791.0204
       196.0004        195.0004
 21  2  2  0 14 30.0000000  0  7G08G27G09G07G21G01G04
 -21276813.92549 -16551269.20047  20686904.028    20686904.1264   20686911.3084
       205.0004        206.0004
  -8963199.32148  -6963612.90747  23232332.829    23232333.6294   23232341.5194
       189.0004        190.0004
 -19271670.17049 -14986223.39948  20777873.584    20777873.8624   20777880.4114
       214.0004        214.0004
 -13628607.81648 -10606967.34746  22697070.153    22697070.6154   22697074.7704
       178.0004        180.0004
 -13841421.66048 -10774547.54546  22054613.322    22054612.9014   22054617.8074
       172.0004        173.0004
 -10638166.76047  -8266170.68845  22945300.477    22945300.6434   22945308.9434
       160.0004        161.0004
 -17563297.42449 -13668529.55147  21194246.500    21194246.8554   21194252.6964
       197.0004        195.0004
 21  2  2  0 15  0.0000000  0  7G08G27G09G07G21G01G04
 -21220993.80349 -16507772.99447  20697526.784    20697526.8014   20697533.7064
       205.0004        206.0004
  -8860391.85348  -6883503.18447  23251896.640    23251896.9874   23251904.9554
       189.0004        189.0004
 -19266024.43149 -14981824.12548  20778948.315    20778948.6564   20778954.9104
       214.0004        215.0004
 -13703973.28248 -10665693.67746  22682728.207    22682729.4114   22682732.9304
       179.0004        179.0004
 -13875227.95748 -10800890.07346  22048179.976    22048180.2984   22048184.5964
       172.0004        173.0004
 -10715857.33447  -8326708.77345  22930514.940    22930516.5804   22930525.7064
       160.0004        162.0004
 -17492157.45649 -13613095.81847  21207784.078    21207784.0974   21207790.5704
       196.0004        195.0004
 21  2  2  0 15 30.0000000  0  7G08G27G09G07G21G01G04
 -21164707.88949 -16463913.83547  20708237.759    20708237.7224   20708244.5654
       206.0004        206.0004
  -8757403.56048  -6803252.58847  23271495.042    23271494.6524   23271502.1754
       188.0004        188.0004
 -19259816.51749 -14976986.78648  20780129.330    20780129.4444   20780136.3604
       214.0004        214.0004
 -13779355.65648 -10724433.19346  22668383.862    22668384.2174   22668388.5674
       179.0004        180.0004
 -13908718.86448 -10826986.87646  22041807.773    22041807.2184   22041811.2754
       173.0004        173.0004
 -10793543.76147  -8387243.62846  22915732.438    22915734.1134   22915741.4064
       161.0004        163.0004
 -17420623.52849 -13557355.10447  21221396.921    21221397.0734   21221403.4874
       196.0004        196.0004
 21  2  2  0 16  0.0000000  0  7G08G27G09G07G21G01G04
 -21107959.94149 -16419694.64047  20719036.485    20719036.6094   20719043.3044
       206.0004        206.0004
  -8654238.60248  -6722864.29547  23291125.004    23291126.7474   23291134.6964
       188.0004        189.0004
 -19253048.27949 -14971712.83448  20781417.106    20781417.6004   20781424.2704
       214.0004        214.0004
 -13854754.06948 -10783185.18246  22654035.685    22654036.5364   22654040.5174
       178.0004        179.0004
 -13941893.07248 -10852836.87946  22035494.649    22035494.8344   22035498.9254
       173.0004        174.0004
 -10871224.24347  -8447773.84646  22900951.867    22900951.8584   22900960.0524
       162.0004        163.0004
 -17348699.47449 -13501310.39247  21235082.516    21235083.4944   21235089.6144
       196.0004        194.0004
 21  2  2  0 16 30.0000000  0  7G08G27G09G07G21G01G04
 -21050752.12549 -16375117.10947  20729922.209    20729922.5634   20729929.4974
       205.0004        205.0004
  -8550899.36248  -6642340.22547  23310790.108    23310791.0894   23310799.1314
       189.0004        189.0004
 -19245719.82649 -14966002.35148  20782811.155    20782811.7474   20782818.7864
       213.0004        214.0004
 -13930166.51448 -10841948.10646  22639684.746    22639685.3044   22639689.9944
       179.0004        180.0004
 -13974747.51148 -10878437.72746  22029242.567    22029241.8504   22029247.1274
       174.0004        174.0004
 -10948895.25647  -8508296.67845  22886170.526    22886171.1624   22886179.1014
       161.0004        162.0004
 -17276387.37249 -13444963.30347  21248843.770    21248844.2544   21248849.4014
       195.0004        193.0004
 21  2  2  0 17  0.0000000  0  7G08G27G09G07G21G01G04
 -20993086.22049 -16330182.62847  20740895.248    20740895.6504   20740902.9774
       205.0004        205.0004
  -8447388.61948  -6561682.51247  23330489.230    23330489.0734   23330496.3304
       189.0004        189.0004
 -19237831.70149 -14959855.75748  20784312.732    20784313.0444   20784319.8074
       213.0004        214.0004
 -14005590.43548 -10900719.96846  22625332.067    22625332.3594   22625336.7904
       180.0004        181.0004
 -14007280.39448 -10903788.01146  22023051.658    22023050.7804   22023056.4354
       174.0004        173.0004
 -11026553.50447  -8568809.58545  22871393.221    22871393.0034   22871401.7614
       160.0004        161.0004
 -17203689.68449 -13388315.75147  21262677.570    21262677.6104   21262683.6804
       195.0004        193.0004
 21  2  2  0 17 30.0000000  0  7G08G27G09G07G21G01G04
 -20934966.79949 -16284894.78247  20751955.058    20751955.3894   20751962.4664
       204.0004        204.0004
  -8343710.47548  -6480894.34447  23350217.935    23350218.3564   23350225.6214
       188.0004        188.0004
 -19229385.88049 -14953274.60748  20785919.673    20785920.1134   20785926.7124
       213.0004        213.0004
 -14081025.03948 -10959500.20446  22610978.581    22610978.9174   22610981.5214
       181.0004        182.0004
 -14039489.89048 -10928886.31046  22016921.826    22016921.2284   22016927.1224
       174.0004        175.0004
 -11104197.26347  -8629311.19245  22856617.954    22856618.8594   22856626.0544
       159.0004        162.0004
 -17130610.27149 -13331370.77147  21276583.781    21276584.4154   21276590.6004
       195.0004        193.0004
 21  2  2  0 18  0.0000000  0  7G08G27G09G07G21G01G04
 -20876395.93349 -16239255.13847  20763101.132    20763101.2034   20763108.0874
       204.0004        204.0004
  -8239867.61548  -6399977.84847  23369978.218    23369978.6324   23369987.2694
       189.0004        190.0004
 -19220382.84849 -14946259.25048  20787633.457    20787633.5394   20787640.1474
       213.0004        214.0004
 -14156468.21748 -11018287.09346  22596621.976    22596623.0024   22596626.4414
       182.0004        182.0004
 -14071373.43348 -10953730.61546  22010855.380    22010855.4894   22010860.0354
       174.0004        175.0004
 -11181823.19347  -8689798.88746  22841848.120    22841846.8444   22841854.7334
       161.0004        163.0004
 -17057151.49548 -13274130.17047  21290563.535    21290563.7744   21290568.8404
       194.0004        193.0004
 21  2  2  0 18 30.0000000  0  7G08G27G09G07G21G01G04
 -20817376.01749 -16193265.58747  20774332.066    20774332.6894   20774339.4684
       204.0004        205.0004
  -8135863.14448  -6318935.39147  23389771.349    23389770.9254   23389778.2214
       191.0004        191.0004
 -19210823.50049 -14938810.40248  20789451.941    20789452.4194   20789459.2684
       213.0004        213.0004
 -14231917.89148 -11077079.03846  22582264.818    22582265.1924   22582269.0624
       183.0004        185.0004
 -14102928.04248 -10978318.61346  22004851.303    22004850.2284   22004855.6064
       174.0004        174.0004
 -11259428.31947  -8750270.38546  22827078.672    22827079.3994   22827086.5754
       162.0004        164.0004
 -16983316.13049 -13216596.12547  21304613.426    21304614.1434   21304619.6524
       195.0004        194.0004
 21  2  2  0 19  0.0000000  0  7G08G27G09G07G21G01G04
 -20757908.63549 -16146927.34747  20785648.774    20785648.9594   20785655.6354
       205.0004        205.0004
  -8031698.93648  -6237768.48647  23409593.221    23409592.7174   23409600.1934
       191.0004        192.0004
 -19200707.64549 -14930927.91648  20791376.909    20791377.2254   20791383.8444
       213.0004        213.0004
 -14307371.22348 -11135873.81146  22567906.133    22567906.4594   22567910.2824
       184.0004        184.0004
 -14134151.15348 -11002648.28646  21998909.593    21998908.9174   21998913.1154
       174.0004        173.0004
 -11337008.71147  -8810722.60046  22812314.076    22812314.9714   22812323.8434
       162.0004        164.0004
 -16909105.92749 -13158769.99647  21318734.776    21318734.9934   21318741.5564
       195.0004        194.0004
 21  2  2  0 19 30.0000000  0  7G08G27G09G07G21G01G04
 -20697996.17349 -16100242.30247  20797048.998    20797049.3954   20797056.8634
       205.0004        204.0004
  -7927377.43048  -6156479.00747  23429443.898    23429444.3254   23429451.8554
       191.0004        191.0004
 -19190035.66949 -14922612.09148  20793408.109    20793408.3984   20793414.9544
       213.0004        214.0004
 -14382825.48948 -11194669.33346  22553547.381    22553548.2074   22553551.8564
       184.0004        184.0004
 -14165039.12448 -11026716.80646  21993030.766    21993030.5994   21993035.2254
       173.0004        175.0004
 -11414560.73647  -8871152.70846  22797557.744    22797557.9574   22797566.5664
       163.0004        165.0004
 -16834523.03849 -13100653.47047  21332927.919    21332928.4624   21332933.8504
       195.0004        193.0004
 21  2  2  0 20  0.0000000  0  7G08G27G09G07G21G01G04
 -20637641.87349 -16053212.97247  20808534.055    20808534.4484   20808541.9184
       204.0004        204.0004
  -7822902.65548  -6075070.08947  23449325.567    23449325.5584   23449331.8404
       191.0004        190.0004
 -19178809.53949 -14913864.45648  20795544.198    20795544.4304   20795551.1324
       213.0004        214.0004
 -14458279.81748 -11253464.90446  22539189.422    22539189.4694   22539193.0914
       184.0004        184.0004
 -14195591.52448 -11050523.86646  21987216.981    21987216.0744   21987221.3434
       172.0004        172.0004
 -11492082.49247  -8931559.24546  22782805.168    22782806.7214   22782814.4624
       164.0004        166.0004
 -16759571.28148 -13042249.49747  21347190.660    21347191.0294   21347197.0064
       194.0004        192.0004
 21  2  2  0 20 30.0000000  0  7G08G27G09G07G21G01G04
 -20576848.24249 -16005841.30747  20820103.213    20820103.3424   20820110.6184
       204.0004        204.0004
  -7718276.92748  -5993543.55447  23469233.876    23469234.8144   23469241.9524
       190.0004        190.0004
 -19167029.59349 -14904685.27248  20797785.809    20797786.4154   20797793.1184
       213.0004        214.0004
 -14533731.37548 -11312258.31746  22524831.076    22524831.5894   22524835.3834
       184.0004        185.0004
 -14225805.05348 -11074066.84346  21981466.200    21981466.9814   21981472.4304
       172.0004        173.0004
 -11569570.21848  -8991939.26746  22768060.902    22768060.9954   22768068.9304
       166.0004        168.0004
 -16684252.78648 -12983559.77347  21361523.607    21361523.9964   21361529.4954
       194.0004        193.0004
 21  2  2  0 21  0.0000000  0  7G08G27G09G07G21G01G04
 -20515617.71249 -15958129.20447  20831754.572    20831754.6214   20831761.9314
       203.0004        203.0004
  -7613503.48848  -5911901.91747  23489172.899    23489173.0364   23489179.0034
       189.0004        190.0004
 -19154697.01549 -14895075.46848  20800132.555    20800133.0094   20800139.8434
       213.0004        214.0004
 -14609178.67748 -11371048.41346  22510474.100    22510474.5064   22510478.2564
       185.0004        186.0004
 -14255677.71448 -11097344.20446  21975781.972    21975782.2694   21975787.0434
       173.0004        173.0004
 -11647021.24048  -9052290.68446  22753321.839    22753322.1414   22753330.8494
       168.0004        170.0004
 -16608570.63248 -12924586.67447  21375925.168    21375925.6354   21375930.8904
       194.0004        192.0004
 21  2  2  0 21 30.0000000  0  7G08G27G09G07G21G01G04
 -20453953.25349 -15910078.95847  20843488.675    20843489.3044   20843495.8114
       203.0004        203.0004
  -7508585.10348  -5830147.33347  23509137.107    23509137.5594   23509144.5894
       189.0004        189.0004
 -19141812.69249 -14885035.73448  20802584.594    20802584.8054   20802591.3674
       214.0004        214.0004
 -14684619.59548 -11429833.53446  22496118.061    22496118.2384   22496122.1324
       185.0004        185.0004
 -14285207.19048 -11120354.16846  21970163.239    21970162.8244   21970168.1644
       173.0004        174.0004
 -11724432.35948  -9112610.99646  22738591.161    22738591.1364   22738599.4894
       167.0004        169.0004
 -16532527.43548 -12865332.22847  21390394.982    21390395.6054   21390401.5534
       193.0004        191.0004
 21  2  2  0 22  0.0000000  0  7G08G27G09G07G21G01G04
 -20391857.38849 -15861692.56447  20855306.207    20855306.2884   20855312.7624
       203.0004        204.0004
  -7403524.53848  -5748281.96147  23529130.592    23529130.1004   23529136.4664
       188.0004        188.0004
 -19128377.50749 -14874566.76248  20805141.447    20805141.5614   20805148.1644
       213.0004        214.0004
 -14760051.86948 -11488611.92446  22481764.111    22481763.7094   22481768.4814
       185.0004        185.0004
 -14314390.71048 -11143094.53746  21964609.355    21964608.9134   21964614.3454
       172.0004        172.0004
 -11801800.35948  -9172897.71246  22723869.250    22723869.2414   22723877.2234
       168.0004        169.0004
 -16456125.77448 -12805798.47747  21404934.586    21404935.2984   21404940.7844
       193.0004        193.0004
 21  2  2  0 22 30.0000000  0  7G08G27G09G07G21G01G04
 -20329333.05749 -15812972.29747  20867203.828    20867204.0054   20867211.2604
       204.0004        204.0004
  -7298325.25248  -5666308.51147  23549149.092    23549148.7234   23549155.9494
       188.0004        190.0004
 -19114392.98449 -14863669.73348  20807802.108    20807802.6674   20807809.4114
       213.0004        214.0004
 -14835473.84548 -11547382.29546  22467411.366    22467411.7534   22467414.9334
       185.0004        185.0004
 -14343226.76348 -11165564.17346  21959122.416    21959122.0794   21959127.3564
       172.0004        174.0004
 -11879122.68548  -9233148.85146  22709154.709    22709155.0604   22709163.0684
       167.0004        168.0004
 -16379369.02148 -12745988.02747  21419541.251    21419541.5194   21419547.3494
       193.0004        192.0004
 21  2  2  0 23  0.0000000  0  7G08G27G09G07G21G01G04
 -20266381.57449 -15763919.18747  20879182.816    20879183.0364   20879190.4064
       203.0004        203.0004
  -7192989.21548  -5584228.47747  23569192.536    23569193.1234   23569200.5024
       188.0004        188.0004
 -19099859.20549 -14852344.70648  20810568.261    20810568.6934   20810575.1504
       214.0004        214.0004
 -14910882.37748 -11606142.18246  22453061.643    22453062.5144   22453065.6094
       186.0004        187.0004
 -14371711.95248 -11187760.39546  21953701.744    21953701.3134   21953707.4294
       172.0004        172.0004
 -11956395.27348  -9293361.21346  22694449.922    22694450.2304   22694459.2704
       168.0004        170.0004
 -16302258.96748 -12685902.26847  21434213.882    21434214.5144   21434220.7674
       193.0004        192.0004
 21  2  2  0 23 30.0000000  0  7G08G27G09G07G21G01G04
 -20203006.34049 -15714535.88847  20891242.598    20891243.0894   20891250.0894
       202.0004        203.0004
  -7087519.23448  -5502044.08647  23589263.027    23589263.7214   23589271.0444
       189.0004        189.0004
 -19084777.21749 -14840592.50548  20813437.520    20813438.0874   20813444.9354
       213.0004        213.0004
 -14986275.16548 -11664889.81046  22438714.591    22438715.0654   22438719.0154
       186.0004        187.0004
 -14399844.12848 -11209681.54946  21948348.120    21948348.6374   21948354.2154
       173.0004        174.0004
 -12033615.00648  -9353532.40246  22679755.223    22679755.5724   22679763.5104
       169.0004        171.0004
 -16224798.36948 -12625543.35647  21448954.923    21448955.3334   21448961.3294
       193.0004        192.0004
 21  2  2  0 24  0.0000000  0  7G08G27G09G07G21G01G04
 -20139210.02649 -15664824.47047  20903382.700    20903382.8274   20903390.2474
       202.0004        202.0004
  -6981918.12848  -5419757.50646  23609357.720    23609359.1754   23609365.6424
       186.0004        185.0004
 -19069148.03449 -14828413.91948  20816412.426    20816412.6294   20816418.7564
       213.0004        213.0004
 -15061650.77048 -11723624.02247  22424371.731    22424371.5064   22424376.0984
       187.0004        188.0004
 -14427620.71948 -11231325.63346  21943062.757    21943062.8154   21943067.9054
       174.0004        175.0004
 -12110778.67148  -9413659.90646  22665071.167    22665072.0434   22665079.6134
       169.0004        170.0004
 -16146989.93648 -12564913.40547  21463761.176    21463761.7404   21463767.3094
       193.0004        191.0004
 21  2  2  0 24 30.0000000  0  7G08G27G09G07G21G01G04
 -20074995.88049 -15614787.47247  20915602.452    20915602.6664   20915609.4584
       202.0004        202.0004
  -6876189.40748  -5337371.51846  23629477.946    23629478.3324   23629486.1634
       185.0004        184.0004
 -19052973.38949 -14815810.31048  20819489.677    20819490.2934   20819497.1894
       213.0004        213.0004
 -15137006.98448 -11782343.14046  22410031.343    22410031.8874   22410036.0914
       187.0004        187.0004
 -14455040.13148 -11252691.39846  21937845.284    21937845.6484   21937850.2414
       175.0004        176.0004
 -12187883.80148  -9473741.80846  22650397.030    22650399.2104   22650406.3134
       169.0004        170.0004
 -16068837.11748 -12504015.11647  21478632.803    21478633.2604   21478639.0794
       192.0004        191.0004
 21  2  2  0 25  0.0000000  0  8G30G08G27G09G07G21G01G04
    219100.00554    203547.334 4                                  24774736.069
        74.0004        119.000
 -20010366.44749 -15564426.85547  20927900.476    20927900.4654   20927908.2114
       202.0004        201.0004
  -6770336.04148  -5254888.37646  23649622.906    23649622.3474   23649628.7104
       184.0004        183.0004
 -19036254.49149 -14802782.59548  20822671.550    20822671.9254   20822678.7264
       213.0004        213.0004
 -15212342.16048 -11841045.85546  22395694.526    22395695.7454   22395699.8334
       186.0004        185.0004
 -14482100.22048 -11273777.15646  21932696.380    21932695.0004   21932700.9854
       175.0004        175.0004
 -12264927.33548  -9533775.69046  22635737.269    22635738.0804   22635747.0644
       170.0004        172.0004
 -15990342.79348 -12442850.71247  21493570.220    21493570.2234   21493576.5254
       192.0004        191.0004
 21  2  2  0 25 30.0000000  0  8G30G08G27G09G07G21G01G04
  -1704163.78846  -1301338.54445  24334405.498                    24334412.5744
       130.0004        147.0004
 -19945324.85049 -15513745.08547  20940277.226    20940277.4954   20940285.1024
       201.0004        201.0004
  -6664361.46248  -5172310.79546  23669788.751    23669788.5904   23669795.5374
       183.0004        184.0004
 -19018993.15049 -14789332.20048  20825955.728    20825956.5954   20825963.5094
       213.0004        214.0004
 -15287654.57948 -11899730.84946  22381363.531    22381364.7194   22381368.3044
       185.0004        187.0004
 -14508799.45748 -11294581.75446  21927615.004    21927614.4494   21927619.4334
       175.0004        176.0004
 -12341906.78548  -9593759.64046  22621089.475    22621090.2534   22621098.7324
       171.0004        172.0004
 -15911510.38848 -12381422.86947  21508570.665    21508571.4304   21508577.6694
       192.0004        190.0004
 21  2  2  0 26  0.0000000  0  8G30G08G27G09G07G21G01G04
  -1787943.35747  -1366621.30745  24318463.014    24318463.4344   24318469.5254
       142.0004        148.0004
 -19879876.41849 -15462746.30447  20952731.539    20952732.1194   20952739.5464
       200.0004        201.0004
  -6558270.98548  -5089642.88146  23689977.564    23689977.2894   23689982.8704
       184.0004        184.0004
 -19001192.92749 -14775461.90048  20829344.109    20829344.4914   20829350.6804
       213.0004        214.0004
 -15362944.43048 -11958398.26146  22367037.445    22367037.2514   22367040.4994
       186.0004        187.0004
 -14535137.81948 -11315105.14546  21922603.457    21922601.8954   21922607.4814
       175.0004        176.0004
 -12418821.33348  -9653693.02946  22606453.358    22606453.3994   22606461.6994
       171.0004        171.0004
 -15832345.12848 -12319735.65147  21523635.725    21523636.4734   21523642.3774
       192.0004        190.0004
 21  2  2  0 26 30.0000000  0  8G30G08G27G09G07G21G01G04
  -1871836.22847  -1431992.38845  24302499.261    24302499.4524   24302506.0144
       144.0004        149.0004
 -19814023.60049 -15411432.41347  20965263.199    20965263.5944   20965270.7154
       201.0004        201.0004
  -6452066.83148  -5006886.42246  23710188.074    23710188.2524   23710193.4114
       185.0004        187.0004
 -18982854.48049 -14761172.20448  20832833.274    20832833.8004   20832840.2624
       213.0004        214.0004
 -15438208.89948 -12017045.89946  22352714.644    22352715.0944   22352718.9264
       186.0004        186.0004
 -14561112.60048 -11335345.22646  21917659.990    21917659.5074   21917664.6784
       176.0004        177.0004
 -12495667.36348  -9713573.00046  22591829.360    22591829.5474   22591838.4554
       170.0004        172.0004
 -15752849.30948 -12257790.85047  21538763.502    21538763.1484   21538769.7384
       191.0004        191.0004
 21  2  2  0 27  0.0000000  0  8G30G08G27G09G07G21G01G04
  -1955839.20847  -1497449.23745  24286514.482    24286513.0344   24286521.2644
       147.0004        151.0004
 -19747767.01849 -15359803.89847  20977871.090    20977871.4244   20977879.1184
       200.0004        200.0004
  -6345749.95648  -4924042.09446  23730420.361    23730419.1654   23730424.9594
       185.0004        185.0004
 -18963977.14149 -14746462.58848  20836424.736    20836425.5214   20836432.3504
       213.0004        213.0004
 -15513444.07848 -12075670.70446  22338397.069    22338397.7244   22338401.4464
       185.0004        185.0004
 -14586719.96848 -11355299.00846  21912786.454    21912786.6164   21912791.4434
       176.0004        177.0004
 -12572439.74948  -9773395.61146  22577219.412    22577220.3784   22577228.0144
       169.0004        170.0004
 -15673023.79648 -12195589.16047  21553953.796    21553954.1714   21553959.8044
       191.0004        191.0004
 21  2  2  0 27 30.0000000  0  8G30G08G27G09G07G21G01G04
  -2039949.48447  -1562989.70545  24270509.589    24270508.8954   24270515.4824
       150.0004        154.0004
 -19681108.04049 -15307861.83447  20990556.473    20990556.5904   20990564.1324
       200.0004        201.0004
  -6239321.64948  -4841110.95746  23750672.412    23750671.7994   23750677.3134
       184.0004        185.0004
 -18944560.69149 -14731332.89448  20840120.363    20840120.7004   20840127.7914
       214.0004        215.0004
 -15588645.96148 -12134269.56646  22324086.775    22324087.1114   22324091.8584
       185.0004        187.0004
 -14611956.24548 -11374963.62946  21907984.704    21907984.9114   21907988.9264
       177.0004        177.0004
 -12649133.85548  -9833157.21546  22562625.296    22562625.5084   22562633.1534
       169.0004        170.0004
 -15592870.00848 -12133131.67047  21569206.224    21569206.9044   21569213.3434
       192.0004        190.0004
 21  2  2  0 28  0.0000000  0  8G30G08G27G09G07G21G01G04
  -2124165.11747  -1628612.26145  24254482.562    24254482.4254   24254489.8434
       152.0004        154.0004
 -19614048.53049 -15255607.67347  21003317.064    21003317.4094   21003325.2124
       200.0004        200.0004
  -6132784.14748  -4758094.74246  23770942.849    23770943.9234   23770950.8094
       184.0004        183.0004
 -18924605.73449 -14715783.58548  20843918.084    20843918.3634   20843925.1714
       214.0004        215.0004
 -15663811.98748 -12192840.47746  22309783.702    22309784.2344   22309788.1284
       186.0004        187.0004
 -14636818.18048 -11394336.56046  21903254.359    21903254.1414   21903258.6504
       178.0004        178.0004
 -12725745.88548  -9892854.87746  22548046.390    22548047.2054   22548055.3704
       168.0004        169.0004
 -15512390.14648 -12070420.09547  21584521.385    21584522.1934   21584528.3554
       192.0004        191.0004
 21  2  2  0 28 30.0000000  0  8G30G08G27G09G07G21G01G04
  -2208484.76947  -1694315.87345  24238437.241    24238436.7814   24238443.7754
       151.0004        154.0004
 -19546591.13149 -15203043.46247  21016153.398    21016153.9724   21016161.4014
       199.0004        199.0004
  -6026140.16248  -4674995.53046  23791237.144    23791237.0904   23791244.7694
       183.0004        183.0004
 -18904113.53449 -14699815.63848  20847817.238    20847817.8234   20847824.2944
       214.0004        214.0004
 -15738939.88048 -12251381.68946  22295487.996    22295487.6604   22295491.5214
       187.0004        187.0004
 -14661303.88748 -11413416.30046  21898594.818    21898594.8514   21898599.0134
       178.0004        180.0004
 -12802272.59748  -9952486.05546  22533484.969    22533484.9444   22533492.9304
       169.0004        171.0004
 -15431586.95548 -12007456.56947  21599897.126    21599897.8554   21599904.3744
       191.0004        190.0004
 21  2  2  0 29  0.0000000  0  8G30G08G27G09G07G21G01G04
  -2292907.99747  -1760100.18245  24222371.569    24222371.3744   24222378.0514
       151.0004        155.0004
 -19478740.13049 -15150172.54547  21029065.046    21029065.3824   21029072.9574
       199.0004        199.0004
  -5919393.52948  -4591816.35646  23811548.670    23811550.2954   23811557.6954
       181.0004        180.0004
 -18883086.30949 -14683430.79648  20851818.655    20851819.0564   20851825.5014
       213.0004        213.0004
 -15814028.20948 -12309892.07746  22281198.183    22281199.0014   22281203.1414
       186.0004        186.0004
 -14685411.98448 -11432201.81746  21894006.962    21894007.2584   21894011.2834
       179.0004        179.0004
 -12878711.67748 -10012048.94946  22518938.353    22518939.6684   22518947.0804
       170.0004        171.0004
 -15350464.26848 -11944244.09547  21615334.116    21615335.2494   21615341.0244
       191.0004        189.0004
 21  2  2  0 29 30.0000000  0  8G30G08G27G09G07G21G01G04
  -2377433.74047  -1825964.37545  24206287.199    24206287.2124   24206293.9464
       153.0004        157.0004
 -19410498.42149 -15096997.18647  21042051.228    21042051.4854   21042058.8154
       199.0004        199.0004
  -5812547.21748  -4508559.46946  23831881.110    23831882.3634   23831889.8924
       179.0004        180.0004
 -18861525.73849 -14666630.34648  20855921.250    20855921.7114   20855928.2404
       213.0004        213.0004
 -15889074.90248 -12368370.00246  22266917.573    22266918.2724   22266922.0544
       187.0004        187.0004
 -14709140.66248 -11450691.66646  21889491.951    21889491.4034   21889495.9244
       178.0004        179.0004
 -12955060.25348 -10071541.30246  22504409.624    22504409.1874   22504418.8584
       169.0004        170.0004
 -15269025.19048 -11880785.07047  21630832.497    21630832.6984   21630838.5234
       191.0004        190.0004
 21  2  2  0 30  0.0000000  0  8G30G08G27G09G07G21G01G04
  -2462060.53147  -1891907.32645  24190181.638    24190182.9614   24190191.1104
       155.0004        158.0004
 -19341868.46149 -15043519.29047  21055110.863    21055111.4164   21055118.7884
       199.0004        199.0004
  -5705603.91048  -4425227.05346  23852233.438    23852234.4224   23852238.8714
       179.0004        180.0004
 -18839433.08349 -14649415.29648  20860125.526    20860125.8594   20860132.1374
       213.0004        213.0004
 -15964077.64548 -12426813.71146  22252645.622    22252645.1864   22252649.2824
       187.0004        187.0004
 -14732487.73648 -11468884.18046  21885048.018    21885048.2904   21885053.1694
       178.0004        178.0004
 -13031315.06748 -10130960.59946  22489898.622    22489898.2614   22489907.4264
       169.0004        171.0004
 -15187272.49648 -11817081.68047  21646389.255    21646389.4744   21646395.3604
       190.0004        189.0004
 21  2  2  0 30 30.0000000  0  8G30G08G27G09G07G21G01G04
  -2546787.76947  -1957928.53145  24174059.145    24174059.9834   24174068.0824
       156.0004        158.0004
 -19272853.81649 -14989741.63247  21068244.000    21068244.4224   21068251.9214
       198.0004        198.0004
  -5598567.15048  -4341821.76846  23872602.085    23872601.9914   23872609.2974
       179.0004        180.0004
 -18816810.45149 -14631787.27748  20864430.604    20864431.0354   20864437.5594
       213.0004        214.0004
 -16039034.94548 -12485221.98046  22238380.553    22238381.1844   22238385.1294
       186.0004        186.0004
 -14755451.78548 -11486778.23546  21880678.325    21880677.9564   21880683.6664
       178.0004        178.0004
 -13107473.53748 -10190304.85046  22475406.357    22475407.0544   22475415.3444
       170.0004        172.0004
 -15105209.83848 -11753136.75347  21662005.593    21662005.7524   21662011.9864
       191.0004        191.0004
 21  2  2  0 31  0.0000000  0  8G30G08G27G09G07G21G01G04
  -2631613.79247  -2024026.71945  24157918.400    24157918.1014   24157925.4464
       156.0004        159.0004
 -19203457.33949 -14935666.45447  21081449.383    21081449.9224   21081458.1564
       198.0004        198.0004
  -5491439.49848  -4258345.69046  23892987.138    23892987.7704   23892994.5644
       181.0004        182.0004
 -18793658.97849 -14613747.17748  20868836.017    20868836.4374   20868842.9824
       213.0004        214.0004
 -16113944.39848 -12543592.96946  22224125.449    22224126.1694   22224130.0264
       186.0004        187.0004
 -14778030.72048 -11504372.21446  21876381.862    21876381.6884   21876387.1184
       178.0004        178.0004
 -13183532.22248 -10249571.32646  22460933.646    22460934.2904   22460940.9794
       171.0004        173.0004
 -15022839.75948 -11688952.28447  21677679.535    21677679.8824   21677686.3264
       191.0004        191.0004
 21  2  2  0 31 30.0000000  0  8G30G08G27G09G07G21G01G04
  -2716538.17747  -2090201.55145  24141758.076    24141757.6234   24141764.7874
       157.0004        159.0004
 -19133682.39649 -14881296.37647  21094727.352    21094727.1154   21094735.8554
       197.0004        197.0004
  -5384224.73648  -4174801.73646  23913388.542    23913389.4004   23913397.7794
       180.0004        179.0004
 -18769981.17049 -14595296.94348  20873341.412    20873342.0924   20873349.0874
       213.0004        213.0004
 -16188804.26148 -12601925.32847  22209880.000    22209880.9024   22209884.7034
       187.0004        188.0004
 -14800223.27448 -11521665.11746  21872158.693    21872158.9344   21872164.1794
       178.0004        179.0004
 -13259488.97548 -10308758.37946  22446477.753    22446479.1624   22446486.8654
       170.0004        170.0004
 -14940166.26048 -11624531.37747  21693411.341    21693412.2424   21693418.3744
       191.0004        189.0004
 21  2  2  0 32  0.0000000  0  8G30G08G27G09G07G21G01G04
  -2801558.11147  -2156450.85145  24125578.565    24125578.8584   24125585.7904
       157.0004        159.0004
 -19063530.55149 -14826632.58747  21108076.871    21108077.1614   21108085.2354
       197.0004        197.0004
  -5276924.07248  -4091190.81646  23933808.908    23933808.2354   23933816.2814
       178.0004        179.0004
 -18745776.99949 -14576436.54648  20877947.886    20877948.0754   20877955.0414
       213.0004        213.0004
 -16263611.40148 -12660216.59847  22195645.502    22195645.8584   22195649.6944
       188.0004        189.0004
 -14822025.96648 -11538654.20446  21868011.310    21868010.2554   21868015.0434
       179.0004        180.0004
 -13335339.10748 -10367862.35946  22432044.938    22432045.7584   22432053.1794
       169.0004        171.0004
 -14857190.71248 -11559875.09747  21709201.934    21709202.0654   21709207.4614
       190.0004        189.0004
 21  2  2  0 32 30.0000000  0  8G30G08G27G09G07G21G01G04
  -2886672.99447  -2222774.13045  24109380.972    24109382.0714   24109388.8514
       156.0004        157.0004
 -18993005.56349 -14771678.05047  21121497.374    21121497.8594   21121505.3614
       197.0004        198.0004
  -5169541.12148  -4007515.81246  23954244.330    23954243.6134   23954249.3644
       177.0004        177.0004
 -18721048.81649 -14557167.83848  20882653.303    20882653.6864   20882660.4934
       213.0004        213.0004
 -16338364.07548 -12718465.43347  22181420.451    22181420.8384   22181425.1824
       189.0004        189.0004
 -14843437.54148 -11555338.53846  21863935.785    21863935.0824   21863940.3304
       179.0004        179.0004
 -13411080.17748 -10426881.34146  22417632.747    22417632.6824   22417639.6734
       171.0004        172.0004
 -14773916.84048 -11494986.38047  21725047.856    21725048.4844   21725054.8904
       189.0004        188.0004
 21  2  2  0 33  0.0000000  0  8G30G08G27G09G07G21G01G04
  -2971881.88347  -2289170.65945  24093167.994    24093167.5174   24093173.4674
       156.0004        158.0004
 -18922110.83349 -14716435.40447  21134988.386    21134988.8304   21134996.4154
       197.0004        197.0004
  -5062079.11148  -3923779.18046  23974691.699    23974692.0434   23974699.2454
       177.0004        177.0004
 -18695798.58149 -14537492.33248  20887458.915    20887458.9224   20887465.2784
       213.0004        213.0004
 -16413060.32248 -12776670.30247  22167206.446    22167207.2844   22167210.4554
       188.0004        189.0004
 -14864456.35848 -11571716.81646  21859934.934    21859934.5574   21859940.0264
       177.0004        177.0004
 -13486709.40848 -10485813.18246  22403239.719    22403240.9214   22403248.6914
       171.0004        172.0004
 -14690348.05248 -11429867.84147  21740951.361    21740951.5054   21740956.9174
       190.0004        189.0004
 21  2  2  0 33 30.0000000  0  8G30G08G27G09G07G21G01G04
  -3057182.32347  -2355638.51245  24076935.421    24076934.8784   24076942.4264
       156.0004        159.0004
 -18850847.73749 -14660905.71547  21148549.828    21148549.6144   21148557.4124
       197.0004        196.0004
  -4954539.78648  -3839982.33946  23995155.508    23995156.4014   23995162.8804
       175.0004        175.0004
 -18670026.84349 -14517410.46548  20892362.974    20892363.1194   20892369.5334
