     2.11           OBSERVATION DATA    G (GPS)             RINEX VERSION / TYPE
teqc  2018Jun8                          20210202 03:10:35UTCPGM / RUN BY / DATE
Linux2.6.32-573.12.1.el6.x86_64|x86_64|gcc|Win64-MinGW64|=+ COMMENT
BIT 2 OF LLI FLAGS DATA COLLECTED UNDER A/S CONDITION       COMMENT
-Unknown-                                                   MARKER NAME
CRNO                                                        MARKER NUMBER
-Unknown-           -Unknown-                               OBSERVER / AGENCY
-Unknown-           ASHTECH             -Unknown-           REC # / TYPE / VERS
-Unknown-           -Unknown-                               ANT # / TYPE
   408078.8839 -6158372.2308  1605163.4997                  APPROX POSITION XYZ
        0.0000        0.0000        0.0000                  ANTENNA: DELTA H/E/N
     1     1                                                WAVELENGTH FACT L1/2
     7    L1    L2    C1    P1    P2    S1    S2            # / TYPES OF OBSERV
    30.0000                                                 INTERVAL
Forced Modulo Decimation to 30 seconds                      COMMENT
 SNR is mapped to RINEX snr flag value [1-9]                COMMENT
  L1: 1 -> 1;  90 -> 5; 210 -> 9                            COMMENT
  L2: 1 -> 1; 150 -> 5; 250 -> 9                            COMMENT
pseudorange smoothing corrections not applied               COMMENT
  2021     2     4     0     0   30.0000000     GPS         TIME OF FIRST OBS
                                                            END OF HEADER
 21  2  4  0  0 30.0000000  0  9G08G07G16G04G22G27G21G09G03
 -23254997.49949 -17775352.40647  20180813.763    20180814.1034   20180821.6144
       212.0004        212.0004
  -2061196.83047  -1591967.04845  24398053.458    24398054.0494   24398057.9394
       159.0004        162.0004
  -7330649.22047  -5691638.95145  23586009.077    23586010.7194   23586016.4004
       139.0004        143.0004
 -22637278.66449 -17627640.48448  20223744.841    20223745.3404   20223750.8274
       217.0004        216.0004
  -2242307.16447  -1404713.41045  24432309.232    24432309.1124   24432316.1504
       144.0004        148.0004
 -22792972.73849 -17702001.13148  21234935.191    21234935.5804   21234942.5334
       213.0004        216.0004
  -7929991.90847  -6153710.47245  23171735.482    23171736.7354   23171742.4494
       150.0004        153.0004
 -15263189.59149 -11872906.91847  21516155.403    21516156.0594   21516163.2334
       198.0004        199.0004
  -3980463.86848  -2749748.02546  23706052.458    23706052.6484   23706059.7234
       165.0004        171.0004
 21  2  4  0  1  0.0000000  0  9G08G07G16G04G22G27G21G09G03
 -23269835.28549 -17786914.30047  20177990.033    20177990.4004   20177998.0854
       212.0004        212.0004
  -2122944.55047  -1640082.11845  24386303.396    24386303.0354   24386307.8924
       159.0004        160.0004
  -7246216.60947  -5625847.34945  23602077.510    23602077.1994   23602083.5854
       138.0004        144.0004
 -22631867.38649 -17623423.90548  20224774.745    20224775.0814   20224780.6404
       217.0004        216.0004
  -2189352.84347  -1363450.33345  24442386.965    24442385.3334   24442391.6084
       144.0004        149.0004
 -22736395.53749 -17657914.98848  21245701.132    21245701.8244   21245708.8674
       217.0004        216.0004
  -7981818.57147  -6194094.75845  23161874.252    23161874.4654   23161881.1934
       150.0004        153.0004
 -15325652.85849 -11921579.58547  21504270.494    21504270.8004   21504276.9354
       199.0004        201.0004
  -3917162.00148  -2700421.88746  23718096.278    23718097.9934   23718106.9114
       170.0004        173.0004
 21  2  4  0  1 30.0000000  0  9G08G07G16G04G22G27G21G09G03
 -23284068.42449 -17798005.03648  20175281.431    20175282.0534   20175289.8434
       212.0004        213.0004
  -2184858.78247  -1688326.96345  24374521.552    24374521.9994   24374526.3814
       157.0004        158.0004
  -7161877.43647  -5560128.50645  23618128.203    23618127.6824   23618130.9974
       139.0004        143.0004
 -22625883.06249 -17618760.79448  20225913.010    20225913.6514   20225919.2344
       217.0004        215.0004
  -2136604.09547  -1322347.44745  24452425.178    24452423.7174   24452429.0804
       142.0004        147.0004
 -22679287.47449 -17613415.17348  21256569.076    21256569.0334   21256575.9934
       225.0004        229.0004
  -8033663.36447  -6234493.21045  23152011.139    23152009.5704   23152014.4784
       152.0004        156.0004
 -15387674.73649 -11969908.30647  21492468.427    21492468.6524   21492474.2594
       200.0004        201.0004
  -3853945.48748  -2651162.29346  23730127.234    23730127.7454   23730136.9374
       181.0004        187.0004
 21  2  4  0  2  0.0000000  0  9G08G07G16G04G22G27G21G09G03
 -23297696.09049 -17808623.98348  20172688.649    20172689.0524   20172696.4544
       212.0004        213.0004
  -2246938.53547  -1736700.78245  24362707.685    24362707.8484   24362712.4764
       156.0004        158.0004
  -7077632.34647  -5494482.98945  23634158.833    23634157.9484   23634162.0654
       139.0004        145.0004
 -22619325.05249 -17613650.65648  20227160.967    20227161.4464   20227167.1764
       216.0004        215.0004
  -2084062.02047  -1281405.58045  24462423.742    24462424.2824   24462428.7614
       143.0004        149.0004
 -22621650.17749 -17568502.97848  21267536.824    21267537.2494   21267543.9004
       228.0004        229.0004
  -8085523.76747  -6274903.81845  23142141.253    23142140.3834   23142145.0924
       153.0004        155.0004
 -15449252.49849 -12017890.96547  21480750.022    21480750.2854   21480756.5764
       201.0004        201.0004
  -3790816.32948  -2601970.73246  23742140.909    23742141.5664   23742149.6214
       184.0004        185.0004
 21  2  4  0  2 30.0000000  0  9G08G07G16G04G22G27G21G09G03
 -23310718.50049 -17818771.29648  20170210.614    20170210.8454   20170218.6634
       212.0004        213.0004
  -2309184.48847  -1785204.10445  24350862.477    24350863.4344   24350868.3164
       157.0004        162.0004
  -6993484.24847  -5428913.03245  23650171.710    23650172.1264   23650175.7624
       139.0004        143.0004
 -22612194.35949 -17608094.27148  20228518.233    20228518.8494   20228524.2654
       216.0004        215.0004
  -2031729.21347  -1240626.79045  24472381.104    24472380.6144   24472386.4594
       143.0004        148.0004
 -22563486.82549 -17523180.86448  21278605.934    21278605.4814   21278612.2704
       229.0004        229.0004
  -8137397.79247  -6315325.02545  23132268.109    23132268.3114   23132272.7894
       152.0004        154.0004
 -15510385.06149 -12065526.71847  21469116.600    21469117.1154   21469123.9094
       201.0004        202.0004
  -3727778.04848  -2552850.02346  23754136.295    23754137.1104   23754145.3854
       184.0004        185.0004
 21  2  4  0  3  0.0000000  0 10G08G07G16G04G22G27G01G21G09G03
 -23323132.92249 -17828444.86948  20167847.817    20167848.5534   20167856.1174
       212.0004        213.0004
  -2371593.86647  -1833834.77746  24338987.650    24338988.0704   24338991.7904
       161.0004        164.0004
  -6909432.38947  -5363418.07145  23666164.339    23666165.4194   23666171.3724
       140.0004        145.0004
 -22604488.85349 -17602089.99648  20229984.532    20229984.8914   20229990.5994
       216.0004        215.0004
  -1979605.08447  -1200010.64045  24482301.213    24482300.0284   24482303.6304
       142.0004        146.0004
 -22504797.45949 -17477448.88548  21289772.419    21289773.3074   21289781.0734
       230.0004        229.0004
  -2257344.07647  -1748569.66545  24578936.946    24578936.9294   24578946.7464
       137.0004        142.0004
  -8189281.27947  -6355753.62945  23122394.647    23122395.7654   23122400.8054
       152.0004        153.0004
 -15571068.12649 -12112812.22047  21457569.650    21457569.6814   21457576.2424
       202.0004        202.0004
  -3664830.95348  -2503800.36646  23766113.132    23766114.3644   23766123.5364
       184.0004        184.0004
 21  2  4  0  3 30.0000000  0 10G08G07G16G04G22G27G01G21G09G03
 -23334939.73549 -17837644.95948  20165601.597    20165601.9954   20165609.5174
       213.0004        213.0004
  -2434166.91847  -1882592.94745  24327077.930    24327079.0874   24327084.1174
       161.0004        162.0004
  -6825478.53347  -5297999.46845  23682143.788    23682142.2074   23682147.2364
       141.0004        145.0004
 -22596208.58549 -17595637.83648  20231559.895    20231560.7544   20231566.1624
       216.0004        215.0004
  -1927691.37247  -1159558.40145  24492178.848    24492179.0564   24492184.9964
       142.0004        146.0004
 -22445584.36249 -17431308.78848  21301041.546    21301041.5784   21301048.3194
       229.0004        229.0004
  -2316656.88347  -1794787.38345  24567647.673    24567650.4414   24567660.6214
       135.0004        140.0004
  -8241171.74247  -6396187.66045  23112520.699    23112520.9604   23112525.3664
       151.0004        153.0004
 -15631299.58349 -12159745.80647  21446107.487    21446107.9524   21446114.5864
       202.0004        202.0004
  -3601977.56848  -2454823.69047  23778075.811    23778076.8784   23778084.3784
       186.0004        188.0004
 21  2  4  0  4  0.0000000  0 10G08G07G16G04G22G27G01G21G09G03
 -23346138.15949 -17846370.98748  20163470.645    20163470.7924   20163478.3054
       213.0004        214.0004
  -2496902.99747  -1931478.20045  24315140.938    24315141.0574   24315145.5734
       159.0004        161.0004
  -6741624.32947  -5232658.52645  23698099.176    23698099.1694   23698103.9394
       140.0004        144.0004
 -22587353.76649 -17588737.97348  20233244.909    20233245.3814   20233251.3924
       216.0004        215.0004
  -1875988.97447  -1119270.85045  24502019.601    24502017.9094   24502022.4964
       142.0004        147.0004
 -22385849.91249 -17384762.45048  21312408.557    21312408.8184   21312415.5054
       229.0004        229.0004
  -2376244.45947  -1841219.18645  24556309.812    24556311.1654   24556321.4904
       135.0004        141.0004
  -8293066.88147  -6436625.35045  23102645.418    23102645.3294   23102651.2154
       150.0004        153.0004
 -15691077.53649 -12206326.00847  21434731.839    21434732.2944   21434739.3194
       202.0004        202.0004
  -3539220.46748  -2405922.07247  23790018.927    23790019.0214   23790026.7814
       188.0004        190.0004
 21  2  4  0  4 30.0000000  0 10G08G07G16G04G22G27G01G21G09G03
 -23356727.92049 -17854622.73448  20161454.987    20161455.6694   20161462.9294
       213.0004        213.0004
  -2559802.07047  -1980490.44645  24303171.707    24303171.7014   24303177.1764
       160.0004        162.0004
  -6657871.48447  -5167396.54245  23714035.310    23714035.6434   23714040.8634
       137.0004        142.0004
 -22577924.68149 -17581390.63848  20235039.217    20235039.8964   20235045.7994
       216.0004        215.0004
  -1824500.22247  -1079149.73745  24511816.729    24511816.2064   24511822.7434
       142.0004        146.0004
 -22325596.57449 -17337811.78548  21323874.636    21323874.7074   21323881.0904
       230.0004        229.0004
  -2436105.50447  -1887864.07945  24544921.242    24544921.3514   24544929.2854
       136.0004        142.0004
  -8344964.52947  -6477065.00045  23092771.110    23092770.0904   23092774.1224
       151.0004        154.0004
 -15750400.03649 -12252551.32047  21423442.990    21423443.5374   21423450.2704
       202.0004        203.0004
  -3476562.35848  -2357097.58047  23801940.525    23801941.6694   23801950.8944
       188.0004        189.0004
 21  2  4  0  5  0.0000000  0 10G08G07G16G04G22G27G01G21G09G03
 -23366709.53349 -17862400.59748  20159556.033    20159556.2054   20159564.0834
       213.0004        214.0004
  -2622864.22547  -2029629.75645  24291171.435    24291171.2654   24291175.9294
       158.0004        159.0004
  -6574221.40947  -5102214.64645  23729955.819    23729954.1074   23729959.3974
       136.0004        141.0004
 -22567921.83849 -17573596.22248  20236942.908    20236943.4924   20236948.8124
       216.0004        214.0004
  -1773227.38747  -1039196.88045  24521572.628    24521572.7344   24521579.5934
       142.0004        147.0004
 -22264826.99049 -17290458.85148  21335438.808    21335438.9514   21335445.1054
       229.0004        229.0004
  -2496238.95547  -1934721.24645  24533477.673    24533477.4344   24533485.3314
       136.0004        142.0004
  -8396862.60347  -6517504.97145  23082893.690    23082893.0224   23082899.1944
       151.0004        155.0004
 -15809265.42649 -12298420.44047  21412241.545    21412241.6794   21412248.1304
       202.0004        202.0004
  -3414006.02248  -2308352.42446  23813845.087    23813845.5744   23813854.2044
       187.0004        187.0004
 21  2  4  0  5 30.0000000  0 10G08G07G16G04G22G27G01G21G09G03
 -23376081.65849 -17869703.54248  20157772.067    20157772.7114   20157780.2174
       213.0004        213.0004
  -2686088.24647  -2078895.19345  24279140.623    24279140.8384   24279145.2404
       158.0004        161.0004
  -6490675.09047  -5037113.62045  23745852.571    23745851.8424   23745858.2864
       136.0004        142.0004
 -22557344.43749 -17565354.09248  20238955.909    20238956.3474   20238961.6554
       216.0004        215.0004
  -1722170.64147   -999412.43945  24531289.824    24531288.6674   24531293.5744
       141.0004        144.0004
 -22203542.56949 -17242704.74148  21347100.108    21347100.6284   21347107.4034
       229.0004        229.0004
  -2556642.40446  -1981788.78445  24521980.569    24521982.6144   24521991.5634
       134.0004        139.0004
  -8448757.52647  -6557942.49845  23073017.330    23073017.4914   23073025.0674
       152.0004        156.0004
 -15867670.72249 -12343931.05047  21401127.889    21401127.9374   21401134.0914
       202.0004        203.0004
  -3351553.01348  -2259687.74947  23825730.376    23825730.7754   23825739.0074
       187.0004        188.0004
 21  2  4  0  6  0.0000000  0 10G08G07G16G04G22G27G01G21G09G03
 -23384844.45449 -17876531.68248  20156104.800    20156105.1004   20156112.5194
       213.0004        213.0004
  -2749473.72947  -2128286.45545  24267078.167    24267078.4634   24267083.1804
       158.0004        159.0004
  -6407234.58847  -4972095.04445  23761731.382    23761730.7374   23761735.3714
       136.0004        141.0004
 -22546192.96649 -17556664.63948  20241078.199    20241078.6514   20241083.8454
       216.0004        215.0004
  -1671331.69347   -959797.69145  24540963.631    24540963.3924   24540967.7844
       142.0004        147.0004
 -22141745.94049 -17194551.51148  21358860.064    21358860.2044   21358866.8374
       229.0004        229.0004
  -2617314.55346  -2029065.75545  24510435.026    24510436.5164   24510447.4474
       132.0004        138.0004
  -8500647.59247  -6598376.25445  23063143.733    23063144.0024   23063151.1734
       153.0004        156.0004
 -15925614.17749 -12389081.78947  21390101.458    21390101.5174   21390108.3004
       202.0004        203.0004
  -3289206.02248  -2211105.71747  23837594.317    23837595.0874   23837603.4154
       189.0004        190.0004
 21  2  4  0  6 30.0000000  0 10G08G07G16G04G22G27G01G21G09G03
 -23392996.96049 -17882884.26248  20154553.446    20154553.7964   20154561.1104
       213.0004        213.0004
  -2813019.89847  -2177802.91745  24254985.064    24254985.5424   24254989.6214
       157.0004        159.0004
  -6323900.57947  -4907159.42945  23777590.008    23777589.1804   23777594.4484
       137.0004        144.0004
 -22534467.18449 -17547527.65948  20243308.748    20243309.1604   20243315.0094
       216.0004        214.0004
  -1620712.13447   -920353.86445  24550597.509    24550596.9544   24550600.0744
       142.0004        147.0004
 -22079438.95749 -17146000.59448  21370716.657    21370716.8814   21370723.3774
       229.0004        228.0004
  -2678253.39946  -2076550.48945  24498841.060    24498840.4424   24498849.1874
       133.0004        140.0004
  -8552529.93847  -6638803.97345  23053271.065    23053271.4314   23053276.3154
       153.0004        156.0004
 -15983093.37249 -12433870.75347  21379162.507    21379162.8404   21379170.1214
       202.0004        202.0004
  -3226967.07648  -2162607.85047  23849437.655    23849438.1414   23849446.7884
       189.0004        189.0004
 21  2  4  0  7  0.0000000  0 10G08G07G16G04G22G27G01G21G09G03
 -23400539.40449 -17888761.47448  20153117.795    20153118.4864   20153125.8354
       213.0004        214.0004
  -2876726.79447  -2227444.61045  24242863.511    24242863.5524   24242866.8024
       156.0004        158.0004
  -6240675.01847  -4842308.34945  23793426.266    23793426.4584   23793430.0374
       139.0004        145.0004
 -22522167.73549 -17537943.67348  20245649.564    20245650.0394   20245655.3804
       215.0004        214.0004
  -1570313.67147   -881082.38945  24560184.699    24560184.4154   24560190.7154
       139.0004        143.0004
 -22016624.42349 -17097054.19048  21382669.619    21382669.7854   21382676.6784
       228.0004        228.0004
  -2739457.93147  -2124242.25045  24487192.764    24487194.1694   24487203.1674
       135.0004        141.0004
  -8604402.20747  -6679223.85445  23043400.602    23043399.1864   23043405.5104
       153.0004        156.0004
 -16040106.65449 -12478296.66547  21368313.056    21368313.8544   21368320.7234
       201.0004        202.0004
  -3164839.02348  -2114196.37347  23861260.489    23861261.1464   23861269.6224
       188.0004        188.0004
 21  2  4  0  7 30.0000000  0 10G08G07G16G04G22G27G01G21G09G03
 -23407471.29749 -17894162.93848  20151798.972    20151799.3144   20151806.5514
       213.0004        213.0004
  -2940593.49447  -2277210.84545  24230709.952    24230710.2414   24230714.2364
       157.0004        159.0004
  -6157558.91147  -4777542.54545  23809243.880    23809242.4834   23809246.4844
       138.0004        143.0004
 -22509294.46249 -17527912.56348  20248099.672    20248099.9924   20248105.2124
       215.0004        214.0004
  -1520137.09747   -841983.78345  24569732.594    24569732.4984   24569738.2914
       135.0004        139.0004
 -21953304.36049 -17047713.88148  21394717.660    21394719.1464   21394726.3664
       228.0004        228.0004
  -2800926.20547  -2172139.52445  24475495.613    24475497.0574   24475506.6914
       136.0004        141.0004
  -8656261.48247  -6719633.62645  23033531.281    23033530.6684   23033535.5094
       151.0004        153.0004
 -16096651.67849 -12522357.71947  21357553.905    21357554.3704   21357560.1774
       202.0004        203.0004
  -3102823.79048  -2065872.86346  23873061.411    23873061.7644   23873070.8484
       187.0004        187.0004
 21  2  4  0  8  0.0000000  0 10G08G07G16G04G22G27G01G21G09G03
 -23413792.54949 -17899088.57148  20150596.229    20150596.5994   20150603.7994
       213.0004        214.0004
  -3004619.20647  -2327100.99245  24218525.157    24218524.9494   24218530.0024
       157.0004        158.0004
  -6074553.34347  -4712862.87045  23825040.424    23825039.4004   23825042.6304
       141.0004        146.0004
 -22495847.32849 -17517434.27048  20250658.080    20250658.6644   20250664.3314
       215.0004        214.0004
  -1470183.62247   -803059.06345  24579240.711    24579239.9534   24579245.3584
       135.0004        141.0004
 -21889480.75249 -16997981.18248  21406864.579    21406864.6554   21406871.4714
       228.0004        228.0004
  -2862656.24247  -2220240.79545  24463749.873    24463749.9814   24463759.9044
       139.0004        145.0004
  -8708105.06447  -6760031.16945  23023665.256    23023665.1604   23023671.1424
       151.0004        154.0004
 -16152726.13749 -12566052.08947  21346883.421    21346883.7024   21346889.8974
       203.0004        204.0004
  -3040923.50248  -2017638.88946  23884840.741    23884841.3824   23884849.1884
       185.0004        185.0004
 21  2  4  0  8 30.0000000  0 10G08G07G16G04G22G27G01G21G09G03
 -23419503.67149 -17903538.77948  20149509.128    20149509.6044   20149517.0584
       213.0004        214.0004
  -3068804.58647  -2377115.56045  24206312.026    24206312.2754   24206316.4894
       156.0004        158.0004
  -5991660.90147  -4648271.38445  23840813.236    23840813.7644   23840817.9604
       143.0004        147.0004
 -22481827.76949 -17506509.93648  20253326.147    20253326.4684   20253332.1314
       215.0004        214.0004
  -1420456.09547   -764310.34845  24588705.123    24588704.0624   24588707.7914
       136.0004        142.0004
 -21825157.17649 -16947858.91048  21419104.822    21419105.0734   21419111.5954
       228.0004        227.0004
  -2924647.59547  -2268545.69845  24451951.833    24451952.7364   24451961.8744
       137.0004        141.0004
  -8759931.81247  -6800415.58345  23013804.241    23013804.1944   23013808.7204
       151.0004        153.0004
 -16208329.20549 -12609379.14647  21336302.321    21336302.9164   21336309.2554
       204.0004        204.0004
  -2979141.65148  -1969497.17246  23896596.866    23896597.6594   23896606.2824
       183.0004        183.0004
 21  2  4  0  9  0.0000000  0 10G08G07G16G04G22G27G01G21G09G03
 -23424603.98949 -17907513.03648  20148538.588    20148539.1204   20148546.4424
       213.0004        214.0004
  -3133148.54947  -2427253.67645  24194067.041    24194068.2484   24194073.4484
       156.0004        158.0004
  -5908881.94547  -4583768.29845  23856562.656    23856563.2554   23856569.3854
       142.0004        145.0004
 -22467235.12949 -17495139.04648  20256102.970    20256103.4114   20256108.9834
       215.0004        214.0004
  -1370954.78547   -725737.91445  24598123.545    24598121.5794   24598127.3624
       137.0004        143.0004
 -21760335.09449 -16897348.18648  21431440.738    21431440.4304   21431446.8404
       228.0004        227.0004
  -2986897.66147  -2317052.20345  24440102.706    24440106.0764   24440116.8104
       135.0004        139.0004
  -8811737.94847  -6840783.92945  23003946.037    23003945.6844   23003951.8744
       151.0004        154.0004
 -16263457.93149 -12652336.58347  21325811.542    21325811.9954   21325818.4574
       204.0004        204.0004
  -2917479.62548  -1921448.83846  23908331.497    23908332.3314   23908340.0854
       182.0004        183.0004
 21  2  4  0  9 30.0000000  0 10G08G07G16G04G22G27G01G21G09G03
 -23429092.79549 -17911010.79048  20147684.784    20147684.9434   20147692.3124
       213.0004        214.0004
  -3197649.75347  -2477514.30445  24181792.796    24181793.0354   24181798.8674
       154.0004        156.0004
  -5826217.45147  -4519354.38245  23872294.788    23872294.4264   23872298.7774
       139.0004        144.0004
 -22452069.30349 -17483321.52248  20258988.554    20258989.4254   20258994.9194
       215.0004        214.0004
  -1321680.49347   -687342.34245  24607500.142    24607499.5484   24607505.2904
       138.0004        143.0004
 -21695016.50049 -16846450.57048  21443869.527    21443869.8004   21443876.5314
       227.0004        226.0004
  -3049404.44647  -2365758.70445  24428211.803    24428213.0344   24428221.5784
       135.0004        141.0004
  -8863520.36547  -6881133.83045  22994090.318    22994089.9934   22994096.8254
       150.0004        153.0004
 -16318109.94549 -12694922.56947  21315411.959    21315412.1954   21315418.2384
       204.0004        204.0004
  -2855939.30948  -1873495.37246  23920040.956    23920041.8404   23920050.9834
       181.0004        182.0004
 21  2  4  0 10  0.0000000  0 10G08G07G16G04G22G27G01G21G09G03
 -23432969.99249 -17914031.96948  20146946.513    20146947.0844   20146954.3744
       213.0004        214.0004
  -3262307.95047  -2527897.24945  24169488.824    24169489.6294   24169494.1444
       154.0004        156.0004
  -5743668.90847  -4455030.86145  23888004.571    23888003.4274   23888009.1214
       139.0004        144.0004
 -22436330.87149 -17471057.80848  20261983.498    20261984.3614   20261990.3054
       215.0004        214.0004
  -1272634.80747   -649124.94345  24616833.917    24616833.4224   24616837.5684
       140.0004        146.0004
 -21629203.98449 -16795168.08148  21456392.667    21456393.3204   21456400.6294
       227.0004        226.0004
  -3112166.44447  -2414664.08545  24416269.567    24416270.2904   24416278.4574
       138.0004        143.0004
  -8915277.05847  -6921463.69245  22984242.924    22984241.9704   22984246.3564
       149.0004        152.0004
 -16372283.50849 -12737135.71847  21305103.308    21305103.3594   21305109.3314
       204.0004        204.0004
  -2794523.23248  -1825638.74446  23931729.457    23931729.7364   23931737.4734
       180.0004        181.0004
 21  2  4  0 10 30.0000000  0 10G08G07G16G04G22G27G01G21G09G03
 -23436236.90149 -17916577.59348  20146324.972    20146325.3254   20146332.6064
       213.0004        214.0004
  -3327123.32847  -2578402.73345  24157156.141    24157156.3114   24157159.3504
       153.0004        155.0004
  -5661238.33047  -4390799.25345  23903690.625    23903689.9694   23903694.6584
       141.0004        146.0004
 -22420020.93649 -17458348.76248  20265087.840    20265088.0504   20265093.7784
       215.0004        214.0004
  -1223819.83547   -611087.35445  24626121.981    24626120.8064   24626127.6784
       138.0004        143.0004
 -21562900.75249 -16743503.21148  21469009.660    21469010.2004   21469017.6344
       226.0004        225.0004
  -3175182.76147  -2463767.66745  24404274.454    24404277.1424   24404286.1124
       137.0004        142.0004
  -8967006.18847  -6961772.05745  22974400.549    22974399.5574   22974403.0754
       149.0004        152.0004
 -16425977.38949 -12778975.10147  21294885.306    21294885.7624   21294891.7454
       204.0004        204.0004
  -2733234.43448  -1777881.25046  23943391.460    23943392.7224   23943400.7824
       180.0004        182.0004
 21  2  4  0 11  0.0000000  0 10G08G07G16G04G22G27G01G21G09G03
 -23438892.67449 -17918647.00348  20145820.153    20145820.3724   20145827.3044
       213.0004        214.0004
  -3392094.90447  -2629029.92345  24144791.236    24144792.0424   24144795.7594
       153.0004        155.0004
  -5578926.87047  -4326660.44845  23919353.954    23919353.5634   23919357.5734
       139.0004        142.0004
 -22403139.59449 -17445194.46248  20268299.288    20268299.9914   20268305.8854
       215.0004        213.0004
  -1175236.70447   -573230.39345  24635366.331    24635367.7354   24635372.6754
       137.0004        142.0004
 -21496108.95549 -16691457.65148  21481720.028    21481720.7754   21481727.2524
       226.0004        225.0004
  -3238451.42547  -2513067.85045  24392233.873    24392236.1444   24392248.4084
       135.0004        141.0004
  -9018704.55147  -7002056.43745  22964562.332    22964561.3534   22964565.2284
       149.0004        152.0004
 -16479189.44749 -12820439.03647  21284759.704    21284760.2104   21284765.9004
       204.0004        204.0004
  -2672074.92348  -1730224.48446  23955030.606    23955031.1934   23955039.7574
       183.0004        185.0004
 21  2  4  0 11 30.0000000  0 10G08G07G16G04G22G27G01G21G09G03
 -23440936.72649 -17920239.74048  20145431.046    20145431.1084   20145438.6434
       214.0004        214.0004
  -3457221.31247  -2679777.74345  24132397.586    24132398.5684   24132403.0124
       152.0004        155.0004
  -5496734.69247  -4262614.59545  23934995.928    23934994.6094   23934999.1654
       139.0004        144.0004
 -22385686.34649 -17431594.52248  20271621.166    20271621.6344   20271627.3374
       214.0004        213.0004
  -1126885.89247   -535554.45145  24644566.516    24644565.9154   24644573.6124
       135.0004        140.0004
 -21428830.14949 -16639032.58148  21494523.001    21494523.3204   21494530.3504
       225.0004        225.0004
  -3301969.64047  -2562562.45845  24380148.354    24380150.5284   24380159.7964
       137.0004        143.0004
  -9070369.17647  -7042314.51045  22954727.954    22954727.9744   22954736.0994
       149.0004        152.0004
 -16531916.82949 -12861525.29347  21274726.153    21274725.8304   21274732.5134
       204.0004        204.0004
  -2611046.05148  -1682669.53046  23966644.479    23966644.3284   23966654.0164
       184.0004        185.0004
 21  2  4  0 12  0.0000000  0 10G08G07G16G04G22G27G01G21G09G03
 -23442369.68849 -17921356.32948  20145158.063    20145158.3214   20145165.6714
       214.0004        214.0004
  -3522502.29747  -2730646.02245  24119975.355    24119975.8824   24119980.3974
       153.0004        156.0004
  -5414663.61047  -4198663.10245  23950610.214    23950611.6844   23950615.4934
       139.0004        143.0004
 -22367662.02649 -17417549.61748  20275050.725    20275051.5924   20275057.2664
       215.0004        213.0004
  -1078769.20747   -498060.94645  24653723.959    24653723.4334   24653728.7284
       137.0004        143.0004
 -21361067.20249 -16586230.28448  21507417.883    21507417.9024   21507425.0754
       225.0004        225.0004
  -3365736.26447  -2612250.70345  24368014.803    24368016.1964   24368026.0314
       138.0004        144.0004
  -9121997.88747  -7082544.62245  22944905.460    22944904.4814   22944909.9904
       150.0004        153.0004
 -16584157.98149 -12902232.69247  21264784.376    21264784.8264   21264790.8884
       203.0004        203.0004
  -2550150.40048  -1635218.39046  23978229.988    23978231.1734   23978241.1204
       182.0004        181.0004
 21  2  4  0 12 30.0000000  0 10G08G07G16G04G22G27G01G21G09G03
 -23443191.23449 -17921996.47848  20145001.712    20145002.0384   20145009.1784
       213.0004        214.0004
  -3587937.34047  -2781634.37145  24107523.824    24107524.7204   24107528.9034
       155.0004        159.0004
  -5332714.99847  -4134807.06245  23966206.675    23966206.1544   23966209.6034
       140.0004        146.0004
 -22349067.16749 -17403060.10948  20278589.581    20278590.0394   20278595.6224
       215.0004        213.0004
  -1030887.83647   -460750.80245  24662835.507    24662835.5824   24662840.4714
       139.0004        144.0004
 -21292822.62449 -16533052.68748  21520403.905    21520404.4304   21520411.3434
       224.0004        224.0004
  -3429749.50347  -2662131.11045  24355833.069    24355832.6664   24355842.3764
       136.0004        140.0004
  -9173587.86247  -7122744.55045  22935087.562    22935085.1234   22935091.9864
       150.0004        152.0004
 -16635911.15949 -12942559.82547  21254934.989    21254935.6674   21254942.8154
       202.0004        202.0004
  -2489390.40248  -1587872.94146  23989794.312    23989794.7404   23989801.2994
       179.0004        178.0004
 21  2  4  0 13  0.0000000  0 10G08G07G16G04G22G27G01G21G09G03
 -23443401.76649 -17922160.51348  20144961.749    20144961.8114   20144969.1434
       213.0004        214.0004
  -3653525.83247  -2832742.24345  24095040.933    24095042.4414   24095048.1934
       156.0004        159.0004
  -5250889.92147  -4071047.26545  23981776.029    23981776.8554   23981779.6374
       141.0004        146.0004
 -22329902.25349 -17388126.41448  20282237.112    20282237.2894   20282242.5894
       215.0004        214.0004
   -983243.05147   -423625.04045  24671903.602    24671902.1144   24671907.1384
       141.0004        145.0004
 -21224098.95749 -16479501.77348  21533481.128    21533482.0364   21533489.0694
       224.0004        223.0004
  -3494007.62646  -2712202.29445  24343604.162    24343606.6054   24343615.4724
       133.0004        138.0004
  -9225136.39947  -7162912.17345  22925278.288    22925277.4484   22925282.6574
       149.0004        151.0004
 -16687174.45149 -12982505.23347  21245179.798    21245179.7614   21245187.6444
       202.0004        202.0004
  -2428768.15548  -1540634.83046  24001329.229    24001330.6624   24001338.0054
       177.0004        178.0004
 21  2  4  0 13 30.0000000  0 10G08G07G16G04G22G27G01G21G09G03
 -23443001.36849 -17921848.49448  20145037.797    20145038.2354   20145045.2594
       213.0004        214.0004
  -3719266.73147  -2883968.89545  24082532.161    24082532.5384   24082537.2044
       156.0004        158.0004
  -5169189.34347  -4007384.45845  23997324.839    23997323.8254   23997329.4394
       141.0004        146.0004
 -22310167.57849 -17372748.74448  20285991.920    20285992.7684   20285998.1744
       215.0004        213.0004
   -935835.63947   -386684.20245  24680925.265    24680924.3944   24680928.8064
       140.0004        145.0004
 -21154898.49749 -16425579.32148  21546650.010    21546650.4324   21546657.6194
       223.0004        223.0004
  -3558508.66446  -2762462.69645  24331332.196    24331331.8584   24331341.3854
       130.0004        137.0004
  -9276640.87047  -7203045.46445  22915477.638    22915477.1364   22915481.4374
       150.0004        154.0004
 -16737945.77249 -13022067.29047  21235518.047    21235518.5364   21235526.4054
       202.0004        203.0004
  -2368285.72448  -1493505.66846  24012839.797    24012839.6064   24012849.1884
       177.0004        178.0004
 21  2  4  0 14  0.0000000  0 10G08G07G16G04G22G27G01G21G09G03
 -23441990.67249 -17921060.91648  20145230.260    20145230.5944   20145237.6344
       213.0004        214.0004
  -3785160.53547  -2935314.72145  24069994.550    24069994.7764   24069997.6324
       156.0004        158.0004
  -5087615.44547  -3943820.38345  24012846.929    24012846.4554   24012850.3344
       141.0004        143.0004
 -22289864.55049 -17356928.19548  20289855.374    20289855.6884   20289861.5574
       214.0004        213.0004
   -888668.25947   -349930.41445  24689900.657    24689900.0474   24689902.7794
       142.0004        146.0004
 -21085224.61649 -16371287.97248  21559908.502    21559908.9164   21559916.0224
       224.0004        224.0004
  -3623251.57046  -2812911.64045  24319011.661    24319012.2904   24319022.4904
       131.0004        137.0004
  -9328099.75347  -7243143.26045  22905682.932    22905683.8974   22905690.1074
       153.0004        157.0004
 -16788224.18649 -13061245.26647  21225950.384    21225951.2344   21225958.3904
       202.0004        203.0004
  -2307946.19448  -1446487.87746  24024322.375    24024322.8864   24024330.5914
       179.0004        180.0004
 21  2  4  0 14 30.0000000  0 10G08G07G16G04G22G27G01G21G09G03
 -23440369.65749 -17919797.77248  20145538.830    20145539.2294   20145545.8434
       213.0004        214.0004
  -3851206.24547  -2986778.86645  24057424.523    24057424.7174   24057429.6484
       154.0004        156.0004
  -5006169.47247  -3880356.02645  24028345.945    24028345.4494   24028349.9534
       140.0004        144.0004
 -22268993.56449 -17340665.09148  20293827.211    20293827.6264   20293833.0314
       214.0004        213.0004
   -841741.79547   -313364.33945  24698829.281    24698829.2834   24698835.3134
       143.0004        148.0004
 -21015079.73249 -16316629.61448  21573256.606    21573256.7674   21573264.1244
       223.0004        223.0004
  -3688234.54846  -2863547.65945  24306643.816    24306644.7734   24306655.1254
       128.0004        134.0004
  -9379509.93247  -7283203.08445  22895900.204    22895899.9964   22895906.7634
       153.0004        156.0004
 -16838007.72049 -13100037.62347  21216479.081    21216478.8134   21216485.0144
       203.0004        205.0004
  -2247751.49348  -1399582.93346  24035776.652    24035776.8264   24035784.9794
       179.0004        180.0004
 21  2  4  0 15  0.0000000  0 10G08G07G16G04G22G27G01G21G09G03
 -23438137.98349 -17918058.78848  20145963.318    20145963.6814   20145970.5684
       213.0004        213.0004
  -3917401.86847  -3038359.86045  24044828.212    24044829.3054   24044832.2324
       155.0004        158.0004
  -4924851.41947  -3816991.31745  24043821.517    24043819.9564   24043822.8834
       139.0004        144.0004
 -22247554.20249 -17323959.09747  20297906.641    20297907.3274   20297912.9314
       214.0004        212.0004
   -795056.00847   -276985.82245  24707712.576    24707712.9424   24707718.7964
       142.0004        146.0004
 -20944465.41149 -16261605.45748  21586693.528    21586694.3734   21586701.8214
       223.0004        223.0004
  -3753454.66347  -2914368.41245  24294235.980    24294236.6804   24294246.1154
       135.0004        143.0004
  -9430867.87447  -7323222.22045  22886129.481    22886128.9214   22886133.3944
       153.0004        156.0004
 -16887293.57649 -13138442.18147  21207099.810    21207100.4544   21207106.3394
       205.0004        206.0004
  -2187702.95048  -1352791.88046  24047203.819    24047203.6884   24047211.3874
       178.0004        179.0004
 21  2  4  0 15 30.0000000  0 10G08G07G16G04G22G27G01G21G09G03
 -23435296.99949 -17915845.01748  20146503.715    20146504.0594   20146511.6214
       213.0004        214.0004
  -3983748.14847  -3090058.24545  24032204.012    24032204.1814   24032208.5284
       155.0004        158.0004
  -4843663.19747  -3753727.79245  24059269.291    24059270.3634   24059274.1374
       139.0004        144.0004
 -22225548.32049 -17306811.66047  20302094.858    20302095.1444   20302100.6274
       214.0004        212.0004
   -748613.66247   -240796.99445  24716549.669    24716549.5014   24716556.0634
       139.0004        143.0004
 -20873385.36149 -16206218.40348  21600221.046    21600220.6534   21600227.9154
       223.0004        223.0004
  -3818911.30547  -2965373.47545  24281778.776    24281780.6524   24281789.6584
       139.0004        144.0004
  -9482171.82447  -7363199.28545  22876365.815    22876364.6094   22876369.8114
       152.0004        154.0004
 -16936081.16249 -13176458.49147  21197817.087    21197817.1454   21197822.8854
       207.0004        209.0004
  -2127803.88848  -1306117.29446  24058601.324    24058602.3304   24058610.9724
       178.0004        178.0004
 21  2  4  0 16  0.0000000  0 10G08G07G16G04G22G27G01G21G09G03
 -23431846.12849 -17913156.02148  20147160.330    20147160.8144   20147168.3294
       213.0004        214.0004
  -4050243.58947  -3141872.87645  24019550.814    24019550.2124   24019554.1534
       155.0004        157.0004
  -4762605.60847  -3690566.06745  24074692.338    24074693.8874   24074697.4814
       138.0004        143.0004
 -22202975.84649 -17289222.72348  20306389.662    20306390.3934   20306396.0704
       214.0004        213.0004
   -702415.22247   -204798.27045  24725343.802    24725341.1204   24725347.3514
       140.0004        145.0004
 -20801841.52449 -16150469.95848  21613834.146    21613834.9214   21613841.7834
       222.0004        222.0004
  -3884601.99247  -3016560.89545  24269278.050    24269278.0474   24269288.5034
       137.0004        142.0004
  -9533418.81447  -7403131.96545  22866613.176    22866614.1584   22866618.1624
       153.0004        156.0004
 -16984368.02249 -13214084.63347  21188627.908    21188628.0094   21188634.5454
       208.0004        209.0004
  -2068055.71348  -1259560.28746  24069969.675    24069971.1344   24069980.9554
       178.0004        179.0004
 21  2  4  0 16 30.0000000  0 10G08G07G16G04G22G27G01G21G09G03
 -23427785.04349 -17909991.51648  20147932.966    20147933.3164   20147940.7234
       213.0004        213.0004
  -4116886.83447  -3193802.64245  24006867.370    24006868.0214   24006872.7744
       154.0004        157.0004
  -4681679.32847  -3627506.60145  24090090.215    24090090.2874   24090098.4114
       137.0004        142.0004
 -22179836.88049 -17271192.35847  20310792.960    20310793.3454   20310799.1074
       214.0004        212.0004
   -656461.51147   -168990.23345  24734088.109    24734087.0504   24734091.3344
       139.0004        143.0004
 -20729835.89449 -16094361.66948  21627536.741    21627537.2084   21627544.0934
       222.0004        222.0004
  -3950524.21247  -3067928.73045  24256733.860    24256735.3014   24256743.0144
       137.0004        142.0004
  -9584605.89147  -7443017.95845  22856871.045    22856871.5724   22856877.2814
       154.0004        156.0004
 -17032151.88349 -13251318.80947  21179534.873    21179534.9474   21179540.9494
       207.0004        207.0004
  -2008460.07248  -1213122.15446  24081312.857    24081313.2374   24081321.8954
       182.0004        185.0004
 21  2  4  0 17  0.0000000  0 10G08G07G16G04G22G27G01G21G09G03
 -23423114.64749 -17906352.22948  20148821.821    20148822.1264   20148829.7314
       213.0004        214.0004
  -4183678.23047  -3245847.85845  23994157.623    23994158.1374   23994162.0684
       155.0004        158.0004
  -4600885.84847  -3564550.67245  24105469.507    24105468.1054   24105472.9274
       136.0004        141.0004
 -22156132.53849 -17252721.43847  20315303.557    20315304.2774   20315309.8764
       213.0004        212.0004
   -610754.27147   -133374.23045  24742786.272    24742785.0574   24742789.2124
       138.0004        143.0004
 -20657371.53649 -16037895.93848  21641326.395    21641327.0184   21641333.6994
       222.0004        222.0004
  -4016676.53447  -3119475.85345  24244144.012    24244143.6954   24244154.1924
       137.0004        142.0004
  -9635730.64247  -7482855.36845  22847144.439    22847143.7684   22847149.8474
       154.0004        157.0004
 -17079431.38349 -13288159.98047  21170536.601    21170536.6274   21170543.5994
       206.0004        205.0004
  -1949019.47048  -1166804.79546  24092622.916    24092623.1834   24092632.5594
       183.0004        184.0004
 21  2  4  0 17 30.0000000  0 10G08G07G16G04G22G27G01G21G09G03
 -23417835.47849 -17902238.56448  20149826.775    20149827.1604   20149834.0384
       213.0004        214.0004
  -4250616.74347  -3298007.69345  23981418.851    23981418.9834   23981424.0894
       155.0004        157.0004
  -4520226.56447  -3501699.27845  24120818.313    24120817.2264   24120822.4324
       136.0004        141.0004
 -22131863.75249 -17233810.68547  20319922.275    20319922.7284   20319928.2824
       214.0004        212.0004
   -565294.37447    -97950.92945  24751435.713    24751434.7844   24751440.9304
       138.0004        143.0004
 -20584451.31549 -15981074.95748  21655202.561    21655202.6194   21655209.9574
       222.0004        221.0004
  -4083057.30747  -3171201.01745  24231513.679    24231511.7494   24231524.2404
       136.0004        141.0004
  -9686790.07147  -7522641.88345  22837428.836    22837427.9744   22837432.3924
       154.0004        157.0004
 -17126205.09649 -13324607.01047  21161634.454    21161635.2624   21161642.8394
       204.0004        203.0004
  -1889736.25048  -1120610.10346  24103903.740    24103904.7954   24103914.1044
       182.0004        182.0004
 21  2  4  0 18  0.0000000  0 10G08G07G16G04G22G27G01G21G09G03
 -23411948.14549 -17897651.01548  20150946.927    20150947.3064   20150954.5624
       213.0004        214.0004
  -4317701.47247  -3350281.45645  23968653.308    23968653.5484   23968658.3544
       155.0004        157.0004
  -4439702.52847  -3438953.24845  24136142.068    24136143.0964   24136144.9874
       138.0004        144.0004
 -22107031.23249 -17214460.67247  20324647.102    20324647.7004   20324653.8984
       213.0004        212.0004
   -520083.13047    -62721.37945  24760040.761    24760038.9264   24760045.1334
       141.0004        146.0004
 -20511077.80249 -15923900.78348  21669164.570    21669164.7724   21669172.7034
       221.0004        220.0004
  -4149664.62247  -3223102.68445  24218837.205    24218838.2424   24218846.7574
       136.0004        141.0004
  -9737782.32547  -7562376.06445  22827722.784    22827723.3934   22827728.2444
       153.0004        155.0004
 -17172471.26949 -13360658.55747  21152830.041    21152830.4744   21152838.6274
       203.0004        203.0004
  -1830612.54448  -1074539.69646  24115156.242    24115156.6614   24115163.9834
       181.0004        181.0004
 21  2  4  0 18 30.0000000  0 10G08G07G16G04G22G27G01G21G09G03
 -23405452.04749 -17892589.11348  20152183.230    20152183.5374   20152190.7364
       213.0004        214.0004
  -4384931.27147  -3402668.30645  23955861.240    23955860.9574   23955864.6754
       156.0004        160.0004
  -4359314.18747  -3376312.97745  24151438.198    24151435.6294   24151441.5654
       138.0004        143.0004
 -22081635.22449 -17194671.57747  20329479.851    20329480.3754   20329486.2514
       213.0004        211.0004
   -475121.07547    -27686.02445  24768594.977    24768594.4814   24768600.4324
       141.0004        145.0004
 -20437253.05549 -15866375.00848  21683212.525    21683212.9844   21683220.8234
       220.0004        220.0004
  -4216495.99547  -3275178.94745  24206120.870    24206121.1894   24206131.2594
       136.0004        141.0004
  -9788704.10747  -7602055.33845  22818035.859    22818034.6154   22818038.7444
       153.0004        156.0004
 -17218227.70049 -13396312.92347  21144122.874    21144123.3164   21144131.8274
       203.0004        203.0004
  -1771649.83648  -1028594.74746  24126375.065    24126376.2424   24126383.1334
       179.0004        179.0004
 21  2  4  0 19  0.0000000  0 10G08G07G16G04G22G27G01G21G09G03
 -23398348.78649 -17887054.09748  20153534.784    20153535.0824   20153542.4054
       214.0004        214.0004
  -4452305.97847  -3455168.03245  23943040.663    23943039.8414   23943043.7274
       158.0004        160.0004
  -4279063.17447  -3313779.74045  24166709.754    24166709.2694   24166714.2154
       137.0004        143.0004
 -22055677.22749 -17174444.57947  20334419.568    20334420.2834   20334426.1034
       213.0004        212.0004
   -430410.05647      7153.69445  24777103.190    24777103.1314   24777106.6474
       141.0004        145.0004
 -20362980.49549 -15808500.29248  21697347.534    21697347.5764   21697354.6684
       221.0004        221.0004
  -4283550.16447  -3327428.80345  24193359.988    24193361.1764   24193371.5634
       138.0004        143.0004
  -9839553.04747  -7641677.86145  22808358.987    22808358.7684   22808363.3794
       154.0004        158.0004
 -17263473.45549 -13431569.35147  21135513.301    21135514.1394   21135521.6724
       203.0004        205.0004
  -1712851.01848   -982777.48146  24137564.303    24137565.2854   24137573.2194
       178.0004        178.0004
 21  2  4  0 19 30.0000000  0  9G08G07G16G04G27G01G21G09G03
 -23390636.95349 -17881044.85948  20155002.429    20155002.7874   20155009.5814
       214.0004        214.0004
  -4519822.91647  -3507778.59346  23930191.962    23930191.8424   23930197.0304
       160.0004        163.0004
  -4198948.74246  -3251352.90745  24181953.287    24181953.6534   24181958.5354
       134.0004        139.0004
 -22029156.26949 -17153778.88847  20339466.686    20339466.9384   20339472.6774
       212.0004        211.0004
 -20288261.01949 -15750277.30748  21711566.456    21711566.4734   21711572.8324
       221.0004        221.0004
  -4350823.46947  -3379849.42945  24180558.443    24180557.8484   24180568.5864
       137.0004        142.0004
  -9890324.32247  -7681239.85745  22798697.101    22798695.6754   22798702.1894
       155.0004        158.0004
 -17308205.10449 -13466425.16447  21127002.886    21127002.9514   21127009.3804
       205.0004        206.0004
  -1654216.26348   -937088.05946  24148721.990    24148723.2484   24148731.5164
       178.0004        178.0004
 21  2  4  0 20  0.0000000  0  9G08G07G16G04G27G01G21G09G03
 -23382318.90049 -17874563.24848  20156585.026    20156585.5404   20156592.7334
       214.0004        214.0004
  -4587483.31847  -3560500.93945  23917315.848    23917316.4334   23917321.0804
       160.0004        162.0004
  -4118974.03946  -3189034.94345  24197172.197    24197172.6654   24197177.4884
       133.0004        140.0004
 -22002075.10449 -17132676.68347  20344620.089    20344620.6474   20344626.1844
       212.0004        211.0004
 -20213099.20949 -15691709.65148  21725868.744    21725869.1694   21725875.7674
       221.0004        220.0004
  -4418315.83547  -3432440.70045  24167713.362    24167714.6954   24167723.8984
       137.0004        143.0004
  -9941017.66747  -7720741.12345  22789049.377    22789050.3414   22789053.3024
       155.0004        157.0004
 -17352422.93949 -13500880.62847  21118589.050    21118588.9604   21118594.9224
       206.0004        207.0004
  -1595749.61948   -891529.64846  24159848.148    24159848.4194   24159857.6694
       177.0004        177.0004
 21  2  4  0 20 30.0000000  0  9G08G07G16G04G27G01G21G09G03
 -23373394.80349 -17867609.39848  20158283.659    20158283.9094   20158290.8494
       214.0004        214.0004
  -4655286.20347  -3613334.35545  23904413.620    23904414.1964   23904418.2334
       159.0004        160.0004
  -4039139.97947  -3126826.61345  24212366.186    24212366.4604   24212370.0414
       136.0004        143.0004
 -21974434.52149 -17111138.57147  20349879.977    20349880.3924   20349886.0244
       212.0004        211.0004
 -20137497.66949 -15632799.36448  21740255.048    21740255.2934   21740261.9924
       220.0004        219.0004
  -4486025.26347  -3485201.11745  24154830.342    24154830.9734   24154839.5014
       139.0004        145.0004
  -9991630.26147  -7760179.50745  22779418.429    22779418.4634   22779422.5674
       156.0004        157.0004
 -17396125.34649 -13534934.45547  21110272.585    21110272.7324   21110278.7394
       207.0004        207.0004
  -1537453.10148   -846103.78946  24170940.895    24170941.8654   24170950.0244
       176.0004        177.0004
 21  2  4  0 21  0.0000000  0  9G08G07G16G04G27G01G21G09G03
 -23363865.50049 -17860183.94748  20160096.739    20160097.0474   20160104.3974
       213.0004        214.0004
  -4723230.26247  -3666277.75546  23891484.500    23891484.6634   23891488.4394
       160.0004        163.0004
  -3959447.38247  -3064728.50945  24227529.918    24227530.8504   24227534.8874
       139.0004        145.0004
 -21946235.14549 -17089165.02447  20355245.969    20355246.5224   20355252.0194
       212.0004        211.0004
 -20061458.83249 -15573548.31148  21754724.462    21754725.3204   21754731.7574
       220.0004        220.0004
  -4553949.38547  -3538128.83045  24141905.566    24141906.3754   24141915.3624
       144.0004        150.0004
 -10042159.78047  -7799553.09545  22769803.056    22769802.7664   22769808.5674
       157.0004        160.0004
 -17439310.42349 -13568585.15247  21102053.863    21102054.5864   21102060.6164
       207.0004        208.0004
  -1479328.42148   -800811.84246  24182001.967    24182002.5184   24182011.5204
       177.0004        179.0004
 21  2  4  0 21 30.0000000  0  9G08G07G16G04G27G01G21G09G03
 -23353731.61649 -17852287.40748  20162024.826    20162025.3354   20162032.4734
       213.0004        214.0004
  -4791315.30547  -3719331.01346  23878528.107    23878528.6824   23878532.8614
       162.0004        163.0004
  -3879897.32847  -3002741.44145  24242669.392    24242668.0514   24242672.5464
       139.0004        144.0004
 -21917478.21349 -17066757.03647  20360718.589    20360718.9114   20360724.5564
       212.0004        211.0004
 -19984985.71649 -15513958.86748  21769276.803    21769277.1704   21769284.2104
       220.0004        219.0004
  -4622086.63047  -3591222.61345  24128935.096    24128936.6184   24128948.6574
       144.0004        148.0004
 -10092602.93147  -7838859.41445  22760204.369    22760204.5094   22760208.4734
       157.0004        159.0004
 -17481976.93849 -13601831.78947  21093934.918    21093935.1924   21093941.8004
       208.0004        208.0004
  -1421377.89048   -755655.58146  24193029.678    24193030.6914   24193039.5044
       179.0004        180.0004
 21  2  4  0 22  0.0000000  0  9G08G07G16G04G27G01G21G09G03
 -23342992.95849 -17843919.61148  20164068.157    20164068.8724   20164075.7224
       213.0004        213.0004
  -4859539.78547  -3772492.90846  23865545.846    23865546.6194   23865549.9344
       162.0004        164.0004
  -3800490.23547  -2940865.79945  24257779.075    24257778.4014   24257782.6094
       139.0004        144.0004
 -21888164.05749 -17043914.84147  20366296.661    20366297.1444   20366302.6254
       212.0004        210.0004
 -19908080.45749 -15454032.68848  21783911.214    21783911.8714   21783919.3574
       219.0004        219.0004
  -4690434.24047  -3644480.35645  24115931.733    24115932.4504   24115941.1954
       145.0004        149.0004
 -10142956.99147  -7878096.33645  22750623.185    22750621.7674   22750628.1714
       158.0004        160.0004
 -17524122.72849 -13634672.65747  21085914.696    21085915.1044   21085922.0094
       208.0004        209.0004
  -1363602.97348   -710636.17146  24204023.647    24204024.8114   24204033.7314
       180.0004        182.0004
 21  2  4  0 22 30.0000000  0  9G08G07G16G04G27G01G21G09G03
 -23331650.94949 -17835081.66848  20166226.730    20166226.9814   20166234.3994
       213.0004        214.0004
  -4927903.35947  -3825763.21446  23852537.039    23852536.9174   23852541.2434
       162.0004        164.0004
  -3721227.66547  -2879102.76745  24272860.827    24272861.2314   24272864.9614
       136.0004        141.0004
 -21858294.11949 -17020639.56747  20371980.361    20371980.9184   20371986.8774
       212.0004        210.0004
 -19830746.27149 -15393772.28448  21798628.209    21798628.4624   21798634.6984
       219.0004        219.0004
  -4758990.77347  -3697900.89545  24102886.150    24102886.5494   24102895.9644
       145.0004        149.0004
 -10193219.27547  -7917261.71345  22741057.432    22741057.4624   22741061.6974
       157.0004        158.0004
 -17565746.80449 -13667106.99747  21077993.528    21077994.0144   21078000.7424
       208.0004        208.0004
  -1306006.06948   -665755.48246  24214985.563    24214986.4104   24214993.4304
       182.0004        184.0004
 21  2  4  0 23  0.0000000  0  9G08G07G16G04G27G01G21G09G03
 -23319706.24149 -17825774.07948  20168500.113    20168500.1614   20168507.3474
       213.0004        214.0004
  -4996404.89547  -3879141.03546  23839500.314    23839500.9864   23839506.4684
       162.0004        165.0004
  -3642110.52247  -2817453.06045  24287918.560    24287918.2874   24287919.5244
       136.0004        142.0004
 -21827869.56149 -16996932.11047  20377769.923    20377770.7004   20377776.6084
       211.0004        210.0004
 -19752986.09049 -15333179.91048  21813425.339    21813425.6254   21813431.7214
       218.0004        217.0004
  -4827754.41547  -3751482.78045  24089800.421    24089800.9854   24089809.9234
       147.0004        151.0004
 -10243387.45347  -7956353.75045  22731510.194    22731510.5934   22731513.9914
       157.0004        159.0004
 -17606847.85249 -13699133.77147  21070173.455    21070173.4104   21070179.3994
       208.0004        209.0004
  -1248589.39548   -621015.21346  24225911.792    24225912.0894   24225920.0654
       183.0004        183.0004
 21  2  4  0 23 30.0000000  0  9G08G07G16G04G27G01G21G09G03
 -23307159.02849 -17815997.01848  20170887.564    20170887.8944   20170895.1354
       213.0004        214.0004
  -5065043.17147  -3932625.35246  23826438.758    23826439.9854   23826444.2274
       163.0004        165.0004
  -3563139.14846  -2755916.91945  24302946.684    24302945.6364   24302950.8494
       134.0004        139.0004
 -21796890.58049 -16972792.65047  20383665.202    20383666.0644   20383671.3854
       211.0004        210.0004
 -19674801.84949 -15272257.11848  21828303.592    21828303.7024   21828310.3294
       218.0004        218.0004
  -4896722.18947  -3805223.73945  24076678.127    24076678.0184   24076685.9424
       149.0004        152.0004
 -10293458.08447  -7995369.82145  22721982.580    22721981.9754   22721987.3164
       157.0004        159.0004
 -17647423.56449 -13730751.20847  21062451.720    21062452.0944   21062458.0114
       209.0004        209.0004
  -1191354.12648   -576416.30546  24236800.992    24236802.1844   24236811.0294
       180.0004        180.0004
 21  2  4  0 24  0.0000000  0  9G08G07G16G04G27G01G21G09G03
 -23294010.09949 -17805751.08648  20173389.539    20173389.8704   20173397.0854
       213.0004        213.0004
  -5133817.63347  -3986215.81546  23813352.477    23813352.9934   23813357.5604
       164.0004        165.0004
  -3484314.99447  -2694495.51845  24317944.993    24317945.4714   24317948.1434
       135.0004        139.0004
 -21765358.84349 -16948222.46847  20389666.349    20389666.2694   20389671.8804
       211.0004        210.0004
 -19596196.90349 -15211006.50148  21843261.477    21843261.8434   21843268.4714
       219.0004        219.0004
  -4965892.69247  -3859122.71045  24063514.645    24063514.6454   24063522.5094
       148.0004        151.0004
 -10343428.52747  -8034307.80045  22712473.278    22712473.2074   22712479.4844
       158.0004        160.0004
 -17687473.09649 -13761958.62447  21054831.013    21054831.0744   21054836.9474
       209.0004        210.0004
  -1134302.79348   -531960.73246  24247656.893    24247658.1694   24247667.3844
       176.0004        174.0004
 21  2  4  0 24 30.0000000  0  9G08G07G16G04G27G01G21G09G03
 -23280259.90749 -17795036.63548  20176005.949    20176006.2534   20176013.5174
       212.0004        213.0004
  -5202726.65047  -4039911.16246  23800241.090    23800240.8784   23800244.2784
       164.0004        166.0004
  -3405638.15547  -2633188.89645  24332917.973    24332918.6234   24332920.8074
       136.0004        141.0004
 -21733274.73949 -16923221.86747  20395771.390    20395771.7474   20395777.2704
       211.0004        210.0004
 -19517173.36149 -15149429.70048  21858299.571    21858299.4324   21858305.8434
       219.0004        218.0004
  -5035263.15147  -3913177.48545  24050313.376    24050313.6244   24050321.6174
       146.0004        149.0004
 -10393296.29447  -8073165.77445  22702982.851    22702982.9454   22702989.3114
       157.0004        160.0004
 -17726994.33849 -13792754.39547  21047310.307    21047310.6954   21047316.4884
       210.0004        211.0004
  -1077436.71948   -487649.53146  24258478.790    24258479.7694   24258488.3764
       173.0004        173.0004
 21  2  4  0 25  0.0000000  0  9G08G07G16G04G27G01G21G09G03
 -23265910.23849 -17783855.06748  20178736.763    20178737.2594   20178744.3034
       213.0004        213.0004
  -5271770.08547  -4093711.22346  23787098.838    23787100.4654   23787104.9624
       163.0004        163.0004
  -3327110.48446  -2571998.51345  24347859.701    24347861.1044   24347863.0554
       134.0004        139.0004
 -21700640.11149 -16897792.29247  20401981.254    20401981.8654   20401987.1494
       211.0004        210.0004
 -19437734.76849 -15087529.50748  21873415.129    21873415.9704   21873422.3074
       218.0004        217.0004
  -5104832.17147  -3967387.01345  24037074.143    24037074.5374   24037083.3134
       144.0004        147.0004
 -10443059.30947  -8111942.14245  22693514.971    22693514.0094   22693517.8874
       157.0004        160.0004
 -17765986.66949 -13823138.02747  21039889.791    21039890.1364   21039896.5164
       210.0004        210.0004
  -1020758.60548   -443484.75746  24269267.094    24269267.1784   24269274.5424
       176.0004        178.0004
 21  2  4  0 25 30.0000000  0  9G08G07G16G04G27G01G21G09G03
 -23250961.39849 -17772206.60848  20181581.321    20181581.8724   20181588.6904
       213.0004        213.0004
  -5340946.96347  -4147615.26746  23773936.167    23773937.0384   23773940.8154
       161.0004        163.0004
  -3248732.68746  -2510924.86845  24362775.260    24362774.3034   24362778.8834
       131.0004        138.0004
 -21667455.96549 -16871934.51347  20408296.288    20408296.6344   20408301.8444
       211.0004        210.0004
 -19357883.83549 -15025307.98548  21888610.842    21888611.2594   21888617.5804
       218.0004        218.0004
  -5174597.66747  -4021749.61745  24023799.254    24023799.4424   24023807.0934
       144.0004        148.0004
 -10492714.30347  -8150634.31245  22684064.987    22684064.7684   22684069.2154
       157.0004        158.0004
 -17804448.59449 -13853108.35047  21032570.278    21032570.7074   21032576.9704
       209.0004        209.0004
   -964270.27948   -399467.86746  24280014.690    24280015.8394   24280024.1324
       178.0004        180.0004
 21  2  4  0 26  0.0000000  0  9G08G07G16G04G27G01G21G09G03
 -23235413.70349 -17760091.50848  20184539.752    20184540.3214   20184547.7624
       213.0004        213.0004
