     2.11           OBSERVATION DATA    G (GPS)             RINEX VERSION / TYPE
teqc  2018Jun8                          20210202 03:10:48UTCPGM / RUN BY / DATE
Linux2.6.32-573.12.1.el6.x86_64|x86_64|gcc|Win64-MinGW64|=+ COMMENT
BIT 2 OF LLI FLAGS DATA COLLECTED UNDER A/S CONDITION       COMMENT
-Unknown-                                                   MARKER NAME
CRNO                                                        MARKER NUMBER
-Unknown-           -Unknown-                               OBSERVER / AGENCY
-Unknown-           ASHTECH             -Unknown-           REC # / TYPE / VERS
-Unknown-           -Unknown-                               ANT # / TYPE
   408077.7307 -6158370.0938  1605161.0710                  APPROX POSITION XYZ
        0.0000        0.0000        0.0000                  ANTENNA: DELTA H/E/N
     1     1                                                WAVELENGTH FACT L1/2
     7    L1    L2    C1    P1    P2    S1    S2            # / TYPES OF OBSERV
    30.0000                                                 INTERVAL
Forced Modulo Decimation to 30 seconds                      COMMENT
 SNR is mapped to RINEX snr flag value [1-9]                COMMENT
  L1: 1 -> 1;  90 -> 5; 210 -> 9                            COMMENT
  L2: 1 -> 1; 150 -> 5; 250 -> 9                            COMMENT
pseudorange smoothing corrections not applied               COMMENT
  2021     2     4     0     0   30.0000000     GPS         TIME OF FIRST OBS
                                                            END OF HEADER
 21  2  4  0  0 30.0000000  0  9G14G30G21G01G08G09G07G17G04
  -1219974.62247   -941635.31845  23445182.461    23445184.1624   23445190.1504
       160.0004        161.0004
  -7215728.18448  -5599360.92146  23055443.981    23055444.5214   23055451.7464
       171.0004        173.0004
 -16054385.97948 -12494843.69546  21747395.023    21747394.4244   21747398.9334
       184.0004        184.0004
 -16597122.13848 -12919091.78647  21538021.357    21538021.5344   21538029.8194
       188.0004        188.0004
 -13585767.08049 -10570308.93748  22095678.944    22095678.7964   22095686.2274
       215.0004        215.0004
 -15098183.80249 -11736923.79047  21419717.265    21419717.2794   21419724.8894
       203.0004        203.0004
 -18117328.61049 -14096423.29647  21125478.316    21125478.9524   21125483.0084
       202.0004        203.0004
  -7309950.24448  -5675869.10946  23278585.015    23278584.5464   23278591.0464
       165.0004        167.0004
  -7841837.65648  -6084262.52446  22926852.638    22926853.6994   22926860.8614
       169.0004        170.0004
 21  2  4  0  1  0.0000000  0  9G14G30G21G01G08G09G07G17G04
  -1246142.32147   -962025.71945  23440203.325    23440204.1424   23440210.9304
       159.0004        160.0004
  -7303748.63648  -5667948.24846  23038694.583    23038693.8814   23038702.6754
       172.0004        173.0004
 -16046266.79948 -12488517.04446  21748938.953    21748938.7224   21748943.7914
       184.0004        184.0004
 -16658085.34448 -12966595.56447  21526420.619    21526421.2874   21526428.5724
       188.0004        189.0004
 -13497327.73149 -10501395.14648  22112509.430    22112508.5304   22112515.2514
       215.0004        214.0004
 -15041452.67449 -11692717.71747  21430511.964    21430512.5164   21430520.9684
       203.0004        204.0004
 -18181895.63449 -14146735.26047  21113191.840    21113192.3854   21113196.3394
       203.0004        203.0004
  -7392710.11348  -5740357.24546  23262836.294    23262836.8164   23262842.9564
       167.0004        169.0004
  -7744847.76248  -6008686.01446  22945311.061    22945311.1444   22945316.8494
       168.0004        169.0004
 21  2  4  0  1 30.0000000  0  9G14G30G21G01G08G09G07G17G04
  -1272295.75947   -982404.95545  23435226.764    23435228.2324   23435233.3234
       158.0004        161.0004
  -7391745.29548  -5736517.03646  23021948.786    23021949.1124   23021956.1424
       172.0004        172.0004
 -16037661.07048 -12481811.25546  21750576.933    21750576.8144   21750581.5044
       184.0004        185.0004
 -16718716.74348 -13013840.77847  21514883.729    21514883.4294   21514891.0764
       188.0004        189.0004
 -13408710.31149 -10432342.59148  22129372.079    22129371.9384   22129378.3724
       214.0004        214.0004
 -14984353.31149 -11648224.69447  21441378.681    21441378.6004   21441386.0594
       203.0004        204.0004
 -18246227.66149 -14196864.09747  21100949.383    21100950.1114   21100953.9674
       203.0004        203.0004
  -7475143.38648  -5804590.89146  23247149.901    23247150.2334   23247156.4294
       168.0004        170.0004
  -7647770.39148  -5933041.29246  22963784.479    22963784.6544   22963790.2674
       168.0004        169.0004
 21  2  4  0  2  0.0000000  0  9G14G30G21G01G08G09G07G17G04
  -1298435.32347  -1002773.42046  23430253.506    23430254.1224   23430259.6034
       160.0004        163.0004
  -7479715.29248  -5805065.06746  23005208.792    23005208.6134   23005215.8034
       171.0004        171.0004
 -16028567.24748 -12474725.15246  21752307.384    21752307.2004   21752313.1014
       185.0004        186.0004
 -16779012.40648 -13060824.38947  21503407.685    21503408.2964   21503417.1304
       188.0004        188.0004
 -13319916.51649 -10363152.63047  22146268.879    22146268.0314   22146275.4524
       213.0004        212.0004
 -14926887.73349 -11603446.34147  21452312.666    21452313.5684   21452321.0844
       202.0004        202.0004
 -18310321.42749 -14246807.28747  21088752.610    21088752.7974   21088757.8484
       203.0004        204.0004
  -7557247.39548  -5868567.98046  23231525.005    23231525.7194   23231532.9984
       168.0004        168.0004
  -7550607.68848  -5857330.08546  22982272.549    22982273.9344   22982280.6114
       168.0004        169.0004
 21  2  4  0  2 30.0000000  0  9G14G30G21G01G08G09G07G17G04
  -1324562.37547  -1023132.09745  23425280.729    23425281.7084   23425287.3014
       160.0004        162.0004
  -7567656.61148  -5873590.75346  22988474.882    22988473.6894   22988481.0104
       171.0004        173.0004
 -16018984.95848 -12467258.41246  21754132.434    21754131.2284   21754136.7434
       186.0004        186.0004
 -16838969.33948 -13107544.03547  21491998.148    21491998.7624   21492008.2774
       188.0004        190.0004
 -13230949.58549 -10293827.73447  22163196.796    22163197.5234   22163205.4824
       212.0004        211.0004
 -14869058.85849 -11558384.88247  21463318.302    21463318.5664   21463325.7474
       202.0004        203.0004
 -18374174.12749 -14296562.62247  21076602.225    21076602.3284   21076606.8214
       203.0004        203.0004
  -7639020.67948  -5932287.37346  23215965.029    23215965.1994   23215971.3464
       168.0004        169.0004
  -7453362.74648  -5781554.83346  23000777.351    23000778.1884   23000785.2144
       168.0004        168.0004
 21  2  4  0  3  0.0000000  0  9G14G30G21G01G08G09G07G17G04
  -1350676.29147  -1043480.58245  23420312.727    23420313.1674   23420317.5364
       161.0004        162.0004
  -7655565.36848  -5942091.05346  22971745.730    22971746.3164   22971753.1094
       172.0004        174.0004
 -16008911.93848 -12459409.28446  21756048.009    21756047.3114   21756053.0444
       186.0004        186.0004
 -16898582.59948 -13153995.91847  21480657.190    21480657.3554   21480664.2314
       192.0004        194.0004
 -13141810.28549 -10224368.54147  22180159.528    22180160.4644   22180167.8764
       212.0004        211.0004
 -14810867.71349 -11513041.14347  21474391.484    21474391.9044   21474399.6914
       202.0004        202.0004
 -18437781.25649 -14346126.62647  21064498.034    21064498.6354   21064502.3514
       203.0004        203.0004
  -7720459.92548  -5995746.48846  23200467.985    23200467.7094   23200473.2574
       167.0004        167.0004
  -7356036.69448  -5705716.37446  23019298.524    23019298.7764   23019305.9934
       167.0004        168.0004
 21  2  4  0  3 30.0000000  0 10G14G28G30G21G01G08G09G07G17G04
  -1376780.24747  -1063821.30845  23415345.416    23415345.4884   23415350.8864
       161.0004        162.0004
   -626826.15754   -457370.276 3                                  24701795.018
        74.0004         74.000
  -7743441.33148  -6010565.80846  22955023.962    22955023.2294   22955030.7534
       173.0004        173.0004
 -15998349.31348 -12451178.64946  21758058.964    21758058.5544   21758062.7804
       187.0004        187.0004
 -16957851.01148 -13200179.10147  21469379.139    21469379.3414   21469385.2724
       194.0004        195.0004
 -13052503.85849 -10154779.11747  22197155.183    22197155.2844   22197162.5764
       212.0004        212.0004
 -14752319.01049 -11467418.78247  21485532.941    21485533.2454   21485540.4484
       202.0004        202.0004
 -18501142.20249 -14395498.77047  21052440.487    21052441.0474   21052445.4774
       203.0004        204.0004
  -7801565.23347  -6058945.40045  23185033.215    23185034.0244   23185037.6414
       164.0004        162.0004
  -7258634.45348  -5629818.54746  23037834.128    23037834.3474   23037841.5874
       168.0004        168.0004
 21  2  4  0  4  0.0000000  0 10G14G28G30G21G01G08G09G07G17G04
  -1402874.99047  -1084154.83545  23410378.204    23410378.9104   23410385.3064
       158.0004        159.0004
   -374978.23454   -287161.582 3                                  23701225.388
        74.0004         74.000
  -7831281.93248  -6079012.99446  22938306.721    22938308.0704   22938315.4844
       171.0004        171.0004
 -15987296.30148 -12442565.88046  21760160.399    21760160.0434   21760166.7584
       187.0004        187.0004
 -17016771.04548 -13246090.80947  21458164.789    21458165.3534   21458173.1294
       193.0004        191.0004
 -12963032.31749 -10085061.02147  22214180.009    22214180.4514   22214189.0424
       212.0004        212.0004
 -14693415.12949 -11421519.65947  21496741.615    21496742.2004   21496749.4064
       202.0004        203.0004
 -18564253.37749 -14444676.29547  21040430.862    21040431.3014   21040436.0054
       204.0004        204.0004
  -7882334.83047  -6121882.69046  23169663.617    23169664.2384   23169666.7664
       162.0004        164.0004
  -7161158.48848  -5553863.24546  23056383.052    23056383.0404   23056389.8204
       167.0004        168.0004
 21  2  4  0  4 30.0000000  0 10G14G28G30G21G01G08G09G07G17G04
  -1428960.02147  -1104480.81045  23405415.078    23405414.9104   23405420.6084
       157.0004        158.0004
   -389107.23144   -298169.563 4                                  23698491.825
        74.0004         99.000
  -7919083.31948  -6147429.61146  22921599.427    22921599.0894   22921607.1774
       170.0004        171.0004
 -15975750.69948 -12433569.28546  21762357.663    21762357.7724   21762363.7324
       187.0004        187.0004
 -17075337.95848 -13291727.32146  21447017.681    21447018.6894   21447028.2734
       189.0004        187.0004
 -12873397.22749 -10015215.49447  22231237.552    22231237.8114   22231245.6704
       211.0004        211.0004
 -14634157.23349 -11375344.67147  21508018.519    21508018.5564   21508025.9534
       202.0004        202.0004
 -18627110.71249 -14493656.02147  21028469.535    21028470.1404   21028474.3184
       204.0004        204.0004
  -7962765.38347  -6184555.82146  23154359.326    23154358.4174   23154361.7864
       162.0004        163.0004
  -7063610.06848  -5477851.50146  23074945.063    23074946.3154   23074952.3954
       167.0004        167.0004
 21  2  4  0  5  0.0000000  0 10G14G28G30G21G01G08G09G07G17G04
  -1455037.62947  -1124801.01045  23400452.848    23400453.7704   23400459.0014
       157.0004        159.0004
   -404976.47544   -310524.287 4                                  23695497.771
        74.0004        111.000
  -8006844.40348  -6215814.86346  22904898.614    22904899.2334   22904906.5854
       169.0004        171.0004
 -15963713.29248 -12424189.45546  21764649.161    21764648.7484   21764654.4464
       187.0004        187.0004
 -17133549.71048 -13337087.09147  21435939.637    21435941.3504   21435950.7864
       187.0004        188.0004
 -12783602.15749  -9945245.32047  22248325.918    22248325.6474   22248332.8494
       210.0004        210.0004
 -14574549.24149 -11328896.88847  21519361.195    21519361.6994   21519369.3034
       202.0004        203.0004
 -18689712.58849 -14542436.69747  21016557.035    21016557.2984   21016561.4524
       204.0004        204.0004
  -8042856.52647  -6246964.48545  23139116.990    23139116.8004   23139120.0284
       159.0004        160.0004
  -6965993.19048  -5401786.41446  23093522.339    23093522.2784   23093528.9644
       166.0004        166.0004
 21  2  4  0  5 30.0000000  0  9G14G30G21G01G08G09G07G17G04
  -1481108.67947  -1145116.10445  23395492.617    23395492.6734   23395497.9864
       157.0004        159.0004
  -8094562.69248  -6284166.75546  22888205.591    22888206.6024   22888214.8854
       170.0004        171.0004
 -15951183.06448 -12414425.61646  21767034.121    21767033.0064   21767038.1444
       187.0004        187.0004
 -17191402.84948 -13382167.42547  21424932.312    21424933.6344   21424941.8564
       188.0004        191.0004
 -12693650.01049  -9875152.73447  22265442.331    22265442.7884   22265450.2444
       210.0004        210.0004
 -14514593.67849 -11282178.26947  21530770.632    21530771.0734   21530778.3704
       203.0004        203.0004
 -18752055.74149 -14591015.76347  21004693.033    21004693.9264   21004698.2854
       204.0004        204.0004
  -8122606.00447  -6309106.90545  23123940.668    23123940.5844   23123943.6224
       159.0004        160.0004
  -6868310.49747  -5325670.04646  23112108.371    23112109.1384   23112117.1104
       164.0004        164.0004
 21  2  4  0  6  0.0000000  0 10G14G28G30G21G01G08G09G07G17G04
  -1507174.52347  -1165427.11745  23390531.228    23390531.3594   23390537.7354
       156.0004        157.0004
   -434631.24044   -214131.269 4                                  23689855.223
        74.0004        113.000
  -8182236.18148  -6352483.71646  22871522.630    22871522.7204   22871529.8254
       170.0004        172.0004
 -15938159.77548 -12404277.56346  21769511.343    21769510.9454   21769516.3944
       187.0004        187.0004
 -17248894.48548 -13426966.08447  21413993.065    21413993.6374   21414001.1804
       190.0004        192.0004
 -12603543.52249  -9804939.87847  22282587.482    22282588.8684   22282597.0144
       210.0004        209.0004
 -14454293.57849 -11235191.17247  21542245.640    21542246.1224   21542252.9334
       203.0004        203.0004
 -18814137.77049 -14639391.35947  20992879.928    20992880.0394   20992884.4804
       204.0004        204.0004
  -8202012.36647  -6370981.96145  23108829.689    23108830.4004   23108836.7464
       159.0004        162.0004
  -6770565.03147  -5249504.76846  23130709.888    23130710.0054   23130717.1414
       162.0004        163.0004
 21  2  4  0  6 30.0000000  0 10G14G28G30G21G01G08G09G07G17G04
  -1533234.98547  -1185733.98845  23385571.088    23385571.2064   23385578.6004
       154.0004        156.0004
   -448424.86744   -224879.633 5                                  23687228.265
        74.0004        135.000
  -8269861.38348  -6420763.07546  22854848.366    22854847.6504   22854856.6534
       171.0004        171.0004
 -15924642.28548 -12393744.43246  21772084.401    21772083.9224   21772088.8044
       187.0004        187.0004
 -17306020.32248 -13471479.71547  21403122.897    21403123.4094   21403130.5564
       192.0004        193.0004
 -12513284.47749  -9734608.15547  22299765.354    22299765.0394   22299772.6844
       210.0004        210.0004
 -14393650.49449 -11187936.82947  21553786.308    21553786.1474   21553792.9054
       203.0004        203.0004
 -18875954.48649 -14687560.22047  20981115.460    20981116.6284   20981120.9374
       204.0004        205.0004
  -8281072.95247  -6432587.56646  23093786.299    23093786.6534   23093791.1484
       163.0004        167.0004
  -6672758.44447  -5173291.86146  23149320.868    23149322.1014   23149329.0654
       161.0004        163.0004
 21  2  4  0  7  0.0000000  0 10G14G28G30G21G01G08G09G07G17G04
  -1559295.53047  -1206040.85745  23380613.011    23380613.4924   23380618.8254
       154.0004        157.0004
   -465710.10946   -238348.49245  23683938.084                    23683943.7614
       128.0004        141.0004
  -8357440.29548  -6489006.34146  22838182.495    22838183.4384   22838190.6394
       172.0004        173.0004
 -15910633.49248 -12382828.47746  21774749.348    21774749.2854   21774754.6244
       187.0004        187.0004
 -17362781.43948 -13515709.14447  21392321.544    21392321.7874   21392329.0644
       193.0004        193.0004
 -12422879.87749  -9664163.02947  22316968.568    22316968.3164   22316975.9904
       209.0004        208.0004
 -14332671.53349 -11140420.75547  21565389.221    21565390.1614   21565397.0504
       204.0004        204.0004
 -18937507.60449 -14735523.68247  20969402.756    20969403.0654   20969407.8834
       204.0004        204.0004
  -8359790.71948  -6493926.03846  23078807.455    23078806.2974   23078813.1304
       167.0004        170.0004
  -6574897.82547  -5097036.86845  23167943.231    23167944.0764   23167951.8314
       161.0004        162.0004
 21  2  4  0  7 30.0000000  0 10G14G28G30G21G01G08G09G07G17G04
  -1585356.76547  -1226348.28845  23375654.418    23375654.9774   23375659.2044
       155.0004        158.0004
   -480725.23247   -250048.57945  23681080.083    23681080.7834   23681086.5284
       136.0004        143.0004
  -8444970.23148  -6557211.48046  22821525.007    22821525.9854   22821533.2604
       171.0004        172.0004
 -15896132.84548 -12371529.26746  21777509.562    21777509.2814   21777514.2484
       187.0004        187.0004
 -17419174.40248 -13559651.70747  21381589.842    21381590.4454   21381598.1394
       193.0004        193.0004
 -12332332.00349  -9593606.24447  22334199.396    22334198.9524   22334206.8464
       208.0004        208.0004
 -14271359.07249 -11092644.82947  21577056.975    21577057.4394   21577064.1774
       203.0004        204.0004
 -18998793.74049 -14783279.11547  20957740.100    20957741.0224   20957744.9924
       203.0004        204.0004
  -8438163.76848  -6554995.89646  23063891.498    23063892.0474   23063899.5354
       167.0004        169.0004
  -6476985.61847  -5020741.67746  23186577.370    23186576.9104   23186584.5204
       162.0004        164.0004
 21  2  4  0  8  0.0000000  0 10G14G28G30G21G01G08G09G07G17G04
  -1611418.15447  -1246655.80645  23370694.866    23370695.4394   23370699.8054
       157.0004        161.0004
   -495725.44547   -261737.02945  23678226.949    23678227.9104   23678231.9404
       138.0004        143.0004
  -8532447.17648  -6625375.31046  22804880.552    22804880.9474   22804887.7574
       174.0004        178.0004
 -15881138.33048 -12359845.19346  21780362.743    21780362.0684   21780367.3194
       187.0004        187.0004
 -17475194.33548 -13603303.57947  21370929.658    21370930.2514   21370937.3604
       192.0004        191.0004
 -12241641.80049  -9522938.53547  22351456.598    22351456.9694   22351464.3864
       208.0004        207.0004
 -14209714.29049 -11044609.92747  21588787.388    21588787.4824   21588794.6884
       203.0004        203.0004
 -19059808.55649 -14830823.12447  20946130.294    20946130.8144   20946134.5244
       204.0004        204.0004
  -8516188.63148  -6615794.46646  23049043.410    23049044.3724   23049052.4514
       170.0004        172.0004
  -6379022.92047  -4944407.11946  23205217.562    23205218.8764   23205226.2374
       163.0004        164.0004
 21  2  4  0  8 30.0000000  0 10G14G28G30G21G01G08G09G07G17G04
  -1637479.40047  -1266963.24845  23365734.682    23365735.4674   23365741.2194
       158.0004        161.0004
   -510711.40447   -273414.35645  23675374.483    23675374.3294   23675381.3494
       139.0004        144.0004
  -8619867.54948  -6693495.06346  22788244.649    22788244.8004   22788252.4694
       176.0004        177.0004
 -15865648.25948 -12347774.99846  21783310.577    21783310.0364   21783314.7584
       187.0004        187.0004
 -17530836.82248 -13646661.35047  21360341.339    21360340.9634   21360349.2734
       191.0004        190.0004
 -12150811.03549  -9452161.32747  22368742.093    22368741.6544   22368748.8654
       208.0004        208.0004
 -14147738.65249 -10996317.23547  21600581.464    21600581.6044   21600588.6414
       203.0004        203.0004
 -19120547.72449 -14878152.34547  20934571.329    20934571.6994   20934576.7424
       204.0004        204.0004
  -8593862.29548  -6676319.34546  23034263.852    23034263.9664   23034271.7814
       172.0004        174.0004
  -6281011.23747  -4868034.40246  23223869.378    23223869.7264   23223876.9874
       162.0004        163.0004
 21  2  4  0  9  0.0000000  0 10G14G28G30G21G01G08G09G07G17G04
  -1663540.18147  -1287270.30145  23360775.596    23360776.0694   23360782.6434
       160.0004        162.0004
   -525682.98247   -285080.49645  23672525.810    23672525.9614   23672530.9374
       142.0004        147.0004
  -8707227.55948  -6761567.76946  22771620.932    22771620.6404   22771628.0664
       177.0004        178.0004
 -15849660.84548 -12335317.24446  21786352.287    21786351.3504   21786356.6984
       187.0004        186.0004
 -17586097.36548 -13689721.47847  21349824.199    21349825.3964   21349833.6984
       190.0004        190.0004
 -12059840.79349  -9381275.41547  22386052.477    22386052.1224   22386059.2524
       207.0004        206.0004
 -14085433.53349 -10947767.77647  21612436.770    21612437.3484   21612445.6544
       203.0004        203.0004
 -19181007.20849 -14925263.61247  20923066.031    20923066.5744   20923071.2574
       204.0004        204.0004
  -8671181.82248  -6736568.28146  23019550.998    23019551.1144   23019557.3714
       173.0004        175.0004
  -6182951.96547  -4791624.57745  23242528.734    23242529.6344   23242536.8704
       160.0004        160.0004
 21  2  4  0  9 30.0000000  0 10G14G28G30G21G01G08G09G07G17G04
  -1689602.66347  -1307578.70145  23355816.647    23355816.4264   23355821.9604
       159.0004        160.0004
   -540642.52747   -296737.25845  23669678.747    23669678.8584   23669684.1174
       143.0004        147.0004
  -8794525.96448  -6829592.47946  22755008.655    22755008.9954   22755015.0584
       177.0004        179.0004
 -15833177.32548 -12322472.92946  21789488.599    21789488.6034   21789494.1334
       187.0004        187.0004
 -17640973.96548 -13732482.44447  21339381.566    21339382.3244   21339391.3244
       190.0004        191.0004
 -11968734.80749  -9310283.75047  22403387.600    22403388.5914   22403396.7904
       206.0004        206.0004
 -14022802.89649 -10898964.69447  21624355.129    21624355.7944   21624363.1414
       202.0004        202.0004
 -19241185.28349 -14972155.62747  20911615.172    20911615.6784   20911619.3984
       204.0004        204.0004
  -8748147.01148  -6796541.08846  23004904.976    23004905.5494   23004910.8424
       173.0004        174.0004
  -6084849.05947  -4715180.77745  23261197.036    23261197.3154   23261204.5124
       159.0004        161.0004
 21  2  4  0 10  0.0000000  0 10G14G28G30G21G01G08G09G07G17G04
  -1715667.39147  -1327888.84045  23350855.685    23350856.3654   23350862.1764
       158.0004        161.0004
   -555591.25847   -308385.56645  23666835.244    23666834.4784   23666839.8314
       145.0004        149.0004
  -8881759.99048  -6897567.03146  22738409.011    22738408.2574   22738415.7144
       180.0004        181.0004
 -15816195.99148 -12309240.70746  21792720.492    21792720.2274   21792725.4384
       187.0004        186.0004
 -17695463.09248 -13774941.46347  21329012.646    21329013.0324   21329022.5024
       190.0004        191.0004
 -11877495.45249  -9239188.16247  22420750.406    22420750.9454   22420759.4774
       206.0004        205.0004
 -13959849.10049 -10849909.79547  21636334.710    21636335.2254   21636342.5074
       201.0004        201.0004
 -19301078.55949 -15018825.71147  20900218.178    20900218.1544   20900222.6714
       204.0004        205.0004
  -8824755.55648  -6856235.99246  22990326.396    22990325.9834   22990332.5354
       173.0004        173.0004
  -5986704.70447  -4638704.68246  23279874.047    23279874.7434   23279881.8214
       160.0004        163.0004
 21  2  4  0 10 30.0000000  0 10G14G28G30G21G01G08G09G07G17G04
  -1741736.78547  -1348202.60946  23345895.231    23345895.5284   23345902.3714
       161.0004        163.0004
   -570531.89147   -320027.58645  23663991.798    23663991.6794   23663996.1654
       148.0004        152.0004
  -8968928.69148  -6965490.67646  22721821.581    22721821.2184   22721828.0164
       181.0004        182.0004
 -15798717.86548 -12295621.37646  21796046.316    21796045.9024   21796051.2454
       186.0004        186.0004
 -17749563.01648 -13817097.24047  21318718.262    21318718.9124   21318726.7794
       190.0004        191.0004
 -11786126.88549  -9167991.88747  22438138.692    22438138.1754   22438146.3234
       206.0004        206.0004
 -13896576.35449 -10800606.37747  21648374.986    21648375.3824   21648382.8694
       200.0004        200.0004
 -19360685.50949 -15065272.68647  20888874.352    20888875.2814   20888880.1094
       205.0004        205.0004
  -8901007.39848  -6915653.00546  22975816.269    22975816.2184   22975822.3024
       172.0004        174.0004
  -5888523.13747  -4562199.58146  23298557.454    23298557.7034   23298564.4714
       162.0004        164.0004
 21  2  4  0 11  0.0000000  0 10G14G28G30G21G01G08G09G07G17G04
  -1767812.22347  -1368521.10546  23340933.234    23340934.5304   23340938.6924
       161.0004        163.0004
   -585466.28447   -331664.74845  23661149.032    23661149.6564   23661154.9664
       150.0004        153.0004
  -9056029.94248  -7033361.74846  22705246.044    22705245.6734   22705253.0854
       180.0004        179.0004
 -15780743.55048 -12281615.40746  21799466.103    21799465.5564   21799471.1334
       186.0004        186.0004
 -17803270.91848 -13858947.52947  21308498.864    21308499.4604   21308506.6094
       191.0004        192.0004
 -11694632.05949  -9096697.21047  22455548.803    22455549.1424   22455556.9834
       206.0004        206.0004
 -13832987.79849 -10751056.85647  21660475.482    21660476.1904   21660483.6054
       200.0004        200.0004
 -19420003.65249 -15111494.63947  20877587.088    20877587.2974   20877591.3224
       204.0004        204.0004
  -8976901.43348  -6974791.17146  22961374.863    22961374.4154   22961380.4064
       173.0004        175.0004
  -5790307.42147  -4485667.88745  23317246.513    23317247.1664   23317254.6114
       161.0004        162.0004
 21  2  4  0 11 30.0000000  0 10G14G28G30G21G01G08G09G07G17G04
  -1793893.86647  -1388844.42646  23335971.385    23335971.2074   23335976.0784
       162.0004        164.0004
   -600394.97747   -343297.46345  23658308.264    23658308.2154   23658313.8874
       149.0004        152.0004
  -9143060.53148  -7101177.78446  22688684.400    22688684.2074   22688691.9814
       179.0004        180.0004
 -15762271.72448 -12267221.75846  21802981.448    21802981.2444   21802986.7144
       186.0004        186.0004
 -17856583.00548 -13900489.40247  21298353.091    21298354.0184   21298361.9784
       192.0004        193.0004
 -11603012.49549  -9025305.34947  22472982.525    22472983.0924   22472991.7934
       206.0004        205.0004
 -13769085.46449 -10701262.83447  21672636.037    21672636.4744   21672643.0084
       199.0004        199.0004
 -19479029.51449 -15157488.82747  20866354.577    20866355.4224   20866359.4734
       204.0004        205.0004
  -9052435.39348  -7033648.76546  22947000.509    22947001.1834   22947006.2294
       173.0004        173.0004
  -5692059.46747  -4409111.06246  23335943.455    23335943.4884   23335951.0324
       161.0004        163.0004
 21  2  4  0 12  0.0000000  0 10G14G28G30G21G01G08G09G07G17G04
  -1819983.32347  -1409173.83145  23331006.659    23331006.5814   23331011.5474
       161.0004        162.0004
   -615320.16247   -354927.46345  23655468.617    23655468.5924   23655473.2224
       150.0004        153.0004
  -9230018.61848  -7168937.30746  22672136.345    22672136.8354   22672143.4134
       178.0004        178.0004
 -15743302.92248 -12252440.83546  21806590.876    21806591.2994   21806596.0194
       186.0004        187.0004
 -17909496.74648 -13941720.85547  21288284.166    21288284.6964   21288292.5424
       193.0004        194.0004
 -11511271.75449  -8953819.04447  22490440.738    22490440.9664   22490449.3584
       205.0004        204.0004
 -13704872.73249 -10651226.92847  21684855.310    21684855.9874   21684863.1694
       199.0004        200.0004
 -19537760.63649 -15203253.32147  20855179.768    20855179.6674   20855183.3664
       205.0004        206.0004
  -9127608.27148  -7092224.98046  22932695.247    22932695.8574   22932699.2564
       171.0004        171.0004
  -5593782.58647  -4332531.68645  23354645.804    23354645.5304   23354651.6484
       161.0004        162.0004
 21  2  4  0 12 30.0000000  0 10G14G28G30G21G01G08G09G07G17G04
  -1846080.70947  -1429509.41945  23326039.366    23326039.5914   23326044.4144
       158.0004        158.0004
   -630242.41347   -366555.16545  23652628.467    23652628.5774   23652633.6674
       151.0004        154.0004
  -9316900.87548  -7236637.76246  22655604.308    22655604.2134   22655610.3174
       179.0004        181.0004
 -15723835.80648 -12237271.63246  21810296.037    21810294.9784   21810300.1384
       186.0004        185.0004
 -17962008.15348 -13982638.82047  21278291.123    21278292.0504   21278300.3414
       194.0004        195.0004
 -11419411.66549  -8882239.76247  22507921.778    22507921.3294   22507929.3434
       204.0004        204.0004
 -13640351.56049 -10600950.69647  21697133.645    21697133.8484   21697141.2524
       199.0004        200.0004
 -19596193.43549 -15248785.36247  20844059.365    20844060.1844   20844063.8764
       205.0004        206.0004
  -9202418.05648  -7150518.28046  22918458.646    22918458.9494   22918463.3714
       170.0004        171.0004
  -5495478.56747  -4255931.15445  23373352.495    23373351.8174   23373357.9114
       161.0004        162.0004
 21  2  4  0 13  0.0000000  0 10G14G28G30G21G01G08G09G07G17G04
  -1872188.57747  -1449853.15845  23321071.164    23321071.8644   23321078.1364
       157.0004        159.0004
   -645164.62247   -378182.82945  23649789.064    23649788.4024   23649793.6124
       152.0004        154.0004
  -9403706.53348  -7304278.50946  22639085.707    22639085.6484   22639091.9934
       181.0004        182.0004
 -15703871.60548 -12221715.09646  21814094.993    21814094.9184   21814099.5404
       186.0004        186.0004
 -18014115.89748 -14023242.22847  21268376.250    21268376.4184   21268384.6204
       194.0004        195.0004
 -11327436.24749  -8810570.60947  22525422.766    22525423.1094   22525431.7964
       202.0004        202.0004
 -13575526.42449 -10550437.59747  21709469.358    21709469.9644   21709476.7984
       200.0004        201.0004
 -19654326.61549 -15294083.94447  20832997.021    20832997.5084   20833001.2174
       205.0004        205.0004
  -9276864.64048  -7208528.55146  22904292.940    22904292.7824   22904297.2644
       171.0004        173.0004
  -5397151.82047  -4179312.90845  23392062.672    23392063.1464   23392070.1124
       160.0004        161.0004
 21  2  4  0 13 30.0000000  0 10G14G28G30G21G01G08G09G07G17G04
  -1898306.91047  -1470205.10445  23316101.079    23316101.9274   23316106.8394
       157.0004        158.0004
   -660087.17447   -389810.77445  23646949.204    23646949.5254   23646954.4954
       153.0004        155.0004
  -9490432.18648  -7371856.91146  22622582.989    22622581.8894   22622589.3414
       182.0004        182.0004
 -15683409.34548 -12205770.45346  21817988.594    21817988.3704   21817993.3024
       186.0004        186.0004
 -18065815.86949 -14063527.91547  21258537.948    21258538.3734   21258546.2504
       195.0004        195.0004
 -11235347.02349  -8738812.78247  22542946.526    22542947.3114   22542955.8434
       202.0004        203.0004
 -13510399.20449 -10499689.11847  21721862.738    21721863.2494   21721870.4504
       200.0004        200.0004
 -19712156.24349 -15339145.99147  20821992.352    20821992.9784   20821996.9444
       205.0004        206.0004
  -9350945.58048  -7266253.92046  22890196.159    22890196.3174   22890200.8604
       173.0004        174.0004
  -5298804.03747  -4102678.28145  23410776.319    23410777.2284   23410783.9364
       159.0004        159.0004
 21  2  4  0 14  0.0000000  0 10G14G28G30G21G01G08G09G07G17G04
  -1924437.09347  -1490566.26145  23311127.746    23311128.4134   23311134.1134
       156.0004        157.0004
   -675011.68247   -401440.24645  23644110.455    23644109.7734   23644113.1964
       153.0004        155.0004
  -9577075.67548  -7439371.30746  22606094.994    22606094.0454   22606101.3024
       181.0004        181.0004
 -15662449.00348 -12189437.69946  21821977.361    21821976.6054   21821982.1764
       185.0004        185.0004
 -18117105.43649 -14103493.80047  21248777.824    21248778.4244   21248785.9994
       195.0004        195.0004
 -11143147.28449  -8666968.81847  22560491.591    22560492.7774   22560501.4594
       203.0004        204.0004
 -13444973.05349 -10448707.72147  21734312.226    21734312.8044   21734320.3704
       199.0004        199.0004
 -19769679.85049 -15383969.58847  20811046.444    20811046.3474   20811050.6474
       205.0004        206.0004
  -9424659.82648  -7323693.55546  22876167.552    22876168.1224   22876172.7034
       173.0004        174.0004
  -5200438.23047  -4026029.60545  23429494.908    23429496.6584   23429501.8794
       158.0004        159.0004
 21  2  4  0 14 30.0000000  0 10G14G28G30G21G01G08G09G07G17G04
  -1950580.02947  -1510937.34645  23306154.221    23306154.5604   23306159.0504
       156.0004        159.0004
   -689939.26947   -413072.07345  23641268.849    23641268.5264   23641273.6874
       152.0004        156.0004
  -9663634.54348  -7506819.76546  22589622.355    22589622.4664   22589629.1464
       180.0004        180.0004
 -15640990.74548 -12172716.96846  21826060.958    21826060.1814   21826065.5514
       185.0004        185.0004
 -18167981.49049 -14143137.46647  21239096.832    21239096.8004   21239104.6254
       195.0004        195.0004
 -11050839.07849  -8595040.35847  22578058.216    22578058.2504   22578067.6794
       203.0004        203.0004
 -13379250.83149 -10397495.60447  21746819.127    21746819.4994   21746826.8534
       199.0004        199.0004
 -19826894.67049 -15428552.56847  20800158.160    20800158.9894   20800163.2544
       206.0004        206.0004
  -9498005.94648  -7380846.33746  22862210.919    22862210.5974   22862215.7994
       172.0004        172.0004
  -5102057.08547  -3949368.99545  23448217.974    23448217.8204   23448222.8534
       157.0004        159.0004
 21  2  4  0 15  0.0000000  0 10G14G28G30G21G01G08G09G07G17G04
  -1976737.98647  -1531320.14845  23301175.682    23301175.9874   23301181.7784
       157.0004        159.0004
   -704873.26747   -424708.88645  23638427.273    23638426.4874   23638432.1714
       153.0004        155.0004
  -9750107.63448  -7574201.37846  22573166.849    22573166.9884   22573174.3684
       181.0004        181.0004
 -15619035.17948 -12155608.71046  21830238.733    21830238.3654   21830244.2774
       185.0004        185.0004
 -18218442.41548 -14182457.64347  21229493.992    21229494.3314   21229502.5934
       194.0004        194.0004
 -10958426.73249  -8523030.73947  22595642.775    22595643.4924   22595652.2724
       203.0004        202.0004
 -13313236.67449 -10346056.00447  21759381.392    21759381.4904   21759388.4754
       199.0004        199.0004
 -19883799.08949 -15472893.68047  20789330.243    20789330.3704   20789334.8704
       206.0004        206.0004
  -9570983.29248  -7437711.73446  22848323.946    22848323.6934   22848328.3154
       172.0004        174.0004
  -5003664.58147  -3872699.53345  23466941.920    23466941.8024   23466946.1414
       157.0004        159.0004
 21  2  4  0 15 30.0000000  0 10G14G28G30G21G01G08G09G07G17G04
  -2002911.42747  -1551715.03045  23296194.737    23296195.6724   23296201.2144
       159.0004        161.0004
   -719814.32047   -436351.23745  23635583.541    23635582.5974   23635587.9834
       152.0004        154.0004
  -9836491.97248  -7641513.83346  22556728.868    22556729.0624   22556735.9064
       180.0004        181.0004
 -15596582.04648 -12138112.74646  21834510.838    21834510.5164   21834515.9994
       186.0004        186.0004
 -18268484.74048 -14221451.63947  21219971.454    21219971.6894   21219980.0134
       194.0004        195.0004
 -10865912.26149  -8450941.54947  22613246.676    22613247.6224   22613257.5604
       201.0004        200.0004
 -13246933.01949 -10294390.81647  21771999.216    21771999.5424   21772006.2014
       199.0004        199.0004
 -19940389.82849 -15516990.35847  20778560.943    20778561.2214   20778565.6924
       206.0004        206.0004
  -9643590.83648  -7494289.00546  22834506.106    22834507.4964   22834513.1994
       174.0004        175.0004
  -4905262.96847  -3796022.95945  23485665.307    23485665.8764   23485672.7524
       156.0004        157.0004
 21  2  4  0 16  0.0000000  0 10G14G28G30G21G01G08G09G07G17G04
  -2029099.63747  -1572121.38445  23291211.131    23291212.0944   23291218.0184
       159.0004        161.0004
   -734762.47747   -447999.11545  23632738.333    23632738.9444   23632743.5464
       150.0004        152.0004
  -9922783.41648  -7708753.88946  22540308.234    22540308.1524   22540315.6914
       180.0004        181.0004
 -15573629.23348 -12120227.40946  21838879.198    21838878.8294   21838883.6644
       186.0004        186.0004
 -18318103.77548 -14260115.78647  21210528.678    21210529.1474   21210537.1324
       194.0004        194.0004
 -10773296.76549  -8378773.63947  22630872.384    22630872.0874   22630881.4364
       200.0004        200.0004
 -13180340.99349 -10242500.91647  21784670.812    21784670.9704   21784678.4164
       199.0004        199.0004
 -19996662.07049 -15560838.86047  20767852.663    20767853.3894   20767857.5414
       206.0004        206.0004
  -9715824.99248  -7550575.31746  22820760.730    22820760.6974   22820766.8064
       173.0004        174.0004
  -4806853.12247  -3719339.93745  23504391.477    23504392.9154   23504399.1954
       154.0004        157.0004
 21  2  4  0 16 30.0000000  0 10G14G28G30G21G01G08G09G07G17G04
  -2055305.24847  -1592541.31046  23286225.374    23286225.8034   23286231.1694
       161.0004        164.0004
   -749720.28547   -459654.53445  23629892.756    23629892.4044   23629897.8294
       150.0004        153.0004
 -10008981.14348  -7775920.93846  22523905.040    22523905.0094   22523912.0654
       179.0004        179.0004
 -15550178.69048 -12101954.23946  21843341.630    21843340.8824   21843346.6184
       185.0004        186.0004
 -18367298.26148 -14298449.13147  21201166.111    21201166.9284   21201175.6684
       193.0004        192.0004
 -10680584.17449  -8306530.06547  22648515.400    22648515.5404   22648524.4134
       200.0004        201.0004
 -13113465.19449 -10190389.90547  21797397.270    21797397.4934   21797403.9144
       199.0004        198.0004
 -20052615.04049 -15604438.58747  20757205.283    20757205.4804   20757210.0054
       206.0004        206.0004
  -9787686.48848  -7606571.24446  22807086.224    22807086.6454   22807091.8954
       174.0004        176.0004
  -4708439.50547  -3642654.03445  23523119.987    23523121.1204   23523127.5034
       154.0004        156.0004
 21  2  4  0 17  0.0000000  0 10G14G28G30G21G01G08G09G07G17G04
  -2081529.12147  -1612975.42146  23281233.732    23281235.1094   23281240.8964
       161.0004        163.0004
   -764689.11847   -471318.51745  23627043.943    23627043.7034   23627049.1024
       151.0004        155.0004
 -10095082.60348  -7843012.97046  22507520.632    22507520.3894   22507526.9984
       178.0004        178.0004
 -15526230.52348 -12083293.31446  21847898.108    21847898.5964   21847902.8464
       185.0004        186.0004
 -18416065.15648 -14336449.29647  21191887.394    21191887.8464   21191895.3394
       193.0004        194.0004
 -10587777.38649  -8234213.07347  22666176.136    22666176.0844   22666184.5264
       201.0004        201.0004
 -13046308.45549 -10138059.96847  21810177.080    21810176.9824   21810183.4724
       198.0004        198.0004
 -20108245.86649 -15647787.27747  20746618.503    20746618.9064   20746623.9964
       206.0004        206.0004
  -9859173.81048  -7662275.60146  22793482.488    22793483.1674   22793488.8754
       176.0004        177.0004
  -4610024.68447  -3565967.16645  23541847.672    23541847.5764   23541855.5654
       154.0004        156.0004
 21  2  4  0 17 30.0000000  0 10G14G28G30G21G01G08G09G07G17G04
  -2107772.62847  -1633424.89346  23276240.901    23276241.4664   23276245.8894
       161.0004        163.0004
   -779671.31347   -482992.94045  23624192.379    23624193.0174   23624196.4054
       151.0004        154.0004
 -10181085.70748  -7910028.35846  22491154.912    22491155.0684   22491160.8344
       178.0004        179.0004
 -15501785.18048 -12064244.97546  21852550.470    21852550.2354   21852555.2324
       185.0004        184.0004
 -18464402.01448 -14374114.34547  21182689.138    21182689.3524   21182697.7144
       194.0004        194.0004
 -10494879.15449  -8161824.85347  22683853.532    22683853.5064   22683861.9214
       200.0004        199.0004
 -12978874.08449 -10085513.70647  21823008.190    21823008.8294   21823016.5604
       198.0004        198.0004
 -20163552.24249 -15690883.15747  20736093.999    20736094.7514   20736099.3814
       206.0004        206.0004
  -9930286.17348  -7717687.79746  22779950.110    22779950.6514   22779956.7724
       175.0004        175.0004
  -4511611.73547  -3489281.77145  23560575.195    23560575.0884   23560583.2854
       155.0004        158.0004
 21  2  4  0 18  0.0000000  0 10G14G28G30G21G01G08G09G07G17G04
  -2134036.63847  -1653890.33446  23271243.693    23271243.4574   23271248.6404
       162.0004        165.0004
   -794668.00347   -494678.63645  23621339.637    23621339.9574   23621344.1544
       150.0004        153.0004
 -10266987.90948  -7976965.12646  22474808.973    22474808.0374   22474815.4464
       180.0004        181.0004
 -15476842.30848 -12044808.95646  21857298.017    21857297.2874   21857301.8224
       185.0004        185.0004
 -18512305.86148 -14411442.00447  21173573.092    21173573.5134   21173581.8634
       194.0004        195.0004
 -10401891.83849  -8089367.20347  22701547.110    22701548.0474   22701557.2314
       198.0004        198.0004
 -12911164.98549 -10032753.36847  21835892.651    21835893.2694   21835900.6244
       197.0004        196.0004
 -20218531.17249 -15733723.89347  20725632.966    20725633.1594   20725637.2254
       206.0004        207.0004
 -10001022.11848  -7772806.67646  22766490.399    22766490.8794   22766495.4684
       175.0004        177.0004
  -4413203.29547  -3412599.87945  23579300.985    23579301.6714   23579308.7074
       156.0004        158.0004
 21  2  4  0 18 30.0000000  0 10G14G28G30G21G01G08G09G07G17G04
  -2160321.40548  -1674371.96246  23266241.610    23266241.7864   23266246.7914
       165.0004        167.0004
   -809679.56347   -506375.91345  23618482.883    23618483.1044   23618487.3014
       151.0004        154.0004
 -10352786.03748  -8043820.78246  22458481.059    22458481.0904   22458487.5764
       179.0004        180.0004
 -15451401.24548 -12024984.72346  21862138.032    21862137.5104   21862143.4354
       186.0004        185.0004
 -18559773.07749 -14448429.41447  21164540.242    21164541.1644   21164549.4094
       195.0004        196.0004
 -10308817.34549  -8016841.62047  22719259.947    22719259.8874   22719268.9854
       198.0004        199.0004
 -12843183.30449  -9979780.62347  21848828.851    21848828.9954   21848837.1244
       195.0004        194.0004
 -20273179.08649 -15776306.66747  20715232.891    20715233.5024   20715237.9024
       206.0004        207.0004
 -10071379.66448  -7827630.68646  22753100.886    22753101.3014   22753107.0074
       175.0004        176.0004
  -4314801.24047  -3335922.96245  23598027.460    23598027.5254   23598034.1634
       154.0004        156.0004
 21  2  4  0 19  0.0000000  0 10G14G28G30G21G01G08G09G07G17G04
  -2186628.90648  -1694871.27946  23261234.897    23261235.8224   23261240.3914
       165.0004        166.0004
   -824708.70047   -518086.90645  23615621.879    23615622.5024   23615627.6604
       152.0004        155.0004
 -10438478.58448  -8110594.17646  22442174.274    22442174.8744   22442181.9484
       179.0004        181.0004
 -15425463.14348 -12004773.20046  21867074.420    21867073.7444   21867078.5624
       185.0004        185.0004
 -18606801.90349 -14485075.23147  21155591.385    21155592.2694   21155599.6524
       196.0004        196.0004
 -10215659.64149  -7944251.21347  22736987.205    22736987.3614   22736997.0114
       199.0004        200.0004
 -12774933.01948  -9926598.59047  21861816.076    21861816.3974   21861825.3294
       193.0004        193.0004
 -20327494.33549 -15818630.23447  20704897.549    20704897.6264   20704902.1784
       206.0004        207.0004
 -10141358.67648  -7882159.75646  22739784.724    22739785.1794   22739790.1964
       176.0004        178.0004
  -4216409.37847  -3259254.01545  23616749.052    23616750.4864   23616756.7744
       152.0004        154.0004
 21  2  4  0 19 30.0000000  0 10G14G28G30G21G01G08G09G07G17G04
  -2212958.92148  -1715388.13646  23256225.402    23256225.8054   23256230.1444
       166.0004        168.0004
   -839755.41947   -529811.57145  23612759.643    23612760.1754   23612764.0114
       153.0004        156.0004
 -10524061.92348  -8177282.47346  22425887.890    22425887.8164   22425895.3964
       179.0004        180.0004
 -15399027.06148 -11984173.63746  21872104.564    21872104.5534   21872109.0074
       185.0004        185.0004
 -18653388.32349 -14521376.31847  21146725.828    21146726.9504   21146734.8864
       196.0004        197.0004
 -10122419.90449  -7871596.87247  22754730.116    22754730.2974   22754739.6894
       199.0004        199.0004
 -12706415.93748  -9873208.67747  21874853.203    21874854.7104   21874862.8504
       192.0004        192.0004
 -20381472.80349 -15860691.38447  20694625.637    20694626.2904   20694630.6554
       207.0004        208.0004
 -10210956.67648  -7936391.92446  22726540.899    22726541.0774   22726546.3174
       177.0004        178.0004
  -4118029.09947  -3182594.08945  23635470.902    23635472.3934   23635477.9004
       153.0004        156.0004
 21  2  4  0 20  0.0000000  0 10G14G28G30G21G01G08G09G07G17G04
  -2239313.38648  -1735924.05046  23251209.605    23251210.0534   23251215.4494
       166.0004        167.0004
   -854822.26047   -541551.91945  23609893.082    23609892.6174   23609896.6744
       154.0004        156.0004
 -10609534.53748  -8243884.48346  22409623.278    22409623.0514   22409630.4564
       179.0004        180.0004
 -15372094.12548 -11963186.90246  21877229.952    21877229.8254   21877234.3834
       185.0004        184.0004
 -18699530.46249 -14557331.20847  21137945.190    21137945.9514   21137953.8554
       197.0004        197.0004
 -10029101.77549  -7798881.44247  22772487.767    22772488.0584   22772497.1164
       199.0004        198.0004
 -12637635.98848  -9819613.92747  21887942.911    21887942.9804   21887951.2154
       192.0004        192.0004
 -20435113.00749 -15902488.93947  20684418.361    20684418.7304   20684423.0134
       207.0004        208.0004
 -10280173.54748  -7990327.08746  22713368.165    22713368.6754   22713374.4564
       177.0004        177.0004
  -4019664.08647  -3105946.04345  23654189.132    23654190.2904   23654196.5654
       154.0004        156.0004
 21  2  4  0 20 30.0000000  0 10G14G28G30G21G01G08G09G07G17G04
  -2265692.20948  -1756478.94546  23246190.440    23246191.0634   23246196.2574
       167.0004        169.0004
   -869909.35347   -553308.02645  23607021.354    23607021.0804   23607026.3474
       155.0004        157.0004
 -10694892.89748  -8310397.47146  22393380.460    22393380.0664   22393386.5074
       180.0004        181.0004
 -15344663.22448 -11941812.15446  21882449.834    21882449.4204   21882454.1834
       184.0004        185.0004
 -18745224.56349 -14592936.97647  21129250.288    21129251.1024   21129258.9874
       197.0004        197.0004
  -9935706.42949  -7726105.85047  22790260.678    22790260.6334   22790269.7774
       196.0004        195.0004
 -12568595.14448  -9765815.87347  21901081.543    21901082.1914   21901090.0424
       193.0004        196.0004
 -20488410.88049 -15944019.75047  20674275.704    20674276.3054   20674280.9574
       207.0004        207.0004
 -10349007.25148  -8043963.70046  22700270.701    22700270.6234   22700275.6684
       176.0004        176.0004
  -3921315.99047  -3029311.14645  23672904.229    23672904.7724   23672911.9374
       153.0004        155.0004
 21  2  4  0 21  0.0000000  0 10G14G28G30G21G01G08G09G07G17G04
  -2292097.59448  -1777054.54246  23241165.216    23241165.5324   23241170.2944
       167.0004        168.0004
   -885019.62447   -565082.23145  23604146.023    23604145.4784   23604151.3244
       155.0004        157.0004
 -10780135.74048  -8376820.46046  22377158.701    22377158.8064   22377166.3184
       180.0004        181.0004
 -15316735.76648 -11920050.49346  21887764.242    21887763.4184   21887768.6154
       184.0004        184.0004
 -18790469.09049 -14628192.43247  21120640.743    21120641.1624   21120648.9964
       197.0004        198.0004
  -9842237.90049  -7653273.24647  22808047.797    22808048.1004   22808055.9804
       195.0004        195.0004
 -12499297.60049  -9711817.78147  21914269.602    21914269.8854   21914276.6924
       195.0004        196.0004
 -20541365.16049 -15985282.82047  20664198.840    20664199.5324   20664203.9174
       207.0004        207.0004
 -10417457.89948  -8097301.82746  22687243.951    22687244.9734   22687249.7414
       175.0004        176.0004
  -3822988.68447  -2952692.47845  23691614.639    23691615.7434   23691623.2094
       154.0004        156.0004
 21  2  4  0 21 30.0000000  0 10G14G28G30G21G01G08G09G07G17G04
  -2318529.31448  -1797650.65746  23236135.813    23236136.2284   23236140.9914
       168.0004        168.0004
   -900153.25847   -576874.63445  23601265.076    23601266.0284   23601270.6964
       154.0004        156.0004
 -10865259.41648  -8443150.58646  22360960.484    22360961.0054   22360967.7684
       182.0004        183.0004
 -15288311.10548 -11897901.38146  21893172.582    21893172.0774   21893177.1894
       184.0004        183.0004
 -18835260.14149 -14663094.53947  21112116.777    21112117.7154   21112125.4174
       198.0004        198.0004
  -9748697.72949  -7580384.79647  22825847.393    22825847.3034   22825856.1594
       195.0004        195.0004
 -12429745.18049  -9657621.09447  21927505.048    21927505.3974   21927511.8154
       196.0004        198.0004
 -20593971.91049 -16026275.09347  20654188.984    20654189.1204   20654193.0544
       207.0004        208.0004
 -10485522.95448  -8150339.51046  22674292.029    22674292.6074   22674297.4444
       176.0004        177.0004
  -3724683.69647  -2876091.20445  23710321.576    23710322.1854   23710330.7794
       153.0004        155.0004
 21  2  4  0 22  0.0000000  0 10G14G28G30G21G01G08G09G07G17G04
  -2344988.16948  -1818267.94446  23231100.650    23231100.4904   23231105.9024
       167.0004        167.0004
   -915311.44147   -588686.15545  23598382.365    23598381.2964   23598386.5614
       154.0004        156.0004
 -10950261.30748  -8509385.81246  22344785.796    22344785.6294   22344792.4294
       184.0004        185.0004
 -15259389.41748 -11875364.98246  21898675.274    21898675.9814   21898681.3714
       184.0004        184.0004
 -18879594.87749 -14697641.06947  21103680.349    21103681.2214   21103688.4404
       198.0004        198.0004
  -9655088.05449  -7507442.18747  22843660.452    22843660.5264   22843668.9224
       195.0004        195.0004
 -12359940.82349  -9603228.08647  21940788.410    21940788.9944   21940795.1834
       198.0004        198.0004
 -20646228.45149 -16066994.47047  20644243.804    20644244.5324   20644249.0774
       207.0004        208.0004
 -10553201.33348  -8203075.86446  22661413.371    22661413.6574   22661418.9494
       176.0004        176.0004
  -3626403.55247  -2799509.29245  23729024.422    23729024.7414   23729032.0524
       154.0004        157.0004
 21  2  4  0 22 30.0000000  0 10G14G28G30G21G01G08G09G07G17G04
  -2371476.25947  -1838908.00146  23226059.244    23226060.6324   23226064.4164
       164.0004        163.0004
   -930496.73547   -600518.81445  23595492.185    23595492.1504   23595496.8444
       154.0004        156.0004
 -11035140.05948  -8575525.08546  22328633.933    22328634.0924   22328640.2304
       185.0004        185.0004
 -15229971.87048 -11852442.21146  21904274.303    21904273.8834   21904279.3024
       183.0004        184.0004
 -18923471.69349 -14731830.77947  21095331.498    21095332.2264   21095339.3564
       198.0004        198.0004
  -9561412.83549  -7434448.51847  22861485.364    22861486.5504   22861495.2614
       195.0004        196.0004
 -12289888.55349  -9548641.89747  21954118.928    21954119.3464   21954125.6974
       198.0004        199.0004
 -20698132.57049 -16107439.24847  20634367.154    20634367.7794   20634372.0214
       207.0004        208.0004
 -10620492.87748  -8255510.79646  22648607.357    22648608.1694   22648614.0234
       174.0004        175.0004
  -3528152.03447  -2722949.69745  23747720.844    23747720.9404   23747728.9714
       155.0004        157.0004
 21  2  4  0 23  0.0000000  0 10G14G28G30G21G01G08G09G07G17G04
  -2397993.25047  -1859570.56546  23221013.909    23221014.1434   23221019.3114
       163.0004        165.0004
   -945709.26247   -612372.68045  23592595.931    23592596.3934   23592601.4594
       153.0004        156.0004
 -11119891.87348  -8641565.45546  22312506.067    22312506.4214   22312513.0144
       186.0004        187.0004
 -15200057.54148 -11829132.31846  21909967.535    21909967.0464   21909972.0694
       184.0004        184.0004
 -18966886.69449 -14765660.61647  21087069.163    21087069.8804   21087077.9364
       198.0004        198.0004
  -9467673.25148  -7361404.69347  22879324.708    22879324.4504   22879333.1234
       194.0004        193.0004
 -12219590.17549  -9493863.92447  21967496.180    21967495.9614   21967503.4504
       198.0004        197.0004
 -20749680.70349 -16147606.60747  20624557.608    20624558.0974   20624563.0364
       207.0004        208.0004
 -10687395.59948  -8307642.74446  22635876.191    22635876.5294   22635881.2524
       174.0004        174.0004
  -3429930.54347  -2646413.48245  23766410.797    23766412.0174   23766419.1914
       154.0004        157.0004
 21  2  4  0 23 30.0000000  0 10G14G28G30G21G01G08G09G07G17G04
  -2424541.16047  -1880257.20846  23215962.682    23215963.0114   23215966.7844
       164.0004        165.0004
   -960951.66647   -624249.85745  23589696.185    23589695.9334   23589700.2984
       154.0004        156.0004
 -11204515.30748  -8707505.78346  22296402.347    22296402.8264   22296409.2534
       186.0004        186.0004
 -15169648.03548 -11805436.58546  21915754.059    21915753.3734   21915758.5994
       184.0004        185.0004
 -19009838.23849 -14799129.34247  21078895.402    21078896.2824   21078904.5314
       198.0004        198.0004
  -9373872.94148  -7288313.54947  22897173.913    22897174.2564   22897182.8164
       192.0004        193.0004
 -12149049.75649  -9438897.36447  21980919.164    21980919.3064   21980926.5274
       196.0004        195.0004
 -20800871.45649 -16187495.51447  20614817.254    20614817.3264   20614821.3694
       208.0004        208.0004
 -10753909.65148  -8359471.86246  22623218.953    22623219.9844   22623224.8664
       174.0004        176.0004
  -3331742.77947  -2569903.54845  23785095.263    23785095.8944   23785104.6214
       154.0004        156.0004
 21  2  4  0 24  0.0000000  0 10G14G28G30G21G01G08G09G07G17G04
  -2451120.03847  -1900967.97846  23210903.013    23210903.1524   23210909.2524
       164.0004        165.0004
   -976224.29747   -636150.56245  23586790.515    23586789.7134   23586794.4224
       153.0004        156.0004
 -11289007.05048  -8773343.47846  22280324.833    22280324.4544   22280330.9054
       186.0004        187.0004
 -15138742.90648 -11781354.64546  21921634.414    21921634.3954   21921639.6154
       184.0004        184.0004
 -19052322.89849 -14832234.24847  21070810.909    21070811.7254   21070820.1194
       198.0004        198.0004
  -9280013.42148  -7215176.26647  22915034.579    22915034.5414   22915043.7094
       192.0004        192.0004
 -12078269.48948  -9383743.89947  21994386.317    21994387.1274   21994395.8204
       194.0004        193.0004
 -20851701.43349 -16227103.28147  20605144.099    20605144.6684   20605148.7654
       208.0004        208.0004
 -10820032.77648  -8410996.33146  22610637.136    22610637.1754   22610642.4264
       177.0004        179.0004
  -3233590.50847  -2493421.27245  23803773.947    23803774.4244   23803782.8634
       153.0004        156.0004
 21  2  4  0 24 30.0000000  0 10G14G28G30G21G01G08G09G07G17G04
  -2477731.84547  -1921704.44346  23205839.987    23205840.2844   23205845.9904
       164.0004        165.0004
   -991529.48547   -648076.65545  23583877.168    23583876.6764   23583881.4564
       152.0004        154.0004
 -11373365.59548  -8839077.42847  22264271.744    22264271.5364   22264278.2844
       186.0004        188.0004
 -15107343.52748 -11756887.59046  21927609.648    21927609.4384   21927614.9814
       184.0004        184.0004
 -19094339.06349 -14864974.10747  21062814.758    21062816.2714   21062824.4194
       197.0004        197.0004
  -9186098.29048  -7141995.64947  22932905.587    22932906.1374   22932915.7144
       193.0004        193.0004
 -12007253.41848  -9328406.73447  22007901.159    22007901.9784   22007909.2124
       193.0004        193.0004
 -20902168.75749 -16266428.47247  20595540.236    20595540.8494   20595545.6474
       208.0004        209.0004
 -10885765.33648  -8462216.49246  22598128.981    22598129.2464   22598133.6754
       178.0004        178.0004
  -3135477.41547  -2416969.52245  23822444.759    23822444.7604   23822452.1714
       154.0004        157.0004
 21  2  4  0 25  0.0000000  0 10G14G28G30G21G01G08G09G07G17G04
  -2504377.33747  -1942467.13346  23200769.663    23200770.0214   23200775.4174
       163.0004        164.0004
  -1006868.37047   -660029.03845  23580958.662    23580959.0144   23580962.3254
       150.0004        151.0004
 -11457588.21548  -8904705.43146  22248244.399    22248244.5964   22248251.4384
       187.0004        187.0004
 -15075449.93048 -11732035.41346  21933679.586    21933679.3954   21933684.1604
       184.0004        184.0004
 -19135883.93349 -14897346.71147  21054910.879    21054910.8624   21054918.4344
       197.0004        197.0004
  -9092129.82648  -7068773.46647  22950786.291    22950787.6774   22950797.6524
       193.0004        194.0004
 -11936004.38748  -9272888.01047  22021459.763    22021460.3594   22021467.5564
       193.0004        193.0004
 -20952270.39649 -16305468.70147  20586005.888    20586006.5754   20586011.2274
       208.0004        209.0004
 -10951106.17448  -8513131.38946  22585694.729    22585694.7574   22585699.4814
       178.0004        179.0004
  -3037405.98947  -2340550.27345  23841108.403    23841108.4514   23841115.1624
       154.0004        157.0004
 21  2  4  0 25 30.0000000  0 10G14G28G30G21G01G08G09G07G17G04
