     2.11           OBSERVATION DATA    G (GPS)             RINEX VERSION / TYPE
teqc  2018Jun8                          20210202 03:10:45UTCPGM / RUN BY / DATE
Linux2.6.32-573.12.1.el6.x86_64|x86_64|gcc|Win64-MinGW64|=+ COMMENT
BIT 2 OF LLI FLAGS DATA COLLECTED UNDER A/S CONDITION       COMMENT
-Unknown-                                                   MARKER NAME
CRNO                                                        MARKER NUMBER
-Unknown-           -Unknown-                               OBSERVER / AGENCY
-Unknown-           ASHTECH             -Unknown-           REC # / TYPE / VERS
-Unknown-           -Unknown-                               ANT # / TYPE
   408078.4762 -6158373.1996  1605161.0793                  APPROX POSITION XYZ
        0.0000        0.0000        0.0000                  ANTENNA: DELTA H/E/N
     1     1                                                WAVELENGTH FACT L1/2
     7    L1    L2    C1    P1    P2    S1    S2            # / TYPES OF OBSERV
    30.0000                                                 INTERVAL
Forced Modulo Decimation to 30 seconds                      COMMENT
 SNR is mapped to RINEX snr flag value [1-9]                COMMENT
  L1: 1 -> 1;  90 -> 5; 210 -> 9                            COMMENT
  L2: 1 -> 1; 150 -> 5; 250 -> 9                            COMMENT
pseudorange smoothing corrections not applied               COMMENT
  2021     2     5     0     0   30.0000000     GPS         TIME OF FIRST OBS
                                                            END OF HEADER
 21  2  5  0  0 30.0000000  0  7G30G04G21G01G08G27G09
  -3710872.67247  -2866290.78545  23854061.498    23854061.5974   23854068.7074
       154.0004        155.0004
 -12373666.13248  -9610203.18446  22038197.570    22038198.4214   22038203.8814
       182.0004        181.0004
 -11498577.03748  -8941081.42546  21789654.140    21789652.8924   21789658.7634
       181.0004        181.0004
 -13290331.06348 -10341833.97046  22169271.595    22169272.0794   22169280.5794
       176.0004        176.0004
 -16701044.87149 -12985488.23947  21341362.559    21341362.4694   21341369.2154
       196.0004        197.0004
  -3979952.52048  -3087978.52146  24319125.242    24319124.6844   24319130.1494
       172.0004        172.0004
 -17967262.16749 -13969521.14847  20984669.383    20984669.5384   20984675.7764
       211.0004        211.0004
 21  2  5  0  1  0.0000000  0  7G30G04G21G01G08G27G09
  -3797627.87947  -2933892.20345  23837552.993    23837552.8334   23837560.5454
       152.0004        153.0004
 -12284927.03348  -9541055.83446  22055083.648    22055084.8234   22055090.9584
       182.0004        182.0004
 -11512807.64848  -8952170.19846  21786945.875    21786945.5034   21786950.4294
       181.0004        181.0004
 -13363553.70448 -10398890.55146  22155338.500    22155338.8004   22155347.1724
       176.0004        177.0004
 -16624619.23149 -12925935.79347  21355904.721    21355905.1264   21355912.3564
       196.0004        195.0004
  -3871491.61648  -3003463.55946  24339765.436    24339764.5504   24339771.4854
       170.0004        170.0004
 -17932257.90449 -13942245.10647  20991329.683    20991330.1034   20991337.6274
       210.0004        211.0004
 21  2  5  0  1 30.0000000  0  8G30G04G21G01G08G17G27G09
  -3884450.49347  -3001546.15745  23821031.457    23821031.0064   23821037.6094
       151.0004        153.0004
 -12195951.71748  -9471724.41746  22072014.846    22072016.3714   22072022.5574
       182.0004        181.0004
 -11526610.69648  -8962925.78446  21784317.203    21784317.7844   21784323.3794
       180.0004        180.0004
 -13436604.37548 -10455813.10646  22141435.942    22141436.9214   22141446.1054
       176.0004        177.0004
 -16547873.98649 -12866134.29747  21370509.614    21370509.8704   21370516.3134
       195.0004        195.0004
   -775937.38554   -572986.05345  24125238.961
        74.0004        146.0004
  -3763001.74848  -2918925.99346  24360410.733    24360409.8624   24360414.7344
       169.0004        169.0004
 -17896766.22949 -13914589.25147  20998083.807    20998083.9714   20998091.6644
       210.0004        211.0004
 21  2  5  0  2  0.0000000  0  8G30G04G21G01G08G17G27G09
  -3971338.01847  -3069250.64745  23804495.354    23804495.9214   23804504.6994
       151.0004        155.0004
 -12106742.30348  -9402210.61046  22088991.830    22088992.0274   22088998.9194
       182.0004        183.0004
 -11539983.71248  -8973346.31646  21781772.549    21781773.2144   21781777.7444
       180.0004        180.0004
 -13509478.69248 -10512598.27946  22127568.942    22127569.7374   22127580.0504
       176.0004        177.0004
 -16470811.23849 -12806085.41347  21385173.948    21385174.2294   21385180.8614
       195.0004        195.0004
   -872215.68647   -648007.90645  24106917.258                    24106927.4334
       137.0004        149.0004
  -3654484.44548  -2834367.04046  24381060.348    24381059.7874   24381066.0604
       170.0004        171.0004
 -17860788.15749 -13886554.40647  21004930.179    21004930.5114   21004937.8604
       211.0004        211.0004
 21  2  5  0  2 30.0000000  0  8G30G04G21G01G08G17G27G09
  -4058290.67247  -3137005.91945  23787950.698    23787950.0004   23787956.9344
       155.0004        158.0004
 -12017303.66748  -9332518.16046  22106011.654    22106012.3094   22106018.5854
       183.0004        183.0004
 -11552927.18248  -8983432.09046  21779310.357    21779310.4644   21779316.1714
       180.0004        180.0004
 -13582175.29848 -10569244.94646  22113736.117    22113736.6014   22113744.5984
       177.0004        177.0004
 -16393435.68848 -12745792.75947  21399897.819    21399898.1124   21399904.6594
       194.0004        195.0004
   -968264.26747   -722850.77745  24088640.594    24088640.5584   24088648.0984
       144.0004        149.0004
  -3545944.24148  -2749790.30346  24401714.028    24401714.0044   24401721.1804
       170.0004        171.0004
 -17824327.63049 -13858143.60347  21011868.315    21011868.8904   21011875.9014
       210.0004        210.0004
 21  2  5  0  3  0.0000000  0  8G30G04G21G01G08G17G27G09
  -4145307.06647  -3204810.89545  23771392.899    23771392.0554   23771398.1074
       157.0004        159.0004
 -11927639.09248  -9262649.65746  22123074.627    22123074.9664   22123080.9134
       183.0004        182.0004
 -11565439.39948  -8993181.84746  21776929.498    21776929.2394   21776934.3934
       180.0004        180.0004
 -13654691.15448 -10625750.77146  22099937.262    22099937.3474   22099945.4134
       177.0004        177.0004
 -16315750.46648 -12685258.81747  21414680.366    21414681.1924   21414687.9704
       194.0004        194.0004
  -1064081.39047   -797513.29545  24070407.300    24070408.0904   24070413.3974
       148.0004        153.0004
  -3437383.97148  -2665197.91046  24422370.955    24422372.3814   24422378.1494
       170.0004        170.0004
 -17787386.88749 -13829358.61447  21018897.820    21018898.1054   21018905.7914
       209.0004        209.0004
 21  2  5  0  3 30.0000000  0  8G30G04G21G01G08G17G27G09
  -4232384.15747  -3272663.14845  23754821.549    23754820.7814   23754829.3644
       157.0004        160.0004
 -11837750.17048  -9192606.34746  22140180.184    22140180.2874   22140187.1064
       183.0004        182.0004
 -11577517.43048  -9002593.29246  21774631.096    21774630.7394   21774636.0314
       181.0004        181.0004
 -13727021.63948 -10682112.16446  22086171.809    22086173.0994   22086181.1224
       177.0004        178.0004
 -16237757.12848 -12624484.79247  21429522.796    21429523.0564   21429529.9144
       194.0004        195.0004
  -1159663.29047   -871992.55045  24052218.650    24052219.0604   24052225.6874
       153.0004        157.0004
  -3328804.80348  -2580590.75746  24443032.206    24443034.1694   24443040.2934
       167.0004        167.0004
 -17749966.59349 -13800199.95047  21026019.021    21026019.2094   21026026.2774
       209.0004        209.0004
 21  2  5  0  4  0.0000000  0  8G30G04G21G01G08G17G27G09
  -4319518.56147  -3340560.02345  23738241.123    23738240.1774   23738248.0844
       158.0004        161.0004
 -11747638.12048  -9122389.16846  22157327.357    22157327.8634   22157333.9754
       182.0004        181.0004
 -11589157.74948  -9011663.64546  21772417.248    21772417.2324   21772421.0554
       182.0004        183.0004
 -13799161.63748 -10738325.12446  22072445.037    22072445.8004   22072454.2484
       178.0004        179.0004
 -16159457.00448 -12563471.71047  21444422.467    21444422.6784   21444430.2604
       194.0004        194.0004
  -1255006.28747   -946285.66945  24034076.490    24034076.0334   24034081.9514
       153.0004        154.0004
  -3220207.48048  -2495969.51146  24463698.689    24463699.4734   24463705.4924
       166.0004        168.0004
 -17712067.07549 -13770667.85647  21033230.270    21033230.4874   21033238.1324
       208.0004        208.0004
 21  2  5  0  4 30.0000000  0  8G30G04G21G01G08G17G27G09
  -4406708.88147  -3408500.50645  23721648.497    23721648.4194   23721655.3794
       158.0004        159.0004
 -11657306.31848  -9052000.73946  22174516.511    22174517.2774   22174522.7974
       181.0004        180.0004
 -11600359.19448  -9020392.00846  21770285.061    21770284.6134   21770290.0524
       182.0004        183.0004
 -13871108.22448 -10794387.36746  22058753.652    22058754.1604   22058763.7234
       179.0004        179.0004
 -16080853.65648 -12502222.35547  21459380.225    21459380.7044   21459387.4344
       193.0004        194.0004
  -1350108.27647  -1020390.96945  24015977.863    24015978.6194   24015984.4164
       151.0004        153.0004
  -3111594.95348  -2411336.36546  24484367.337    24484367.5444   24484374.5534
       167.0004        169.0004
 -17673690.73349 -13740764.21947  21040533.541    21040533.8184   21040541.0504
       208.0004        208.0004
 21  2  5  0  5  0.0000000  0  8G30G04G21G01G08G17G27G09
  -4493952.97147  -3476482.89545  23705046.194    23705046.3414   23705053.4574
       156.0004        158.0004
 -11566757.31848  -8981443.08046  22191747.399    22191748.0064   22191754.0324
       181.0004        181.0004
 -11611119.99048  -9028777.03046  21768236.025    21768236.3664   21768242.7954
       182.0004        182.0004
 -13942857.58648 -10850295.93946  22045099.505    22045100.7494   22045108.8654
       178.0004        178.0004
 -16001949.00248 -12440738.21947  21474396.767    21474396.5694   21474401.6244
       193.0004        193.0004
  -1444966.84847  -1094306.61345  23997927.485    23997928.2184   23997932.0954
       149.0004        151.0004
  -3002969.24548  -2326693.00946  24505036.775    24505037.4634   24505045.7104
       166.0004        167.0004
 -17634839.16249 -13710490.28347  21047926.571    21047927.0824   21047934.2684
       208.0004        209.0004
 21  2  5  0  5 30.0000000  0  8G30G04G21G01G08G17G27G09
  -4581249.26347  -3544505.94545  23688434.491    23688434.3874   23688442.1294
       155.0004        157.0004
 -11475994.20148  -8910718.57646  22209019.709    22209020.2424   22209024.7364
       180.0004        179.0004
 -11621438.29348  -9036817.25246  21766273.470    21766273.5344   21766278.7594
       182.0004        182.0004
 -14014406.57248 -10906048.38146  22031484.538    22031485.7284   22031492.8434
       178.0004        178.0004
 -15922746.40948 -12379021.91647  21489467.868    21489467.8864   21489473.9994
       193.0004        193.0004
  -1539579.90247  -1168030.99245  23979924.217    23979924.4854   23979929.4364
       151.0004        154.0004
  -2894332.98148  -2242041.38846  24525710.088    24525710.8884   24525717.2824
       166.0004        166.0004
 -17595514.69849 -13679847.84647  21055410.079    21055410.4594   21055417.5454
       209.0004        209.0004
 21  2  5  0  6  0.0000000  0  8G30G04G21G01G08G17G27G09
  -4668597.49947  -3612569.49445  23671813.474    23671813.0774   23671819.7934
       156.0004        158.0004
 -11385021.54448  -8839830.77446  22226330.830    22226331.4944   22226336.8294
       180.0004        180.0004
 -11631314.68848  -9044513.11146  21764394.476    21764393.7454   21764399.0334
       182.0004        182.0004
 -14085753.40248 -10961643.27546  22017907.587    22017908.4354   22017916.2424
       178.0004        179.0004
 -15843250.18248 -12317076.79547  21504593.975    21504594.3134   21504601.2284
       192.0004        191.0004
  -1633946.34047  -1241563.17645  23961965.731    23961967.0104   23961972.0554
       153.0004        156.0004
  -2785690.32348  -2157384.74246  24546382.289    24546383.9504   24546392.8364
       166.0004        167.0004
 -17555720.87949 -13648839.67647  21062983.264    21062983.0324   21062990.2334
       209.0004        210.0004
 21  2  5  0  6 30.0000000  0  8G30G04G21G01G08G17G27G09
  -4755994.93647  -3680671.38545  23655181.699    23655181.1024   23655188.5064
       157.0004        160.0004
 -11293841.21248  -8768781.15846  22243682.483    22243682.2584   22243688.5864
       180.0004        179.0004
 -11640746.40848  -9051862.50246  21762600.334    21762599.5214   21762603.3974
       182.0004        183.0004
 -14156893.71648 -11017077.27046  22004369.234    22004370.3144   22004378.3024
       178.0004        178.0004
 -15763462.12048 -12254904.28647  21519777.107    21519777.8974   21519784.6894
       191.0004        191.0004
  -1728063.52547  -1314901.13745  23944054.945    23944055.3414   23944061.1154
       151.0004        153.0004
  -2677042.40148  -2072724.08446  24567056.667    24567058.9924   24567067.0324
       166.0004        168.0004
 -17515458.81649 -13617466.63747  21070644.073    21070644.4024   21070651.8094
       209.0004        209.0004
 21  2  5  0  7  0.0000000  0  7G30G04G21G01G08G17G09
  -4843440.67447  -3748810.91645  23638540.558    23638541.0904   23638548.2564
       159.0004        161.0004
 -11202457.15948  -8697572.82446  22261071.792    22261072.2324   22261079.1694
       180.0004        179.0004
 -11649732.22348  -9058864.43646  21760889.955    21760889.5394   21760893.1964
       182.0004        182.0004
 -14227825.11148 -11072348.46446  21990872.096    21990872.9344   21990881.1644
       178.0004        180.0004
 -15683386.46048 -12192507.66547  21535015.482    21535015.8344   21535023.0834
       191.0004        192.0004
  -1821929.98147  -1388043.68545  23926192.829    23926192.5964   23926199.8164
       152.0004        155.0004
 -17474731.59949 -13585731.15247  21078393.880    21078394.3194   21078401.6704
       208.0004        208.0004
 21  2  5  0  7 30.0000000  0  7G30G04G21G01G08G17G09
  -4930933.03147  -3816986.75345  23621891.203    23621892.1484   23621898.0024
       159.0004        160.0004
 -11110872.41148  -8626208.10646  22278500.239    22278500.3384   22278506.6234
       179.0004        177.0004
 -11658271.15548  -9065518.14346  21759264.663    21759264.1774   21759268.2684
       182.0004        182.0004
 -14298544.25248 -11127454.26746  21977416.044    21977416.4054   21977423.7934
       179.0004        180.0004
 -15603025.92648 -12129889.07347  21550308.197    21550308.2074   21550315.0724
       192.0004        192.0004
  -1915543.75547  -1460989.37545  23908379.638    23908379.8864   23908385.6244
       154.0004        157.0004
 -17433541.43149 -13553634.91647  21086232.797    21086232.9364   21086240.0454
       208.0004        209.0004
 21  2  5  0  8  0.0000000  0  8G30G04G21G01G08G14G17G09
  -5018469.91347  -3885197.27245  23605232.513    23605232.6754   23605241.3004
       158.0004        160.0004
 -11019089.58348  -8554689.03246  22295965.586    22295965.8364   22295971.5824
       177.0004        176.0004
 -11666361.32248  -9071822.15246  21757724.491    21757724.4714   21757729.0414
       182.0004        182.0004
 -14369047.54648 -11182391.87646  21963999.542    21963999.5494   21964007.3734
       179.0004        179.0004
 -15522383.12148 -12067050.52547  21565653.796    21565654.3304   21565660.5594
       192.0004        192.0004
   -162633.27856    -94243.96245  23607410.559                    23607412.6734
       124.0004        142.0004
  -2008902.00847  -1533735.97545  23890614.074    23890613.4474   23890619.5854
       154.0004        157.0004
 -17391890.14249 -13521179.37147  21094159.043    21094159.3254   21094166.3454
       209.0004        210.0004
 21  2  5  0  8 30.0000000  0  8G30G04G21G01G08G14G17G09
  -5106049.31847  -3953440.92946  23588568.687    23588568.8954   23588576.4704
       160.0004        163.0004
 -10927111.59148  -8483017.86946  22313468.800    22313468.8924   22313474.1974
       176.0004        176.0004
 -11674001.19948  -9077775.28546  21756271.012    21756270.6334   21756275.8274
       182.0004        182.0004
 -14439331.53348 -11237158.59346  21950623.822    21950624.6984   21950632.5564
       179.0004        180.0004
 -15441460.87148 -12003994.21447  21581053.106    21581052.6994   21581059.4234
       191.0004        190.0004
   -189929.62747   -115513.78545  23602218.543    23602216.6584   23602217.5154
       136.0004        144.0004
  -2102002.87147  -1606282.00645  23872896.907    23872897.2434   23872904.3904
       155.0004        158.0004
 -17349779.84749 -13488366.15847  21102172.299    21102172.3714   21102179.4674
       209.0004        209.0004
 21  2  5  0  9  0.0000000  0  8G30G04G21G01G08G14G17G09
  -5193670.62347  -4021717.26445  23571894.965    23571895.0714   23571901.3614
       160.0004        162.0004
 -10834942.51348  -8411197.79546  22331007.339    22331008.0034   22331014.5364
       177.0004        177.0004
 -11681190.42948  -9083377.24946  21754902.993    21754902.4774   21754908.0644
       183.0004        184.0004
 -14509393.99448 -11291752.67946  21937292.108    21937292.3104   21937300.4914
       180.0004        181.0004
 -15360263.11948 -11940723.24047  21596504.259    21596504.9334   21596511.3854
       190.0004        190.0004
   -217169.94247   -136739.96045  23597032.089    23597034.5194   23597037.4034
       139.0004        146.0004
  -2194845.38947  -1678626.68745  23855230.439    23855229.4524   23855236.3324
       156.0004        158.0004
 -17307213.89149 -13455197.86647  21110271.074    21110271.5634   21110279.4834
       208.0004        208.0004
 21  2  5  0  9 30.0000000  0  8G30G04G21G01G08G14G17G09
  -5281332.35047  -4090025.09346  23555213.223    23555213.3964   23555220.0374
       161.0004        164.0004
 -10742585.70948  -8339231.45146  22348580.571    22348581.9814   22348589.5704
       177.0004        177.0004
 -11687927.80948  -9088627.13346  21753621.611    21753620.4414   21753625.9994
       184.0004        184.0004
 -14579231.98948 -11346171.87546  21924002.012    21924002.0814   21924010.2114
       180.0004        180.0004
 -15278793.20448 -11877240.19147  21612007.476    21612008.2024   21612014.4914
       191.0004        191.0004
   -244355.80247   -157923.69745  23591859.803    23591860.2974   23591864.4964
       139.0004        143.0004
  -2287427.66147  -1750768.59745  23837611.491    23837611.6734   23837618.2324
       155.0004        157.0004
 -17264194.82949 -13421676.53447  21118458.498    21118458.8404   21118465.4614
       208.0004        208.0004
 21  2  5  0 10  0.0000000  0  8G30G04G21G01G08G14G17G09
  -5369030.99347  -4158361.69646  23538524.586    23538525.0464   23538532.1484
       164.0004        166.0004
 -10650042.46748  -8267119.84746  22366191.531    22366192.3694   22366199.8374
       176.0004        176.0004
 -11694210.34448  -9093522.59746  21752425.848    21752425.4604   21752430.8544
       184.0004        184.0004
 -14648840.51348 -11400412.28146  21910755.814    21910756.5404   21910764.4964
       180.0004        181.0004
 -15197052.61248 -11813546.22847  21627562.694    21627563.2574   21627569.3304
       191.0004        192.0004
   -271486.77347   -179064.67045  23586695.419    23586697.3314   23586705.6844
       143.0004        149.0004
  -2379745.52147  -1822704.48645  23820042.715    23820043.8854   23820050.1644
       156.0004        158.0004
 -17220723.28249 -13387802.60947  21126730.928    21126730.9164   21126737.6364
       208.0004        208.0004
 21  2  5  0 10 30.0000000  0  8G30G04G21G01G08G14G17G09
  -5456763.62747  -4226724.75746  23521828.380    23521829.1244   23521837.2554
       164.0004        166.0004
 -10557314.68048  -8194864.43746  22383838.094    22383838.1304   22383844.6314
       175.0004        174.0004
 -11700035.66248  -9098061.78546  21751316.086    21751316.9014   21751322.2064
       184.0004        183.0004
 -14718215.13448 -11454470.40646  21897553.983    21897554.5654   21897563.5964
       180.0004        181.0004
 -15115042.89348 -11749642.56247  21643168.636    21643168.8344   21643175.3294
       192.0004        192.0004
   -298562.98547   -200163.00245  23581543.008    23581544.4504   23581552.3234
       150.0004        155.0004
  -2471796.52447  -1894432.44845  23802528.067    23802527.9024   23802533.2374
       156.0004        158.0004
 -17176800.35749 -13353576.96247  21135088.977    21135089.5334   21135096.4084
       208.0004        209.0004
 21  2  5  0 11  0.0000000  0  8G30G04G21G01G08G14G17G09
  -5544529.38447  -4295113.61246  23505127.278    23505127.8894   23505136.1534
       164.0004        165.0004
 -10464406.32748  -8122468.33246  22401518.553    22401519.2444   22401524.9344
       176.0004        177.0004
 -11705403.51448  -9102244.51446  21750295.085    21750295.5184   21750300.2464
       183.0004        183.0004
 -14787353.51148 -11508344.46546  21884398.195    21884398.5144   21884406.3314
       181.0004        182.0004
 -15032767.88548 -11685532.16247  21658823.815    21658824.5544   21658832.0484
       190.0004        189.0004
   -325586.69447   -221220.41645  23576401.573    23576401.7154   23576409.4224
       154.0004        156.0004
  -2563579.00447  -1965951.16545  23785061.202    23785061.6604   23785068.5464
       155.0004        157.0004
 -17132429.35749 -13319002.15447  21143532.556    21143532.8814   21143539.7784
       209.0004        209.0004
 21  2  5  0 11 30.0000000  0  8G30G04G21G01G08G14G17G09
  -5632326.74147  -4363527.10446  23488421.347    23488421.2434   23488427.6604
       164.0004        165.0004
 -10371320.80748  -8049934.15446  22419232.430    22419232.4254   22419238.3694
       176.0004        176.0004
 -11710312.65448  -9106069.78846  21749360.629    21749360.7364   21749365.2814
       183.0004        183.0004
 -14856252.74748 -11562032.16146  21871286.112    21871286.6974   21871295.7044
       181.0004        182.0004
 -14950231.28448 -11621217.92247  21674529.963    21674531.0414   21674538.1654
       189.0004        190.0004
   -352559.51847   -242238.17345  23571269.070    23571270.1414   23571275.1684
       155.0004        157.0004
  -2655091.31347  -2037259.36145  23767645.747    23767647.3014   23767652.8924
       152.0004        153.0004
 -17087613.00249 -13284080.31247  21152060.183    21152060.9344   21152068.2854
       209.0004        209.0004
 21  2  5  0 12  0.0000000  0  8G30G04G21G01G08G14G17G09
  -5720154.71048  -4431964.47746  23471708.693    23471708.5194   23471714.9944
       165.0004        166.0004
 -10278061.89748  -7977264.86446  22436977.789    22436979.1434   22436984.2014
       175.0004        175.0004
 -11714762.51948  -9109537.20046  21748515.865    21748514.3604   21748518.7644
       183.0004        183.0004
 -14924910.35148 -11615531.58146  21858221.012    21858222.2774   21858230.5194
       181.0004        182.0004
 -14867436.50648 -11556702.50647  21690285.866    21690285.8754   21690293.1074
       190.0004        190.0004
   -379483.56447   -263217.91145  23566145.749    23566145.8914   23566150.4724
       154.0004        155.0004
  -2746332.64347  -2108356.38245  23750283.488    23750284.0844   23750290.6924
       152.0004        156.0004
 -17042354.41949 -13248813.89247  21160673.396    21160673.3374   21160680.4434
       209.0004        209.0004
 21  2  5  0 12 30.0000000  0  8G30G04G21G01G08G14G17G09
  -5808010.76148  -4500423.71746  23454989.621    23454989.7844   23454996.4914
       165.0004        165.0004
 -10184631.93748  -7904462.27746  22454758.178    22454758.2204   22454763.5474
       176.0004        175.0004
 -11718751.28448  -9112645.30246  21747755.233    21747754.6534   21747759.0764
       183.0004        182.0004
 -14993322.32848 -11668839.61546  21845202.779    21845204.0774   21845211.7544
       181.0004        182.0004
 -14784385.99449 -11491987.83747  21706090.493    21706090.7094   21706096.9154
       205.0004        209.0004
   -406359.43547   -284160.10445  23561030.060    23561030.8174   23561036.2044
       153.0004        155.0004
  -2837299.95547  -2179239.89745  23732973.972    23732974.1724   23732980.0814
       155.0004        158.0004
 -16996655.31849 -13213204.20947  21169369.668    21169369.8734   21169377.2894
       209.0004        209.0004
 21  2  5  0 13  0.0000000  0  8G30G04G21G01G08G14G17G09
  -5895892.88147  -4568903.28446  23438265.393    23438265.3214   23438272.2664
       163.0004        163.0004
 -10091033.82548  -7831528.69846  22472569.560    22472569.8314   22472575.2514
       176.0004        176.0004
 -11722277.85648  -9115393.27846  21747083.997    21747083.5344   21747088.3064
       183.0004        183.0004
 -15061485.25948 -11721953.57946  21832232.034    21832232.5364   21832240.5004
       182.0004        182.0004
 -14701082.48449 -11427076.01647  21721942.925    21721942.9664   21721948.5914
       209.0004        208.0004
   -433188.17947   -305065.60545  23555925.555    23555926.4634   23555930.6984
       154.0004        157.0004
  -2927991.23147  -2249908.31945  23715716.994    23715716.8644   23715721.1054
       156.0004        158.0004
 -16950517.94249 -13177253.01647  21178148.852    21178149.3634   21178156.5854
       209.0004        209.0004
 21  2  5  0 13 30.0000000  0  8G30G04G21G01G08G14G17G09
  -5983799.75347  -4637402.11346  23421536.134    23421537.8044   23421544.4324
       162.0004        163.0004
  -9997271.13848  -7758466.86646  22490410.573    22490411.3264   22490417.6704
       175.0004        175.0004
 -11725341.61448  -9117780.61246  21746500.488    21746500.5854   21746505.4784
       183.0004        184.0004
 -15129396.46348 -11774871.37946  21819308.903    21819309.2184   21819318.0414
       181.0004        182.0004
 -14617529.37849 -11361969.68248  21737841.542    21737841.6604   21737848.4744
       217.0004        220.0004
   -459971.66047   -325935.79245  23550828.255    23550829.6924   23550834.4684
       156.0004        158.0004
  -3018405.06247  -2320360.53345  23698510.564    23698511.0764   23698515.9314
       157.0004        159.0004
 -16903945.22949 -13140962.58647  21187011.718    21187012.0744   21187018.6294
       208.0004        208.0004
 21  2  5  0 14  0.0000000  0  8G30G04G21G01G08G14G17G09
  -6071728.02347  -4705917.63246  23404804.575    23404805.0004   23404812.5134
       163.0004        165.0004
  -9903345.32448  -7685277.92046  22508284.351    22508284.8734   22508291.8174
       175.0004        176.0004
 -11727939.33048  -9119804.77946  21746007.117    21746006.7834   21746010.9354
       184.0004        185.0004
 -15197051.11748 -11827589.28246  21806434.965    21806435.3144   21806443.5404
       182.0004        184.0004
 -14533728.62149 -11296670.40248  21753787.943    21753788.0944   21753795.5404
       220.0004        220.0004
   -486709.65347   -346770.54745  23545741.825    23545742.1084   23545745.9884
       154.0004        155.0004
  -3108537.52647  -2390593.51145  23681359.322    23681360.2164   23681365.6054
       158.0004        160.0004
 -16856938.10549 -13104333.66547  21195957.312    21195957.5784   21195963.8844
       208.0004        209.0004
 21  2  5  0 14 30.0000000  0  8G30G04G21G01G08G14G17G09
  -6159677.21047  -4774449.44246  23388068.710    23388069.5244   23388076.9494
       163.0004        165.0004
  -9809261.01848  -7611965.48046  22526187.807    22526188.7194   22526195.0304
       176.0004        176.0004
 -11730071.61248  -9121466.30146  21745601.943    21745601.2894   21745606.2134
       185.0004        186.0004
 -15264447.51448 -11880105.92846  21793609.067    21793610.3454   21793619.0724
       183.0004        183.0004
 -14449684.26149 -11231181.30548  21769781.569    21769781.6294   21769788.6884
       221.0004        221.0004
   -513405.03547   -367572.12145  23540660.035    23540660.9314   23540665.9264
       153.0004        156.0004
  -3198388.55347  -2460607.23545  23664261.827    23664262.4364   23664267.6454
       158.0004        160.0004
 -16809500.57549 -13067369.35847  21204984.317    21204984.1754   21204991.0964
       208.0004        208.0004
 21  2  5  0 15  0.0000000  0  8G30G04G21G01G08G14G17G09
  -6247644.95547  -4842995.76545  23371328.996    23371330.5404   23371335.6004
       162.0004        162.0004
  -9715020.48748  -7538531.32546  22544121.798    22544122.1564   22544128.8494
       176.0004        175.0004
 -11731736.73248  -9122763.77646  21745284.140    21745283.7124   21745290.0974
       186.0004        186.0004
 -15331581.67048 -11932418.24046  21780834.523    21780835.3084   21780843.6434
       183.0004        185.0004
 -14365398.38049 -11165504.00048  21785820.645    21785821.1324   21785827.2474
       221.0004        220.0004
   -540058.26347   -388340.84545  23535587.982    23535589.0174   23535594.9994
       157.0004        161.0004
  -3287955.45347  -2530399.54545  23647217.774    23647217.7894   23647222.6744
       158.0004        159.0004
 -16761634.40849 -13030071.06547  21214092.835    21214092.8894   21214099.4244
       208.0004        207.0004
 21  2  5  0 15 30.0000000  0  8G30G04G21G01G08G14G17G09
  -6335629.62247  -4911555.23946  23354585.797    23354586.5064   23354593.7614
       161.0004        164.0004
  -9620627.12048  -7464978.04046  22562084.994    22562084.7524   22562090.4454
       175.0004        175.0004
 -11732933.97348  -9123696.68246  21745056.668    21745056.1864   21745062.2284
       186.0004        187.0004
 -15398450.70548 -11984523.95846  21768109.898    21768110.2064   21768117.9774
       183.0004        183.0004
 -14280874.97049 -11099641.59548  21801906.043    21801905.8104   21801911.6444
       221.0004        220.0004
   -566671.04647   -409078.05046  23530524.277    23530524.8884   23530530.3254
       162.0004        164.0004
  -3377236.69647  -2599969.26545  23630226.568    23630227.4914   23630232.7734
       157.0004        159.0004
 -16713342.39449 -12992440.92847  21223282.158    21223282.2724   21223289.5244
       207.0004        207.0004
 21  2  5  0 16  0.0000000  0  8G30G04G21G01G08G14G17G09
  -6423628.84347  -4980126.02746  23337841.363    23337841.7154   23337848.5464
       164.0004        167.0004
  -9526083.51148  -7391307.68746  22580074.101    22580075.3094   22580081.7384
       175.0004        175.0004
 -11733661.67448  -9124263.68746  21744917.492    21744917.1714   21744924.5494
       187.0004        187.0004
 -15465050.92848 -12036420.20846  21755435.125    21755436.1434   21755444.6404
       182.0004        183.0004
 -14196116.09049 -11033595.71348  21818033.929    21818034.5364   21818040.8334
       220.0004        219.0004
   -593244.17648   -429784.37446  23525467.607    23525468.9674   23525473.7284
       165.0004        167.0004
  -3466229.64847  -2669314.32745  23613290.864    23613291.8034   23613297.7184
       157.0004        159.0004
 -16664626.57349 -12954480.54147  21232552.261    21232552.5314   21232560.1594
       207.0004        208.0004
 21  2  5  0 16 30.0000000  0  8G30G04G21G01G08G14G17G09
  -6511640.61648  -5048706.61546  23321092.499    23321093.0904   23321100.2454
       165.0004        166.0004
  -9431392.64548  -7317522.60846  22598093.545    22598093.8424   22598100.6164
       175.0004        175.0004
 -11733918.72448  -9124463.95647  21744869.418    21744868.7294   21744875.4384
       187.0004        188.0004
 -15531379.02448 -12088104.41346  21742815.693    21742816.1834   21742822.9544
       184.0004        186.0004
 -14111124.90549 -10967368.81648  21834207.375    21834207.1634   21834214.0264
       220.0004        219.0004
   -619778.90148   -450460.75946  23520419.104    23520419.3264   23520424.7164
       165.0004        166.0004
  -3554932.75747  -2738433.54345  23596412.897    23596413.1194   23596417.3874
       157.0004        158.0004
 -16615489.45349 -12916191.86747  21241902.604    21241902.8414   21241910.3534
       207.0004        207.0004
 21  2  5  0 17  0.0000000  0  8G30G04G21G01G08G14G17G09
  -6599664.17648  -5117296.38746  23304341.230    23304341.5604   23304349.6074
       165.0004        166.0004
  -9336558.63748  -7243625.99246  22616140.920    22616141.3514   22616146.7244
       175.0004        174.0004
 -11733705.20948  -9124297.56047  21744909.077    21744909.3464   21744916.0934
       188.0004        188.0004
 -15597432.91948 -12139574.97246  21730244.275    21730245.7004   21730253.0454
       185.0004        185.0004
 -14025905.11149 -10900963.77648  21850424.168    21850424.2614   21850431.3154
       220.0004        219.0004
   -646277.56647   -471109.06346  23515375.851    23515376.3234   23515381.7884
       164.0004        165.0004
  -3643345.02347  -2807326.15445  23579587.328    23579586.8704   23579592.1634
       155.0004        156.0004
 -16565934.65849 -12877577.75647  21251333.002    21251332.9004   21251339.7804
       206.0004        206.0004
 21  2  5  0 17 30.0000000  0  8G30G04G21G01G08G14G17G09
  -6687695.75647  -5185892.39346  23287589.279    23287590.4654   23287598.6624
       164.0004        166.0004
  -9241582.67148  -7169618.76546  22634213.778    22634214.1354   22634220.0554
       174.0004        174.0004
 -11733018.19048  -9123762.19446  21745040.001    21745039.8754   21745046.7594
       188.0004        187.0004
 -15663207.56248 -12190827.89846  21717726.148    21717727.8414   21717736.9824
       184.0004        184.0004
 -13940457.88249 -10834381.52848  21866684.353    21866684.7144   21866691.4514
       220.0004        219.0004
   -672739.74447   -491728.92246  23510340.695    23510340.9824   23510346.1694
       162.0004        163.0004
  -3731462.77447  -2875989.26545  23562818.817    23562819.5984   23562824.2384
       155.0004        159.0004
 -16515962.92349 -12838638.74347  21260841.865    21260842.1384   21260849.6154
       206.0004        206.0004
 21  2  5  0 18  0.0000000  0  8G30G04G21G01G08G14G17G09
  -6775733.84947  -5254493.47146  23270837.372    23270836.5794   23270844.8014
       163.0004        165.0004
  -9146468.22148  -7095503.62046  22652313.820    22652314.5774   22652318.9474
       173.0004        173.0004
 -11731857.37648  -9122857.63346  21745261.267    21745260.8244   21745267.1884
       187.0004        186.0004
 -15728700.06448 -12241861.00246  21705265.385    21705265.5154   21705273.6884
       184.0004        185.0004
 -13854787.17449 -10767625.13848  21882987.045    21882987.2244   21882993.8384
       219.0004        218.0004
   -699167.02047   -512321.56046  23505311.995    23505312.8214   23505317.8494
       163.0004        166.0004
  -3819284.60647  -2944421.81845  23546108.105    23546108.6724   23546113.2574
       159.0004        161.0004
 -16465577.23849 -12799377.17447  21270430.037    21270430.2004   21270438.0344
       207.0004        207.0004
 21  2  5  0 18 30.0000000  0  8G30G04G21G01G08G14G17G09
  -6863777.75748  -5323099.11246  23254082.121    23254082.9724   23254090.1664
       166.0004        169.0004
  -9051219.58548  -7021283.88446  22670438.975    22670439.4744   22670445.5094
       174.0004        175.0004
 -11730222.73348  -9121583.87146  21745572.538    21745571.9154   21745577.4264
       186.0004        186.0004
 -15793908.56548 -12292672.80946  21692857.138    21692857.2894   21692865.5424
       185.0004        186.0004
 -13768896.61149 -10700697.41548  21899331.159    21899331.4294   21899338.3114
       219.0004        218.0004
   -725561.95547   -532889.01646  23500288.085    23500288.8514   23500294.6514
       164.0004        166.0004
  -3906809.80847  -3012623.20345  23529451.626    23529452.7334   23529456.5724
       158.0004        160.0004
 -16414781.44649 -12759796.03647  21280096.135    21280096.6994   21280103.9104
       207.0004        207.0004
 21  2  5  0 19  0.0000000  0  8G30G04G21G01G08G14G17G09
  -6951824.50848  -5391706.94646  23237327.007    23237328.1764   23237335.6564
       167.0004        169.0004
  -8955838.70048  -6946961.12346  22688589.313    22688589.5514   22688595.4444
       173.0004        171.0004
 -11728112.39748  -9119939.43046  21745974.166    21745973.5934   21745978.5414
       185.0004        185.0004
 -15858828.79148 -12343259.97246  21680503.347    21680503.6524   21680510.9114
       185.0004        186.0004
 -13682788.51149 -10633600.19648  21915716.561    21915717.1454   21915723.7994
       218.0004        217.0004
   -751924.84647   -553431.51146  23495272.437    23495272.9434   23495277.4774
       164.0004        165.0004
  -3994035.70647  -3080591.38445  23512854.653    23512854.9184   23512858.7804
       158.0004        160.0004
 -16363577.14749 -12719896.58947  21289839.880    21289840.1354   21289847.6074
       206.0004        206.0004
 21  2  5  0 19 30.0000000  0  8G30G04G21G01G08G14G17G09
  -7039872.63648  -5460315.86046  23220572.116    23220572.9584   23220579.8314
       166.0004        166.0004
  -8860329.11948  -6872538.06346  22706764.323    22706764.2884   22706768.9144
       171.0004        170.0004
 -11725525.94248  -9117923.99446  21746465.775    21746465.2554   21746471.1204
       184.0004        184.0004
 -15923458.01748 -12393620.39146  21668203.293    21668205.0214   21668212.5344
       185.0004        185.0004
 -13596466.15249 -10566336.01948  21932143.915    21932143.7394   21932150.3914
       218.0004        218.0004
   -778257.44547   -573950.39046  23490260.779    23490261.7044   23490266.2644
       164.0004        166.0004
  -4080960.78647  -3148325.16445  23496312.188    23496312.1914   23496316.8574
       157.0004        157.0004
 -16311967.37549 -12679681.18247  21299660.360    21299660.9944   21299668.4114
       205.0004        205.0004
 21  2  5  0 20  0.0000000  0  8G30G04G21G01G08G14G17G09
  -7127918.90548  -5528923.35146  23203818.637    23203818.9074   23203825.5284
       167.0004        169.0004
  -8764692.62848  -6798016.11446  22724963.611    22724964.0354   22724969.0654
       170.0004        170.0004
 -11722461.21948  -9115535.88346  21747049.127    21747049.2554   21747053.2444
       184.0004        184.0004
 -15987791.83948 -12443750.61446  21655961.592    21655962.4664   21655970.0754
       185.0004        185.0004
 -13509931.10249 -10498906.11348  21948611.077    21948611.3044   21948617.2534
       218.0004        217.0004
   -804559.75048   -594445.66546  23485256.341    23485256.6924   23485261.5424
       165.0004        166.0004
  -4167581.98447  -3215822.13445  23479827.368    23479828.1474   23479835.0944
       156.0004        160.0004
 -16259953.55649 -12639150.93747  21309558.969    21309559.5264   21309566.3584
       205.0004        206.0004
 21  2  5  0 20 30.0000000  0  8G30G04G21G01G08G14G17G09
  -7215961.57948  -5597528.00446  23187064.263    23187064.5744   23187072.2414
       169.0004        171.0004
  -8668932.50648  -6723397.85646  22743185.976    22743186.4864   22743192.2584
       170.0004        170.0004
 -11718917.57448  -9112774.61046  21747723.287    21747722.5714   21747727.1404
       183.0004        182.0004
 -16051827.24948 -12493648.33546  21643775.918    21643776.7914   21643784.7354
       185.0004        186.0004
 -13423186.68149 -10431313.05848  21965117.599    21965117.9754   21965124.8224
       218.0004        217.0004
   -830833.22347   -614918.47646  23480255.829    23480256.4264   23480261.8924
       164.0004        164.0004
  -4253897.55947  -3283080.95745  23463403.301    23463402.8114   23463410.4424
       158.0004        160.0004
 -16207538.54449 -12598308.08447  21319532.643    21319533.1954   21319540.5744
       205.0004        206.0004
 21  2  5  0 21  0.0000000  0  8G30G04G21G01G08G14G17G09
  -7303998.45448  -5666128.16846  23170312.935    23170311.9924   23170318.5664
       169.0004        171.0004
  -8573051.58048  -6648685.45746  22761431.132    22761431.2914   22761437.3194
       170.0004        171.0004
 -11714893.92548  -9109639.28946  21748489.240    21748489.0364   21748492.7434
       183.0004        183.0004
 -16115560.84948 -12543310.87246  21631647.455    21631647.9644   21631656.1784
       185.0004        185.0004
 -13336235.76449 -10363559.08948  21981663.479    21981663.7924   21981671.5414
       217.0004        217.0004
   -857079.02347   -635369.70846  23475260.949    23475262.3474   23475266.9594
       162.0004        163.0004
  -4339905.79247  -3350100.28645  23447035.659    23447035.1764   23447042.4024
       157.0004        158.0004
 -16154724.80449 -12557154.51747  21329582.822    21329583.2414   21329591.1834
       205.0004        206.0004
 21  2  5  0 21 30.0000000  0  8G30G04G21G01G08G14G17G09
  -7392028.08148  -5734722.68046  23153561.079    23153560.1804   23153567.7024
       170.0004        171.0004
  -8477053.34648  -6573881.64246  22779699.683    22779699.7044   22779705.2184
       170.0004        170.0004
 -11710390.23648  -9106129.91846  21749347.421    21749346.7344   21749350.2504
       183.0004        183.0004
 -16178990.02548 -12592736.17646  21619576.600    21619578.3304   21619586.1984
       185.0004        186.0004
 -13249081.64149 -10295646.79048  21998248.641    21998248.7874   21998255.9094
       217.0004        217.0004
   -883298.86047   -655800.74646  23470272.965    23470272.9034   23470277.7224
       162.0004        164.0004
  -4425605.41747  -3416879.14145  23430729.500    23430729.2474   23430734.1104
       158.0004        162.0004
 -16101515.53149 -12515692.74547  21339708.495    21339708.8344   21339716.5574
       206.0004        206.0004
 21  2  5  0 22  0.0000000  0  8G30G04G21G01G08G14G17G09
  -7480048.95648  -5803310.37046  23136810.039    23136810.5774   23136818.1114
       170.0004        172.0004
  -8380941.33148  -6498989.17146  22797987.572    22797989.2804   22797995.2354
       168.0004        169.0004
 -11705405.95648  -9102246.06246  21750294.505    21750294.4964   21750298.3634
       182.0004        182.0004
 -16242112.08048 -12641922.18546  21607566.312    21607567.2084   21607574.2844
       186.0004        186.0004
 -13161727.73949 -10227578.80948  22014870.383    22014871.5784   22014878.4054
       217.0004        216.0004
   -909494.60047   -676212.99146  23465287.242    23465287.4204   23465292.4654
       163.0004        165.0004
  -4510995.22447  -3483416.59045  23414479.879    23414479.9244   23414483.0674
       160.0004        161.0004
 -16047913.95449 -12473925.28247  21349909.008    21349909.0534   21349916.4904
       205.0004        206.0004
 21  2  5  0 22 30.0000000  0  8G30G04G21G01G08G14G17G09
  -7568057.10548  -5871888.12546  23120062.653    23120062.9824   23120070.4334
       170.0004        172.0004
  -8284716.58748  -6424008.86446  22816298.196    22816298.5634   22816306.5054
       166.0004        166.0004
 -11699938.26148  -9097985.52146  21751334.031    21751334.3104   21751338.5254
       182.0004        182.0004
 -16304921.88748 -12690864.87846  21595613.806    21595614.6694   21595622.5304
       186.0004        187.0004
 -13074175.44349 -10159356.24548  22031532.471    22031532.3304   22031538.9614
       217.0004        216.0004
   -935665.48747   -696605.85146  23460308.121    23460308.3724   23460313.1624
       163.0004        165.0004
  -4596071.31347  -3549709.59345  23398289.736    23398289.9604   23398294.2614
       160.0004        162.0004
 -15993920.78849 -12431852.69147  21360182.986    21360183.7284   21360190.8694
       205.0004        205.0004
 21  2  5  0 23  0.0000000  0  8G30G04G21G01G08G14G17G09
  -7656051.40448  -5940455.09646  23103318.566    23103318.6784   23103324.9354
       171.0004        171.0004
  -8188383.02148  -6348943.74046  22834630.207    22834631.2604   22834637.5154
       166.0004        168.0004
 -11693987.60748  -9093348.63446  21752467.167    21752466.9124   21752470.6214
       182.0004        183.0004
 -16367417.24548 -12739562.54347  21583721.591    21583722.1924   21583730.0174
       188.0004        189.0004
 -12986428.19249 -10090981.76048  22048230.242    22048230.2634   22048236.4924
       217.0004        215.0004
   -961813.67547   -716981.06146  23455331.305    23455332.1624   23455336.9674
       163.0004        163.0004
  -4680832.81147  -3615757.46246  23382160.453    23382160.3754   23382165.4674
       163.0004        165.0004
 -15939539.63149 -12389477.76647  21370531.673    21370532.0584   21370539.2804
       205.0004        204.0004
 21  2  5  0 23 30.0000000  0  8G30G04G21G01G08G14G17G09
  -7744029.57248  -6009009.52446  23086576.219    23086577.1444   23086583.0164
       169.0004        169.0004
  -8091943.44748  -6273796.00546  22852983.411    22852983.7264   22852989.6134
       167.0004        169.0004
 -11687552.93748  -9088334.59346  21753692.689    21753691.7864   21753695.7134
       182.0004        182.0004
 -16429594.66048 -12788012.44747  21571890.457    21571890.8654   21571897.8854
       188.0004        189.0004
 -12898488.84449 -10022457.60048  22064963.774    22064964.2134   22064971.1384
       216.0004        214.0004
   -987940.23247   -737339.40945  23450358.591    23450359.3414   23450365.0534
       161.0004        160.0004
  -4765277.97747  -3681558.84046  23366088.837    23366090.1834   23366094.8914
       162.0004        164.0004
 -15884772.93649 -12346802.41847  21380953.646    21380954.2874   21380961.4004
       204.0004        204.0004
 21  2  5  0 24  0.0000000  0  8G30G04G21G01G08G14G17G09
  -7831989.72648  -6077549.92246  23069838.116    23069839.1514   23069845.6924
       169.0004        171.0004
  -7995400.97948  -6198568.10946  22871355.087    22871355.2394   22871361.5814
       168.0004        168.0004
 -11680633.65448  -9082942.93846  21755007.778    21755008.0964   21755011.9284
       182.0004        181.0004
 -16491451.14748 -12836212.29346  21560118.015    21560118.8754   21560125.8534
       187.0004        186.0004
 -12810360.33149  -9953786.03948  22081733.639    22081734.3554   22081741.6744
       215.0004        214.0004
  -1014046.52447   -757681.94945  23445391.210    23445391.5364   23445397.8164
       159.0004        160.0004
  -4849404.72647  -3747112.09146  23350083.274    23350082.8104   23350086.8444
       162.0004        165.0004
 -15829623.64649 -12303828.96347  21391448.877    21391448.9174   21391455.2054
       204.0004        203.0004
 21  2  5  0 24 30.0000000  0  8G30G04G21G01G08G14G17G09
  -7919930.27648  -6146075.00446  23053104.122    23053104.2094   23053111.1214
       171.0004        173.0004
  -7898759.16248  -6123262.82146  22889745.050    22889745.3304   22889751.5484
       168.0004        170.0004
 -11673229.67248  -9077173.58946  21756417.354    21756416.9934   21756421.7104
       182.0004        183.0004
 -16552984.15548 -12884160.04846  21548408.555    21548409.3024   21548417.3844
       186.0004        187.0004
 -12722046.34149  -9884969.94648  22098540.453    22098540.2724   22098547.1074
       215.0004        215.0004
  -1040134.28947   -778010.03945  23440426.918    23440428.0574   23440432.1954
       158.0004        161.0004
  -4933212.16647  -3812416.54446  23334133.480    23334134.4334   23334139.8994
       164.0004        166.0004
 -15774094.98149 -12260559.86747  21402014.997    21402015.1524   21402022.4344
       203.0004        203.0004
 21  2  5  0 25  0.0000000  0  8G30G04G21G01G08G14G17G09
  -8007848.65348  -6214582.81246  23036373.562    23036373.3184   23036380.6904
       172.0004        171.0004
  -7802020.35848  -6047881.94346  22908153.676    22908153.0634   22908159.5374
       169.0004        169.0004
 -11665339.53148  -9071025.41646  21757918.771    21757918.3324   21757923.3954
       183.0004        183.0004
 -16614189.91948 -12931852.83446  21536763.006    21536762.5764   21536770.3224
       187.0004        187.0004
 -12633548.86949  -9816010.87548  22115380.642    22115380.9954   22115388.0354
       215.0004        214.0004
  -1066204.24047   -798324.27645  23435465.074    23435466.2044   23435471.6104
       158.0004        159.0004
  -5016698.51047  -3877470.77346  23318246.373    23318247.1794   23318252.4164
       164.0004        165.0004
 -15718189.13349 -12216996.88147  21412652.713    21412653.6334   21412660.6984
       203.0004        203.0004
 21  2  5  0 25 30.0000000  0  9G30G04G28G21G01G08G14G17G09
  -8095742.83048  -6283071.78646  23019648.580    23019648.4674   23019655.1084
       172.0004        173.0004
  -7705187.70048  -5972427.93746  22926579.559    22926579.9294   22926587.4534
       168.0004        169.0004
    192626.45354    542270.379 3                                  24939157.198
        74.0004         74.000
 -11656962.46448  -9064497.82246  21759512.518    21759512.4784   21759517.3604
       183.0004        184.0004
 -16675065.41348 -12979288.27647  21525178.724    21525179.3404   21525185.7754
       187.0004        188.0004
 -12544871.60249  -9746911.71048  22132255.319    22132255.4104   22132262.4934
       214.0004        213.0004
  -1092257.70447   -818625.65245  23430508.332    23430509.0964   23430513.9084
       158.0004        159.0004
  -5099861.88048  -3942273.33846  23302420.599    23302421.8094   23302427.0234
       165.0004        166.0004
 -15661908.99349 -12173142.24247  21423363.679    21423363.4314   21423370.0174
       202.0004        203.0004
 21  2  5  0 26  0.0000000  0  8G30G04G21G01G08G14G17G09
  -8183609.89548  -6351539.63046  23002927.715    23002928.5474   23002934.8194
       172.0004        173.0004
  -7608263.30948  -5896902.46346  22945025.023    22945024.5714   22945031.0354
       168.0004        168.0004
 -11648097.54348  -9057590.07246  21761199.726    21761199.5004   21761204.5124
       184.0004        185.0004
 -16735606.66648 -13026463.25347  21513657.912    21513657.4174   21513665.8104
       187.0004        188.0004
 -12456015.92849  -9677673.53447  22149163.500    22149163.1424   22149170.9274
       212.0004        211.0004
  -1118295.08847   -838914.49445  23425553.554    23425553.8734   23425559.2334
       159.0004        162.0004
  -5182699.66348  -4006822.19346  23286657.951    23286658.4374   23286663.6024
       166.0004        168.0004
 -15605256.45249 -12128997.40447  21434143.538    21434143.5884   21434151.4074
       202.0004        203.0004
 21  2  5  0 26 30.0000000  0  8G30G04G21G01G08G14G17G09
  -8271449.21148  -6419985.85846  22986211.949    22986212.0444   22986218.5014
       171.0004        171.0004
  -7511251.69948  -5821308.99146  22963484.236    22963486.2164   22963491.3964
       168.0004        168.0004
 -11638745.70048  -9050302.91246  21762980.272    21762980.1184   21762984.1794
       185.0004        185.0004
 -16795812.05548 -13073376.51046  21502199.554    21502200.4974   21502208.6424
       187.0004        187.0004
 -12366986.43549  -9608299.91247  22166103.393    22166104.6584   22166112.3294
       211.0004        210.0004
  -1144319.08847   -859192.88545  23420601.078    23420601.5154   23420606.8164
       160.0004        162.0004
  -5265211.66448  -4071117.19746  23270956.771    23270956.5974   23270963.0634
       167.0004        169.0004
 -15548235.82549 -12084565.75547  21444994.514    21444994.9464   21445002.6434
       203.0004        203.0004
 21  2  5  0 27  0.0000000  0  8G30G04G21G01G08G14G17G09
  -8359258.10848  -6488408.35846  22969503.206    22969502.7714   22969510.2234
       171.0004        174.0004
  -7414155.15748  -5745649.35946  22981962.513    22981962.6364   22981968.1894
       167.0004        168.0004
 -11628905.28448  -9042635.03946  21764852.194    21764851.8194   21764856.6654
       185.0004        185.0004
 -16855677.82148 -13120025.12347  21490808.106    21490808.8934   21490817.4184
       188.0004        190.0004
 -12277785.58449  -9538792.76247  22183079.021    22183079.4854   22183086.5704
       211.0004        210.0004
  -1170330.30247   -879461.34145  23415652.201    23415652.2814   23415657.2834
       160.0004        162.0004
  -5347395.44648  -4135156.47546  23255316.480    23255317.1674   23255323.9814
       167.0004        168.0004
 -15490849.25549 -12039848.94947  21455913.873    21455914.4774   21455922.4504
       202.0004        202.0004
 21  2  5  0 27 30.0000000  0  8G30G04G21G01G08G14G17G09
  -8447033.98848  -6556805.14846  22952799.533    22952799.2854   22952806.8054
       172.0004        172.0004
  -7316976.27048  -5669925.57346  23000452.864    23000454.0184   23000460.6464
       166.0004        167.0004
 -11618575.55448  -9034585.88246  21766817.583    21766817.7844   21766822.9114
       185.0004        186.0004
 -16915200.43148 -13166406.37647  21479484.349    21479484.2954   21479490.6684
       192.0004        194.0004
 -12188415.72749  -9469153.91847  22200086.378    22200085.7844   22200093.3274
       211.0004        211.0004
  -1196329.56747   -899720.51345  23410704.581    23410705.0574   23410709.7774
       160.0004        161.0004
  -5429249.08748  -4198938.47646  23239739.446    23239740.3034   23239746.6214
       165.0004        166.0004
 -15433099.18449 -11994848.90347  21466904.292    21466904.2074   21466911.7954
       201.0004        202.0004
 21  2  5  0 28  0.0000000  0  8G30G04G21G01G08G14G17G09
  -8534773.75048  -6625173.77246  22936102.200    22936102.6764   22936109.7554
       169.0004        170.0004
  -7219716.89948  -5594139.08546  23018962.184    23018962.1394   23018969.3334
       166.0004        167.0004
 -11607754.81948  -9026154.12346  21768876.264    21768876.1534   21768881.2614
       185.0004        185.0004
 -16974375.76548 -13212517.02047  21468222.294    21468222.9704   21468229.0464
       193.0004        193.0004
 -12098878.95649  -9399385.00847  22217123.723    22217123.8984   22217132.1574
       211.0004        211.0004
  -1222317.06347   -919970.49245  23405759.240    23405759.3014   23405765.2544
       158.0004        158.0004
  -5510770.43848  -4262461.57446  23224227.835    23224228.4144   23224232.8324
       165.0004        166.0004
 -15374987.29449 -11949566.92547  21477962.940    21477963.0204   21477969.8044
       201.0004        202.0004
 21  2  5  0 28 30.0000000  0  8G30G04G21G01G08G14G17G09
  -8622475.63148  -6693512.88346  22919413.203    22919413.2994   22919421.0024
       169.0004        169.0004
  -7122380.50548  -5518292.55846  23037484.595    23037484.8954   23037491.0274
       167.0004        167.0004
 -11596443.27148  -9017339.93146  21771029.293    21771028.9954   21771034.0994
       186.0004        186.0004
 -17033201.22048 -13258355.03347  21457026.494    21457026.5804   21457035.0784
       191.0004        188.0004
 -12009177.90749  -9329488.10347  22234194.822    22234194.6364   22234201.4034
       211.0004        210.0004
  -1248294.40647   -940212.57445  23400815.001    23400816.0844   23400821.7234
       156.0004        158.0004
  -5591958.05147  -4325724.61346  23208779.031    23208778.6464   23208783.0914
       164.0004        165.0004
 -15316516.92949 -11904005.60547  21489088.956    21489089.3194   21489096.4154
       201.0004        201.0004
 21  2  5  0 29  0.0000000  0  8G30G04G21G01G08G14G17G09
  -8710138.70248  -6761821.78746  22902731.814    22902732.2744   22902739.0824
       168.0004        170.0004
  -7024971.22448  -5442389.22146  23056021.548    23056020.9324   23056027.5794
       166.0004        168.0004
 -11584641.42248  -9008143.67046  21773274.786    21773275.4624   21773280.3504
       186.0004        186.0004
 -17091674.90548 -13303918.92146  21445897.584    21445898.4714   21445907.9744
       187.0004        186.0004
 -11919317.22949  -9259466.81347  22251294.543    22251294.0304   22251301.5454
       210.0004        209.0004
  -1274263.99347   -960448.61345  23395873.915    23395873.6084   23395879.4034
       156.0004        157.0004
  -5672811.32047  -4388727.11746  23193392.888    23193393.2944   23193395.9764
       163.0004        165.0004
 -15257692.09549 -11858168.08447  21500282.451    21500283.2414   21500290.4984
       201.0004        202.0004
 21  2  5  0 29 30.0000000  0  8G30G04G21G01G08G14G17G09
  -8797760.50648  -6830098.51446  22886056.798    22886057.3034   22886066.6604
       170.0004        171.0004
  -6927491.65248  -5366431.10846  23074571.709    23074571.5984   23074577.0294
       166.0004        167.0004
 -11572348.56348  -8998564.79846  21775615.060    21775614.5484   21775619.2194
       186.0004        186.0004
 -17149793.39148 -13349206.01846  21434838.251    21434839.6544   21434848.4694
       186.0004        187.0004
 -11829299.74049  -9189323.31047  22268423.256    22268423.6114   22268431.3944
       210.0004        210.0004
  -1300226.72047   -980679.33245  23390934.214    23390934.2454   23390938.6054
       155.0004        157.0004
  -5753328.55147  -4451467.79245  23178071.268    23178070.5394   23178073.4844
       162.0004        161.0004
 -15198515.32149 -11812056.31947  21511544.962    21511544.6364   21511551.6054
       202.0004        202.0004
 21  2  5  0 30  0.0000000  0  9G30G04G28G21G01G08G14G17G09
  -8885338.17248  -6898340.82446  22869391.770    22869391.9604   22869400.0884
       171.0004        172.0004
  -6829944.07248  -5290420.01446  23093133.932    23093134.0814   23093140.3814
       165.0004        165.0004
   -115941.08554    -75799.161 3                                  23692970.467
        74.0004         74.000
 -11559563.61348  -8988602.48146  21778047.649    21778047.2804   21778051.8414
       186.0004        186.0004
 -17207552.89848 -13394213.41447  21423848.750    21423849.5384   21423857.2034
       188.0004        189.0004
 -11739126.89949  -9119058.76247  22285581.974    22285582.8434   22285590.5224
       210.0004        210.0004
  -1326183.13847  -1000905.07545  23385994.123    23385994.7254   23385999.4404
       155.0004        156.0004
  -5833507.06647  -4513944.55445  23162812.706    23162813.7974   23162814.4444
       158.0004        157.0004
 -15138988.79549 -11765672.00947  21522871.151    21522871.7994   21522878.7794
       201.0004        202.0004
 21  2  5  0 30 30.0000000  0  9G30G04G28G21G01G08G14G17G09
  -8972869.22348  -6966546.82546  22852734.725    22852735.4984   22852743.8204
       170.0004        172.0004
  -6732331.16647  -5214358.02846  23111708.003    23111708.6854   23111715.0624
       163.0004        163.0004
   -128986.52844    -85964.010 5                                  23690492.008
        74.0004        138.000
 -11546285.87248  -8978256.18746  21780574.259    21780573.9114   21780578.7084
       186.0004        186.0004
 -17264950.13448 -13438938.52147  21412926.856    21412927.4364   21412934.2144
       190.0004        191.0004
 -11648801.58149  -9048675.40447  22302770.628    22302771.6144   22302778.8284
       209.0004        208.0004
  -1352134.11147  -1021126.61445  23381054.776    23381055.7774   23381060.4264
       153.0004        154.0004
  -5913345.73647  -4576156.48445  23147619.302    23147620.2454   23147622.4514
       156.0004        159.0004
 -15079115.06649 -11719017.16147  21534265.885    21534266.2354   21534272.8534
       202.0004        203.0004
 21  2  5  0 31  0.0000000  0  9G30G04G28G21G01G08G14G17G09
  -9060349.28848  -7034713.08846  22836089.136    22836089.8234   22836096.4894
       171.0004        173.0004
  -6634653.68147  -5138245.70946  23130295.055    23130296.4374   23130302.6484
       162.0004        163.0004
   -146270.89745    -99432.40445  23687197.155                    23687202.1454
       104.0004        141.0004
