     2.11           OBSERVATION DATA    G (GPS)             RINEX VERSION / TYPE
teqc  2018Jun8                          20210202 03:10:35UTCPGM / RUN BY / DATE
Linux2.6.32-573.12.1.el6.x86_64|x86_64|gcc|Win64-MinGW64|=+ COMMENT
BIT 2 OF LLI FLAGS DATA COLLECTED UNDER A/S CONDITION       COMMENT
-Unknown-                                                   MARKER NAME
CRNO                                                        MARKER NUMBER
-Unknown-           -Unknown-                               OBSERVER / AGENCY
-Unknown-           ASHTECH             -Unknown-           REC # / TYPE / VERS
-Unknown-           -Unknown-                               ANT # / TYPE
   408078.5278 -6158374.5118  1605165.1600                  APPROX POSITION XYZ
        0.0000        0.0000        0.0000                  ANTENNA: DELTA H/E/N
     1     1                                                WAVELENGTH FACT L1/2
     7    L1    L2    C1    P1    P2    S1    S2            # / TYPES OF OBSERV
    30.0000                                                 INTERVAL
Forced Modulo Decimation to 30 seconds                      COMMENT
 SNR is mapped to RINEX snr flag value [1-9]                COMMENT
  L1: 1 -> 1;  90 -> 5; 210 -> 9                            COMMENT
  L2: 1 -> 1; 150 -> 5; 250 -> 9                            COMMENT
pseudorange smoothing corrections not applied               COMMENT
  2021     2     5     0     0   30.0000000     GPS         TIME OF FIRST OBS
                                                            END OF HEADER
 21  2  5  0  0 30.0000000  0 10G22G08G16G04G09G07G03G01G21G27
  -1680202.94147  -1294582.31145  24513663.889    24513663.4644   24513672.6214
       143.0004        147.0004
 -23434491.14649 -18244231.35048  20160817.393    20160817.9174   20160825.4894
       212.0004        213.0004
  -4378725.33947  -3391282.32945  23718928.337    23718928.8044   23718933.5474
       136.0004        140.0004
 -22540777.77649 -17543157.02648  20235548.509    20235548.8554   20235554.5184
       216.0004        215.0004
 -15894654.89749 -12366988.58047  21419055.401    21419056.2604   21419063.3984
       201.0004        201.0004
  -2676981.33047  -2073549.95345  24299173.636    24299173.8324   24299180.2904
       157.0004        159.0004
  -2975010.51948  -1967327.19546  23803999.206    23804000.2564   23804009.7854
       168.0004        173.0004
  -2412775.79647  -1866517.53545  24543388.136    24543388.4614   24543399.5854
       135.0004        141.0004
  -8742166.18447  -6796790.43845  23090879.476    23090878.4134   23090884.6394
       151.0004        154.0004
 -19128726.37649 -14894250.83048  21325960.700    21325960.9474   21325967.4374
       213.0004        215.0004
 21  2  5  0  1  0.0000000  0 10G22G08G16G04G09G07G03G01G21G27
  -1628968.69347  -1254659.68745  24523413.321    24523413.8864   24523420.9164
       142.0004        145.0004
 -23444450.14849 -18251991.58548  20158922.766    20158922.7224   20158930.9344
       213.0004        214.0004
  -4295079.86247  -3326104.04245  23734846.150    23734845.5474   23734852.1404
       137.0004        143.0004
 -22530586.09249 -17535215.46248  20237487.598    20237488.0494   20237493.8824
       216.0004        214.0004
 -15953372.54749 -12412742.59847  21407882.147    21407882.5204   21407889.6234
       201.0004        201.0004
  -2740068.76547  -2122708.91445  24287168.561    24287169.5874   24287174.3594
       156.0004        158.0004
  -2912471.60748  -1918595.64346  23815898.915    23815899.8884   23815910.3144
       170.0004        171.0004
  -2472952.20547  -1913407.83645  24531935.691    24531936.5544   24531947.7314
       135.0004        141.0004
  -8794092.23747  -6837252.23245  23080996.851    23080996.1014   23081002.5304
       152.0004        154.0004
 -19067861.37949 -14846823.54848  21337543.606    21337542.9764   21337549.7814
       217.0004        215.0004
 21  2  5  0  1 30.0000000  0 10G22G08G16G04G09G07G03G01G21G27
  -1577951.43847  -1214906.18345  24533123.687    24533121.8474   24533129.3994
       141.0004        145.0004
 -23453800.26849 -18259277.37548  20157143.051    20157143.2364   20157151.3584
       213.0004        213.0004
  -4211538.85647  -3261007.15145  23750742.845    23750744.4414   23750748.9484
       136.0004        141.0004
 -22519820.25049 -17526826.49448  20239536.082    20239536.8904   20239542.5224
       215.0004        214.0004
 -16011629.79649 -12458137.85247  21396796.601    21396796.7834   21396803.3584
       201.0004        201.0004
  -2803318.17747  -2171994.12545  24275133.761    24275133.3744   24275139.7284
       158.0004        161.0004
  -2850036.69248  -1869945.12446  23827782.411    23827782.7954   23827791.5834
       180.0004        187.0004
  -2533398.67746  -1960508.59645  24520431.303    24520431.9544   24520444.6494
       134.0004        139.0004
  -8846015.14947  -6877711.58345  23071115.317    23071115.3114   23071122.1874
       152.0004        156.0004
 -19006482.29149 -14798995.66648  21349222.345    21349222.7474   21349229.8224
       224.0004        228.0004
 21  2  5  0  2  0.0000000  0 10G22G08G16G04G09G07G03G01G21G27
  -1527152.20947  -1175322.53645  24542788.649    24542789.0404   24542796.3674
       140.0004        144.0004
 -23462540.48149 -18266087.90348  20155479.943    20155479.9764   20155487.9444
       213.0004        213.0004
  -4128103.48747  -3195992.58345  23766621.835    23766621.6454   23766625.8324
       136.0004        141.0004
 -22508480.06349 -17517989.98148  20241694.294    20241694.7764   20241700.8604
       216.0004        214.0004
 -16069424.23249 -12503172.46747  21385798.569    21385798.4684   21385805.8704
       201.0004        201.0004
  -2866728.69847  -2221404.86545  24263065.911    24263066.1704   24263070.4164
       157.0004        158.0004
  -2787707.78948  -1821377.22046  23839641.829    23839642.8504   23839652.7204
       185.0004        187.0004
  -2594113.38846  -2007818.40445  24508877.148    24508878.2924   24508892.6724
       133.0004        139.0004
  -8897933.15447  -6918167.09945  23061235.779    23061236.6954   23061242.6554
       152.0004        155.0004
 -18944591.06449 -14750768.73048  21361000.433    21361000.6604   21361007.1504
       228.0004        229.0004
 21  2  5  0  2 30.0000000  0 10G22G08G16G04G09G07G03G01G21G27
  -1476572.82047  -1135910.19845  24552414.163    24552413.4784   24552420.8594
       139.0004        144.0004
 -23470671.00149 -18272423.36448  20153932.936    20153932.9974   20153940.4974
       212.0004        213.0004
  -4044775.58947  -3131061.74945  23782479.722    23782479.4154   23782484.0354
       139.0004        144.0004
 -22496566.29149 -17508706.53148  20243961.256    20243961.7134   20243967.6944
       215.0004        214.0004
 -16126754.39149 -12547845.30647  21374888.542    21374888.8174   21374896.6204
       201.0004        201.0004
  -2930300.26747  -2270941.12045  24250968.121    24250968.8614   24250973.5984
       155.0004        157.0004
  -2725487.95948  -1772894.30746  23851481.949    23851482.9974   23851491.9404
       186.0004        186.0004
  -2655095.29746  -2055336.44145  24497273.866    24497273.5594   24497285.3864
       134.0004        140.0004
  -8949843.65947  -6958616.79045  23051358.836    23051358.4954   23051365.0234
       153.0004        156.0004
 -18882190.58449 -14702144.98048  21372874.629    21372875.0124   21372881.4594
       228.0004        228.0004
 21  2  5  0  3  0.0000000  0 10G22G08G16G04G09G07G03G01G21G27
  -1426214.42047  -1096670.07545  24561996.044    24561995.6214   24562002.6534
       138.0004        143.0004
 -23478191.50649 -18278283.47648  20152501.694    20152501.9994   20152509.4874
       212.0004        213.0004
  -3961556.39747  -3066215.60545  23798314.205    23798313.2774   23798318.5844
       141.0004        145.0004
 -22484078.66449 -17498975.91748  20246338.145    20246338.5784   20246344.0664
       215.0004        214.0004
 -16183617.80449 -12592154.44847  21364067.586    21364067.8244   21364075.7194
       201.0004        201.0004
  -2994032.06547  -2320602.18645  24238841.500    24238841.5784   24238845.8194
       155.0004        157.0004
  -2663379.08548  -1724497.82046  23863301.044    23863301.8074   23863311.8964
       185.0004        186.0004
  -2716342.42747  -2103061.18145  24485617.905    24485618.0674   24485629.2744
       135.0004        142.0004
  -9001743.43147  -6999058.10445  23041480.986    23041481.4894   23041488.5764
       153.0004        155.0004
 -18819282.73549 -14653125.87448  21384845.772    21384845.8974   21384852.4044
       228.0004        227.0004
 21  2  5  0  3 30.0000000  0 10G22G08G16G04G09G07G03G01G21G27
  -1376078.04047  -1057602.95045  24571535.443    24571534.1934   24571543.8644
       135.0004        140.0004
 -23485101.24549 -18283667.67548  20151187.319    20151187.2744   20151194.6024
       213.0004        214.0004
  -3878446.71247  -3001454.81945  23814130.627    23814130.3614   23814133.0504
       139.0004        143.0004
 -22471017.02249 -17488798.02048  20248823.096    20248823.6144   20248829.5144
       215.0004        214.0004
 -16240012.01249 -12636097.98547  21353336.408    21353336.8604   21353344.3204
       202.0004        203.0004
  -3057923.37147  -2370387.58345  24226681.795    24226682.7884   24226688.7254
       155.0004        158.0004
  -2601383.09448  -1676189.34946  23875097.896    23875098.6094   23875109.0934
       185.0004        185.0004
  -2777852.82246  -2150991.03045  24473910.727    24473912.8484   24473924.4184
       134.0004        140.0004
  -9053629.72547  -7039488.94645  23031608.877    23031607.7194   23031613.3044
       152.0004        154.0004
 -18755869.43749 -14603712.91248  21396912.789    21396912.8874   21396919.8634
       228.0004        228.0004
 21  2  5  0  4  0.0000000  0 10G22G08G16G04G09G07G03G01G21G27
  -1326165.69747  -1018710.43645  24581036.596    24581035.6364   24581042.9504
       135.0004        141.0004
 -23491400.33749 -18288576.04148  20149988.343    20149988.7574   20149996.2364
       213.0004        214.0004
  -3795448.59047  -2936780.95745  23829924.484    23829924.4394   23829928.2514
       141.0004        147.0004
 -22457382.16249 -17478173.45148  20251417.569    20251418.1864   20251424.3834
       215.0004        214.0004
 -16295935.59649 -12679674.79247  21342694.891    21342694.9564   21342702.6804
       203.0004        203.0004
  -3121974.07347  -2420297.17845  24214495.241    24214495.1144   24214500.2464
       155.0004        157.0004
  -2539502.91748  -1627971.10246  23886874.692    23886875.0194   23886884.1444
       184.0004        184.0004
  -2839625.34247  -2199125.15645  24462157.457    24462158.9624   24462171.4994
       137.0004        144.0004
  -9105500.42147  -7079907.63445  23021737.317    23021736.8634   23021741.9894
       151.0004        154.0004
 -18691953.66349 -14553908.40348  21409075.576    21409075.7924   21409082.7564
       228.0004        227.0004
 21  2  5  0  4 30.0000000  0 10G22G08G16G04G09G07G03G01G21G27
  -1276479.08447   -979993.75745  24590492.105    24590490.4864   24590498.5314
       137.0004        142.0004
 -23497089.47049 -18293009.11048  20148905.598    20148905.6864   20148913.2294
       213.0004        214.0004
  -3712563.60847  -2872195.22845  23845695.549    23845696.2194   23845701.5334
       142.0004        146.0004
 -22443174.67349 -17467102.67348  20254121.179    20254121.7104   20254127.9224
       215.0004        214.0004
 -16351386.82549 -12722883.52647  21332142.551    21332143.1994   21332150.6744
       203.0004        204.0004
  -3186184.37447  -2470331.13945  24202276.503    24202277.0714   24202280.8594
       155.0004        158.0004
  -2477741.24448  -1579845.15846  23898627.096    23898627.9774   23898636.8444
       183.0004        183.0004
  -2901658.66947  -2247462.53545  24450351.545    24450352.8004   24450362.8284
       135.0004        140.0004
  -9157353.68447  -7120312.72545  23011870.604    23011871.8734   23011877.3574
       150.0004        152.0004
 -18627538.06149 -14503714.41948  21421333.098    21421333.4814   21421340.4834
       227.0004        227.0004
 21  2  5  0  5  0.0000000  0 10G22G08G16G04G09G07G03G01G21G27
  -1227019.01947   -941453.60445  24599904.561    24599902.3114   24599910.7784
       138.0004        143.0004
 -23502167.67949 -18296966.14148  20147938.769    20147939.4074   20147947.2504
       213.0004        214.0004
  -3629792.89747  -2807698.58545  23861446.045    23861445.9924   23861451.3614
       141.0004        144.0004
 -22428394.39149 -17455585.57748  20256934.022    20256934.6624   20256940.1274
       215.0004        214.0004
 -16406363.33549 -12765722.35747  21321681.526    21321681.2524   21321688.6044
       203.0004        203.0004
  -3250552.76747  -2520488.25245  24190026.197    24190026.6134   24190032.3294
       153.0004        154.0004
  -2416099.89948  -1531812.99246  23910356.375    23910357.7224   23910366.9954
       182.0004        183.0004
  -2963950.77946  -2296001.59745  24438497.076    24438499.0854   24438512.3554
       134.0004        141.0004
  -9209186.44047  -7160701.81545  23002008.222    23002008.3894   23002012.9134
       150.0004        153.0004
 -18562624.53549 -14453132.44448  21433685.672    21433686.2394   21433692.8104
       227.0004        227.0004
 21  2  5  0  5 30.0000000  0 10G22G08G16G04G09G07G03G01G21G27
  -1177786.39947   -903090.67745  24609271.681    24609270.7044   24609278.5124
       138.0004        143.0004
 -23506634.32049 -18300446.62848  20147089.472    20147089.4684   20147096.7824
       213.0004        213.0004
  -3547136.90747  -2743291.30245  23877176.430    23877176.0784   23877180.4574
       139.0004        144.0004
 -22413041.09249 -17443621.96648  20259855.704    20259856.3584   20259862.2724
       215.0004        214.0004
 -16460862.50649 -12808189.22347  21311310.103    21311310.5624   21311317.6614
       203.0004        203.0004
  -3315078.44447  -2570767.93845  24177747.026    24177748.2604   24177753.4504
       152.0004        155.0004
  -2354580.62048  -1483875.97246  23922064.266    23922064.4914   23922074.3764
       182.0004        183.0004
  -3026499.35447  -2344740.47945  24426595.418    24426598.4604   24426609.0234
       137.0004        143.0004
  -9260995.21147  -7201072.22745  22992147.170    22992147.2414   22992154.2044
       150.0004        154.0004
 -18497214.95649 -14402163.93648  21446132.794    21446133.1454   21446139.9714
       227.0004        226.0004
 21  2  5  0  6  0.0000000  0 10G22G08G16G04G09G07G03G01G21G27
  -1128783.14647   -864906.51045  24618597.053    24618596.6354   24618604.9664
       139.0004        143.0004
 -23510489.77849 -18303450.87948  20146355.061    20146355.4914   20146363.4044
       213.0004        213.0004
  -3464597.49547  -2678974.88945  23892882.790    23892883.6184   23892888.4324
       139.0004        144.0004
 -22397115.63849 -17431212.53348  20262886.295    20262886.9104   20262892.8054
       215.0004        214.0004
 -16514882.97849 -12850283.09347  21301030.862    21301031.1304   21301038.0984
       203.0004        204.0004
  -3379761.10747  -2621169.96345  24165439.365    24165439.7144   24165444.2364
       153.0004        156.0004
  -2293186.30648  -1436036.35646  23933746.902    23933747.5354   23933757.3184
       180.0004        180.0004
  -3089303.24647  -2393678.31345  24414644.716    24414645.2814   24414656.5534
       138.0004        143.0004
  -9312778.29447  -7241422.67045  22982294.554    22982294.1084   22982299.6864
       149.0004        151.0004
 -18431312.28449 -14350811.19348  21458673.355    21458673.8994   21458681.4594
       226.0004        226.0004
 21  2  5  0  6 30.0000000  0 10G22G08G16G04G09G07G03G01G21G27
  -1080010.44547   -826901.98545  24627877.119    24627877.5844   24627885.9184
       138.0004        143.0004
 -23513734.23449 -18305979.00848  20145738.217    20145738.3554   20145746.0384
       213.0004        214.0004
  -3382175.97847  -2614750.33345  23908568.567    23908566.5944   23908572.3304
       140.0004        144.0004
 -22380618.18549 -17418357.37048  20266025.110    20266025.7044   20266032.1904
       215.0004        213.0004
 -16568422.58249 -12892002.25647  21290841.879    21290842.7414   21290849.7454
       204.0004        204.0004
  -3444600.00147  -2671693.75045  24153100.781    24153101.2994   24153106.0274
       153.0004        155.0004
  -2231918.96948  -1388295.63846  23945404.286    23945406.0704   23945416.1384
       179.0004        180.0004
  -3152360.70047  -2442813.74145  24402642.551    24402644.5454   24402656.4064
       135.0004        139.0004
  -9364532.87347  -7281750.86145  22972446.202    22972445.6634   22972450.7784
       149.0004        153.0004
 -18364918.70949 -14299075.93548  21471308.436    21471308.3094   21471315.2844
       226.0004        226.0004
 21  2  5  0  7  0.0000000  0 10G22G08G16G04G09G07G03G01G21G27
  -1031469.54047   -789078.08045  24637115.887    24637116.0364   24637123.0644
       137.0004        142.0004
 -23516367.48849 -18308030.88148  20145237.452    20145237.4374   20145244.6784
       213.0004        214.0004
  -3299873.43547  -2550618.46745  23924229.304    23924228.6854   23924232.4174
       138.0004        142.0004
 -22363549.02749 -17405056.73448  20269273.372    20269274.1874   20269280.2594
       214.0004        213.0004
 -16621479.28149 -12933345.12847  21280746.938    21280746.7304   21280753.1264
       204.0004        204.0004
  -3509594.72747  -2722338.94145  24140732.508    24140732.7834   24140737.8734
       153.0004        155.0004
  -2170780.84448  -1340655.60546  23957040.647    23957040.9324   23957050.6444
       182.0004        184.0004
  -3215669.74546  -2492145.22545  24390595.165    24390596.5854   24390610.7424
       134.0004        140.0004
  -9416256.59647  -7322054.99445  22962604.179    22962602.7424   22962608.7984
       149.0004        153.0004
 -18298036.61949 -14246960.01448  21484036.083    21484035.8474   21484042.2404
       225.0004        225.0004
 21  2  5  0  7 30.0000000  0 10G22G08G16G04G09G07G03G01G21G27
   -983162.04147   -751436.02945  24646306.431    24646306.6084   24646314.7154
       136.0004        142.0004
 -23518389.47949 -18309606.43948  20144852.032    20144852.2684   20144860.1834
       213.0004        214.0004
  -3217691.60247  -2486580.67245  23939867.429    23939867.4324   23939871.8484
       139.0004        144.0004
 -22345909.04349 -17391311.30048  20272630.787    20272630.9404   20272636.9824
       214.0004        213.0004
 -16674051.75449 -12974310.67747  21270741.868    21270741.8204   21270748.8724
       203.0004        203.0004
  -3574745.05447  -2773105.36945  24128334.025    24128334.8474   24128339.5714
       152.0004        154.0004
  -2109774.57948  -1293118.31146  23968649.174    23968649.6924   23968660.3824
       183.0004        184.0004
  -3279229.17047  -2541671.81145  24378499.970    24378502.3504   24378515.5884
       136.0004        142.0004
  -9467946.87247  -7362333.05845  22952766.614    22952765.6754   22952772.3884
       149.0004        152.0004
 -18230668.90349 -14194465.67548  21496855.523    21496855.2794   21496862.2474
       225.0004        225.0004
 21  2  5  0  8  0.0000000  0 10G22G08G16G04G09G07G03G01G21G27
   -935088.06547   -713975.99345  24655456.507    24655455.7224   24655464.8544
       137.0004        142.0004
 -23519800.01649 -18310705.54248  20144583.191    20144583.8014   20144591.8704
       213.0004        214.0004
  -3135630.38647  -2422636.87245  23955481.461    23955483.3354   23955486.6694
       138.0004        143.0004
 -22327697.50849 -17377120.49248  20276095.791    20276096.2424   20276102.4834
       214.0004        213.0004
 -16726136.70249 -13014896.33347  21260830.755    21260830.8824   21260837.7464
       203.0004        203.0004
  -3640049.38547  -2823991.82545  24115908.575    24115908.6484   24115912.7884
       154.0004        158.0004
  -2048901.27848  -1245684.61146  23980231.500    23980232.5164   23980243.1724
       180.0004        180.0004
  -3343036.04547  -2591391.24445  24366359.578    24366360.9524   24366372.4954
       137.0004        142.0004
  -9519600.27847  -7402582.39345  22942935.540    22942937.1904   22942943.4274
       149.0004        153.0004
 -18162816.84449 -14141593.93248  21509766.498    21509766.9324   21509773.9124
       225.0004        225.0004
 21  2  5  0  8 30.0000000  0 10G22G08G16G04G09G07G03G01G21G27
   -887250.21347   -676699.94645  24664559.966    24664558.7314   24664566.7384
       138.0004        143.0004
 -23520599.28549 -18311328.33548  20144431.372    20144431.7524   20144439.4394
       213.0004        214.0004
  -3053692.45947  -2358789.14445  23971075.119    23971074.7514   23971079.6414
       139.0004        144.0004
 -22308915.81049 -17362485.40948  20279670.208    20279670.7334   20279676.5644
       214.0004        213.0004
 -16777733.26149 -13055101.42647  21251011.234    21251011.5614   21251018.6594
       202.0004        203.0004
  -3705507.31947  -2874997.96645  24103450.328    24103451.1714   24103458.0234
       156.0004        159.0004
  -1988164.13248  -1198357.04146  23991790.933    23991791.4324   23991799.3934
       179.0004        179.0004
  -3407089.61547  -2641302.89445  24354168.103    24354170.5544   24354182.3324
       135.0004        140.0004
  -9571214.95247  -7442801.57045  22933115.375    22933114.4104   22933121.0674
       150.0004        152.0004
 -18094483.90249 -14088347.48448  21522770.303    21522770.1924   21522777.3894
       225.0004        225.0004
 21  2  5  0  9  0.0000000  0 10G22G08G16G04G09G07G03G01G21G27
   -839648.47747   -639607.90245  24673619.406    24673617.2704   24673626.0064
       139.0004        144.0004
 -23520787.13849 -18311474.70548  20144396.176    20144396.3084   20144403.6694
       213.0004        213.0004
  -2971877.91047  -2295037.53245  23986643.514    23986644.8864   23986649.1564
       140.0004        145.0004
 -22289563.87949 -17347405.99748  20283353.312    20283353.4454   20283359.1324
       214.0004        213.0004
 -16828839.03949 -13094924.10447  21241285.591    21241285.7154   21241293.7804
       202.0004        202.0004
  -3771118.30047  -2926123.34045  24090965.676    24090966.0544   24090972.4414
       155.0004        157.0004
  -1927564.81348  -1151136.86046  24003322.334    24003323.3024   24003332.8984
       178.0004        179.0004
  -3471387.45446  -2691404.89945  24341932.808    24341934.7044   24341947.5414
       134.0004        139.0004
  -9622787.94947  -7482988.27745  22923300.943    22923299.6314   22923305.6884
       149.0004        151.0004
 -18025671.96649 -14034727.78948  21535863.981    21535864.1634   21535871.8694
       224.0004        223.0004
 21  2  5  0  9 30.0000000  0 10G22G08G16G04G09G07G03G01G21G27
   -792285.10847   -602701.55645  24682633.021    24682631.2534   24682639.6844
       139.0004        144.0004
 -23520363.83049 -18311144.82848  20144476.769    20144476.8564   20144484.4674
       213.0004        214.0004
  -2890188.54747  -2231383.48345  24002191.240    24002189.5814   24002193.9284
       141.0004        146.0004
 -22269642.66249 -17331882.96948  20287143.368    20287144.1164   20287150.1504
       214.0004        213.0004
 -16879452.58849 -13134363.21347  21231653.316    21231653.9704   21231662.3634
       202.0004        202.0004
  -3836881.99247  -2977367.73545  24078451.805    24078452.1024   24078456.4774
       154.0004        157.0004
  -1867105.90948  -1104026.11446  24014827.696    24014827.8414   24014838.9734
       178.0004        179.0004
  -3535928.32246  -2741696.23845  24329652.706    24329652.8244   24329664.8834
       133.0004        139.0004
  -9674316.76447  -7523140.53045  22913496.023    22913495.7484   22913501.5724
       150.0004        155.0004
 -17956383.99549 -13980737.16248  21549049.224    21549049.4024   21549056.8244
       223.0004        223.0004
 21  2  5  0 10  0.0000000  0 10G22G08G16G04G09G07G03G01G21G27
   -745161.77247   -565982.28445  24691600.128    24691598.6164   24691606.7954
       141.0004        146.0004
 -23519330.60549 -18310339.70148  20144673.362    20144673.5024   20144681.0894
       214.0004        214.0004
  -2808626.18247  -2167828.38245  24017709.894    24017708.9834   24017715.5644
       140.0004        143.0004
 -22249153.29449 -17315917.23748  20291042.968    20291043.3564   20291048.6804
       214.0004        213.0004
 -16929572.70349 -13173417.83447  21222116.248    21222117.5754   21222125.0424
       202.0004        203.0004
  -3902798.22847  -3028731.00045  24065908.349    24065907.9474   24065913.9164
       154.0004        156.0004
  -1806790.15048  -1057026.92946  24026305.529    24026305.9684   24026315.1054
       178.0004        179.0004
  -3600710.92046  -2792176.01845  24317323.871    24317324.5384   24317336.0404
       132.0004        139.0004
  -9725799.04347  -7563256.54145  22903696.316    22903697.5314   22903704.6574
       152.0004        155.0004
 -17886623.11649 -13926378.02448  21562323.917    21562324.4114   21562331.6754
       223.0004        223.0004
 21  2  5  0 10 30.0000000  0 10G22G08G16G04G09G07G03G01G21G27
   -698278.42547   -529450.00245  24700520.555    24700520.0894   24700528.8494
       140.0004        144.0004
 -23517686.67649 -18309058.69248  20144985.773    20144985.9284   20144993.5044
       213.0004        214.0004
  -2727190.98447  -2104372.41645  24033206.481    24033205.8324   24033210.9754
       139.0004        143.0004
 -22228095.14449 -17299508.28947  20295049.575    20295050.2314   20295056.0274
       214.0004        212.0004
 -16979196.33249 -13212085.57347  21212675.278    21212675.3394   21212682.1644
       204.0004        206.0004
  -3968864.93847  -3080211.50345  24053335.613    24053336.5814   24053340.7324
       154.0004        155.0004
  -1746618.66748  -1010140.13746  24037756.348    24037756.4724   24037765.5814
       178.0004        179.0004
  -3665732.25746  -2842841.78745  24304949.549    24304951.3414   24304965.2654
       131.0004        138.0004
  -9777231.60947  -7603333.81645  22893910.562    22893910.0294   22893917.4044
       152.0004        154.0004
 -17816390.69049 -13871651.45248  21575688.819    21575689.1704   21575696.6974
       223.0004        222.0004
 21  2  5  0 11  0.0000000  0 10G22G08G16G04G09G07G03G01G21G27
   -651637.63847   -493106.72245  24709395.060    24709395.0834   24709403.5584
       140.0004        144.0004
 -23515432.51549 -18307302.17848  20145414.423    20145414.8554   20145422.5874
       213.0004        213.0004
  -2645884.97947  -2041017.05445  24048679.888    24048678.5544   24048683.4264
       139.0004        145.0004
 -22206469.79549 -17282657.36648  20299165.268    20299165.3724   20299171.4054
       214.0004        213.0004
 -17028322.65449 -13250365.80647  21203327.058    21203327.3264   21203333.3134
       206.0004        207.0004
  -4035082.65347  -3131809.66845  24040735.238    24040735.6344   24040740.8534
       154.0004        157.0004
  -1686594.52548   -963368.14446  24049177.390    24049178.1884   24049188.1534
       178.0004        179.0004
  -3730991.46947  -2893692.88045  24292534.498    24292534.8054   24292546.0814
       136.0004        144.0004
  -9828612.97147  -7643371.18645  22884134.409    22884133.9294   22884138.9704
       152.0004        155.0004
 -17745690.22249 -13816560.15748  21589143.197    21589142.9664   21589150.4984
       222.0004        223.0004
 21  2  5  0 11 30.0000000  0 10G22G08G16G04G09G07G03G01G21G27
   -605239.98747   -456952.92045  24718225.855    24718225.3274   24718234.3154
       139.0004        142.0004
 -23512568.63349 -18305070.56348  20145959.572    20145959.8504   20145967.7754
       213.0004        213.0004
  -2564708.92047  -1977763.00045  24064124.791    24064126.2344   24064130.4204
       138.0004        143.0004
 -22184277.68349 -17265364.81548  20303388.064    20303388.5094   20303394.6344
       214.0004        213.0004
 -17076949.76449 -13288257.06547  21194073.900    21194074.0084   21194080.2674
       207.0004        208.0004
  -4101450.42347  -3183524.77645  24028105.736    24028106.7264   24028111.0774
       155.0004        157.0004
  -1626719.77348   -916712.55046  24060571.211    24060572.3864   24060582.3184
       178.0004        178.0004
  -3796486.54447  -2944727.77845  24280069.774    24280070.8114   24280081.2464
       138.0004        142.0004
  -9879940.14047  -7683366.33045  22874365.778    22874365.0984   22874371.3454
       151.0004        153.0004
 -17674524.14249 -13761106.06448  21602685.601    21602685.4614   21602692.9444
       222.0004        222.0004
 21  2  5  0 12  0.0000000  0 10G22G08G16G04G09G07G03G01G21G27
   -559086.37347   -420989.28245  24727008.711    24727008.1354   24727017.0634
       140.0004        145.0004
 -23509094.84849 -18302363.70548  20146620.401    20146620.8094   20146628.8064
       213.0004        214.0004
  -2483663.96947  -1914611.09945  24079546.328    24079548.8714   24079550.5864
       137.0004        143.0004
 -22161519.27949 -17247631.00147  20307718.861    20307719.2304   20307725.4374
       214.0004        212.0004
 -17125075.64549 -13325757.75447  21184915.478    21184915.7424   21184922.3204
       207.0004        207.0004
  -4167967.00147  -3235355.85145  24015447.787    24015448.2374   24015453.0384
       153.0004        155.0004
  -1566996.32748   -870174.87146  24071934.928    24071936.1034   24071948.0474
       177.0004        179.0004
  -3862215.46047  -2995944.89745  24267561.656    24267565.2364   24267574.5844
       137.0004        142.0004
  -9931209.55247  -7723316.46945  22864609.376    22864609.3704   22864615.9164
       151.0004        154.0004
 -17602894.78349 -13705290.97848  21616315.799    21616316.3114   21616323.5284
       222.0004        222.0004
 21  2  5  0 12 30.0000000  0 10G22G08G16G04G09G07G03G01G21G27
   -513177.44047   -385216.30145  24735745.310    24735745.7754   24735752.2534
       138.0004        143.0004
 -23505010.89449 -18299181.38348  20147397.648    20147397.9614   20147405.7694
       213.0004        214.0004
  -2402750.37747  -1851561.52645  24094942.989    24094943.0264   24094949.8424
       136.0004        141.0004
 -22138194.44449 -17229455.80447  20312157.401    20312157.5904   20312163.9174
       213.0004        212.0004
 -17172697.77249 -13362865.90647  21175853.159    21175853.4814   21175859.3674
       206.0004        205.0004
  -4234631.29147  -3287302.00445  24002760.906    24002761.6224   24002766.9804
       153.0004        157.0004
  -1507425.49948   -823756.14046  24083272.441    24083273.2894   24083284.2084
       181.0004        184.0004
  -3928175.47747  -3047342.09845  24255009.927    24255010.2914   24255020.9374
       137.0004        142.0004
  -9982418.46047  -7763219.47345  22854864.360    22854864.4664   22854870.6054
       152.0004        156.0004
 -17530803.94549 -13649116.29648  21630033.536    21630034.3844   21630042.0904
       222.0004        221.0004
 21  2  5  0 13  0.0000000  0 10G22G08G16G04G09G07G03G01G21G27
   -467514.82047   -349635.25545  24744435.178    24744433.4344   24744442.3994
       138.0004        142.0004
 -23500317.40249 -18295524.10848  20148290.994    20148291.1064   20148298.9324
       213.0004        213.0004
  -2321969.61647  -1788615.52445  24110318.134    24110318.6124   24110322.2694
       136.0004        142.0004
 -22114304.19949 -17210840.03648  20316703.726    20316704.3034   20316710.0664
       213.0004        213.0004
 -17219814.82149 -13399580.48947  21166885.925    21166886.3464   21166893.7584
       205.0004        204.0004
  -4301443.03347  -3339363.05845  23990047.940    23990048.3534   23990053.4664
       155.0004        158.0004
  -1448009.80048   -777458.28046  24094580.209    24094580.5304   24094589.7934
       184.0004        185.0004
  -3994365.13246  -3098918.21245  24242414.764    24242413.4364   24242424.3044
       134.0004        138.0004
 -10033564.42947  -7803073.42845  22845132.488    22845132.0754   22845139.9904
       153.0004        157.0004
 -17458254.59849 -13592584.34548  21643839.751    21643840.0234   21643847.7154
       221.0004        221.0004
 21  2  5  0 13 30.0000000  0 10G22G08G16G04G09G07G03G01G21G27
   -422100.45947   -314247.61045  24753076.537    24753076.0254   24753084.9534
       138.0004        144.0004
 -23495015.78649 -18291392.96748  20149299.916    20149300.4914   20149307.7344
       213.0004        214.0004
  -2241324.12647  -1725774.87145  24125665.676    24125665.5034   24125668.7974
       138.0004        144.0004
 -22089850.21649 -17191784.98547  20321356.910    20321357.3914   20321363.5704
       214.0004        212.0004
 -17266426.00349 -13435900.86847  21158015.006    21158015.0894   21158023.9434
       203.0004        203.0004
  -4368401.96847  -3391538.79745  23977304.552    23977305.7184   23977311.4124
       155.0004        158.0004
  -1388752.33248   -731283.71046  24105855.234    24105856.4254   24105866.9744
       182.0004        182.0004
  -4060783.46346  -3150672.55445  24229776.282    24229776.6214   24229786.4104
       134.0004        140.0004
 -10084645.77047  -7842877.02245  22835412.615    22835412.4804   22835417.1984
       154.0004        158.0004
 -17385250.32849 -13535697.88348  21657732.108    21657732.2174   21657739.7074
       221.0004        221.0004
 21  2  5  0 14  0.0000000  0 10G22G08G16G04G09G07G03G01G21G27
   -376934.60547   -279053.60545  24761672.860    24761671.6704   24761681.4334
       141.0004        147.0004
 -23489105.08649 -18286787.21248  20150424.974    20150425.2084   20150432.4954
       213.0004        214.0004
  -2160813.48547  -1663039.27545  24140984.697    24140984.5454   24140987.5694
       139.0004        144.0004
 -22064832.31549 -17172290.51847  20326117.590    20326117.9924   20326124.5674
       213.0004        212.0004
 -17312528.63349 -13471824.98247  21149240.922    21149241.6734   21149250.3844
       202.0004        202.0004
  -4435506.79047  -3443828.24545  23964537.374    23964536.8974   23964541.8394
       155.0004        158.0004
  -1329654.12948   -685233.25946  24117101.383    24117102.5574   24117112.0874
       181.0004        180.0004
  -4127427.68447  -3202602.86945  24217091.944    24217092.8214   24217105.1114
       136.0004        141.0004
 -10135659.16747  -7882627.66145  22825703.793    22825704.0614   22825709.8204
       153.0004        154.0004
 -17311792.82349 -13478458.25648  21671710.925    21671710.7454   21671718.4114
       221.0004        221.0004
 21  2  5  0 14 30.0000000  0 10G22G08G16G04G09G07G03G01G21G27
   -332019.10747   -244054.69745  24770218.791    24770216.7774   24770226.8294
       140.0004        144.0004
 -23482586.53649 -18281707.80748  20151665.407    20151665.5134   20151672.9324
       214.0004        214.0004
  -2080439.62147  -1600410.28345  24156278.537    24156278.2414   24156284.8754
       137.0004        141.0004
 -22039251.85649 -17152357.69147  20330985.309    20330985.9014   20330991.8784
       213.0004        212.0004
 -17358121.69749 -13507352.03347  21140565.507    21140566.0214   21140574.9024
       202.0004        204.0004
  -4502757.10947  -3496231.04345  23951739.188    23951739.7364   23951744.9644
       156.0004        159.0004
  -1270718.00248   -639309.07446  24128316.298    24128317.4574   24128326.3354
       178.0004        177.0004
  -4194296.35047  -3254708.08745  24204368.596    24204368.8554   24204380.2174
       135.0004        141.0004
 -10186602.23547  -7922323.53345  22816011.789    22816010.4634   22816014.8184
       152.0004        155.0004
 -17237885.30949 -13420867.98148  21685774.064    21685774.6204   21685782.0494
       220.0004        220.0004
 21  2  5  0 15  0.0000000  0  9G08G16G04G09G07G03G01G21G27
 -23475459.25449 -18276154.07248  20153021.442    20153021.6804   20153029.1104
       214.0004        214.0004
  -2000202.03147  -1537887.52845  24171548.012    24171546.6554   24171551.5334
       137.0004        142.0004
 -22013108.27149 -17131986.07447  20335960.418    20335960.8464   20335967.2034
       213.0004        212.0004
 -17403202.21449 -13542479.69447  21131988.512    21131988.6824   21131996.0554
       203.0004        205.0004
  -4570150.65447  -3548745.45745  23938915.388    23938915.3554   23938920.1124
       158.0004        160.0004
  -1211944.63948   -593511.71546  24139501.036    24139501.4914   24139512.0244
       177.0004        177.0004
  -4261386.21247  -3306985.67045  24191600.623    24191600.5764   24191612.2214
       136.0004        142.0004
 -10237470.63147  -7961961.20245  22806330.514    22806330.4834   22806335.8634
       155.0004        158.0004
 -17163529.11049 -13362928.08648  21699924.552    21699924.8234   21699931.6884
       220.0004        221.0004
 21  2  5  0 15 30.0000000  0  9G08G16G04G09G07G03G01G21G27
 -23467723.21649 -18270125.98648  20154493.468    20154493.9204   20154501.2124
       214.0004        214.0004
  -1920101.42346  -1475471.48445  24186789.564    24186790.6774   24186794.0824
       133.0004        138.0004
 -21986401.80149 -17111175.83747  20341042.585    20341043.0384   20341049.0044
       213.0004        211.0004
 -17447767.89849 -13577206.20047  21123508.300    21123508.6224   21123515.3684
       205.0004        206.0004
  -4637685.94447  -3601370.32545  23926063.127    23926064.0434   23926069.3534
       160.0004        162.0004
  -1153335.44348   -547842.30946  24150654.068    24150655.1854   24150664.4804
       177.0004        178.0004
  -4328694.76847  -3359433.70945  24178793.334    24178793.4024   24178804.6514
       136.0004        142.0004
 -10288260.81247  -8001537.92545  22796665.016    22796664.6994   22796670.9564
       156.0004        158.0004
 -17088726.30249 -13304640.17848  21714159.720    21714159.6404   21714166.0834
       220.0004        220.0004
 21  2  5  0 16  0.0000000  0  9G08G16G04G09G07G03G01G21G27
 -23459382.15249 -18263626.44048  20156081.035    20156081.1404   20156088.6844
       214.0004        214.0004
  -1840141.75446  -1413165.23945  24202005.407    24202005.1344   24202010.1424
       134.0004        141.0004
 -21959136.49549 -17089930.13747  20346231.014    20346231.4634   20346237.4944
       212.0004        211.0004
 -17491820.37649 -13611532.80347  21115125.423    21115125.8504   21115132.5444
       206.0004        206.0004
  -4705365.61847  -3654107.68945  23913183.952    23913184.6784   23913189.5834
       160.0004        162.0004
  -1094895.85448   -502305.04746  24161775.107    24161775.6664   24161785.9074
       177.0004        178.0004
  -4396223.18847  -3412053.02645  24165941.338    24165942.5944   24165954.0884
       137.0004        142.0004
 -10338974.24647  -8041054.84845  22787015.335    22787014.3214   22787019.2044
       156.0004        158.0004
 -17013482.63749 -13246008.74448  21728476.695    21728477.3534   21728484.3094
       220.0004        219.0004
 21  2  5  0 16 30.0000000  0  9G08G16G04G09G07G03G01G21G27
 -23450434.61549 -18256654.31648  20157783.436    20157783.5004   20157791.3814
       213.0004        214.0004
  -1760322.59847  -1350968.53245  24217196.482    24217196.8904   24217201.0854
       138.0004        145.0004
 -21931311.62049 -17068248.41347  20351526.074    20351526.5354   20351532.4544
       212.0004        211.0004
 -17535356.44949 -13645457.01147  21106841.255    21106841.5064   21106847.9784
       207.0004        207.0004
  -4773187.27447  -3706955.69445  23900279.381    23900278.7424   23900283.5844
       159.0004        161.0004
  -1036626.19048   -456900.18946  24172863.173    24172863.9004   24172873.5404
       177.0004        178.0004
  -4463968.00147  -3464840.96645  24153051.387    24153052.4834   24153062.4594
       141.0004        147.0004
 -10389606.54147  -8080508.53945  22777379.282    22777379.6964   22777384.3584
       156.0004        159.0004
 -16937799.41249 -13187034.79048  21742878.974    21742879.5874   21742886.3304
       219.0004        219.0004
 21  2  5  0 17  0.0000000  0  9G08G16G04G09G07G03G01G21G27
 -23440882.82549 -18249211.36048  20159600.939    20159601.2324   20159608.9604
       213.0004        214.0004
  -1680646.03047  -1288882.91145  24232358.688    24232357.2594   24232361.8044
       139.0004        144.0004
 -21902929.30949 -17046132.33447  20356927.126    20356927.5204   20356933.2434
       212.0004        211.0004
 -17578375.76049 -13678978.55647  21098654.476    21098654.8014   21098661.4374
       207.0004        208.0004
  -4841150.94847  -3759914.39045  23887345.228    23887345.5744   23887350.7044
       160.0004        162.0004
   -978529.74848   -411630.34146  24183918.296    24183919.0094   24183929.9134
       178.0004        179.0004
  -4531928.34847  -3517796.89545  24140117.820    24140118.5734   24140130.1364
       144.0004        148.0004
 -10440156.04847  -8119897.71345  22767759.616    22767759.5884   22767764.9824
       157.0004        159.0004
 -16861680.43149 -13127721.30848  21757364.761    21757364.7674   21757371.5164
       219.0004        219.0004
 21  2  5  0 17 30.0000000  0  9G08G16G04G09G07G03G01G21G27
 -23430725.74449 -18241296.74948  20161533.958    20161534.3964   20161541.8194
       213.0004        214.0004
  -1601111.68547  -1226908.11945  24247492.510    24247491.7344   24247497.3664
       139.0004        145.0004
 -21873989.05249 -17023581.49547  20362434.395    20362434.7994   20362440.4284
       212.0004        211.0004
 -17620875.35649 -13712095.12647  21090566.688    21090567.2364   21090574.2734
       207.0004        208.0004
  -4909254.30947  -3812981.89246  23874385.193    23874386.1884   23874390.1744
       161.0004        163.0004
   -920607.03548   -366495.85146  24194941.226    24194942.0614   24194952.3104
       179.0004        181.0004
  -4600100.83547  -3570918.11445  24127144.735    24127145.9264   24127156.5594
       144.0004        149.0004
 -10490618.10647  -8159218.75145  22758158.098    22758157.3984   22758163.2754
       156.0004        159.0004
 -16785127.01149 -13068069.29748  21771931.332    21771931.8994   21771939.2734
       219.0004        219.0004
 21  2  5  0 18  0.0000000  0  9G08G16G04G09G07G03G01G21G27
 -23419964.17049 -18232911.09448  20163581.401    20163581.8974   20163589.1874
       213.0004        213.0004
  -1521720.77847  -1165045.06745  24262596.683    24262597.7844   24262605.0584
       137.0004        143.0004
 -21844491.99949 -17000596.78547  20368047.559    20368047.9884   20368053.5284
       212.0004        211.0004
 -17662853.92949 -13744805.68847  21082578.869    21082578.7994   21082586.2334
       208.0004        208.0004
  -4977496.97047  -3866157.96346  23861401.214    23861399.8754   23861404.4884
       161.0004        163.0004
   -862860.32248   -321498.48646  24205929.279    24205930.6344   24205941.2324
       180.0004        181.0004
  -4668483.58147  -3624203.22945  24114132.345    24114132.7184   24114144.1804
       146.0004        150.0004
 -10540991.06847  -8198470.36345  22748572.525    22748572.0764   22748577.8364
       157.0004        158.0004
 -16708142.10349 -13008081.05848  21786580.710    21786581.7604   21786589.4384
       219.0004        219.0004
 21  2  5  0 18 30.0000000  0  9G08G16G04G09G07G03G01G21G27
 -23408599.05449 -18224055.14348  20165744.114    20165744.6084   20165752.0304
       213.0004        213.0004
  -1442474.39747  -1103294.65945  24277680.872    24277681.4704   24277683.7604
       136.0004        143.0004
 -21814438.97049 -16977178.83747  20373765.773    20373766.5044   20373772.7564
       212.0004        210.0004
 -17704309.75049 -13777108.91747  21074689.386    21074689.9774   21074697.3294
       207.0004        208.0004
  -5045878.02747  -3919441.88146  23848386.700    23848386.9624   23848391.6934
       161.0004        163.0004
   -805291.42048   -276639.70646  24216885.792    24216886.4854   24216895.5624
       181.0004        182.0004
  -4737074.47647  -3677650.51445  24101079.275    24101080.0204   24101089.8924
       145.0004        149.0004
 -10591271.48547  -8237649.84745  22739003.645    22739003.7594   22739008.8074
       157.0004        159.0004
 -16630728.23549 -12947758.56048  21801313.117    21801313.5214   21801320.2004
       219.0004        218.0004
 21  2  5  0 19  0.0000000  0  9G08G16G04G09G07G03G01G21G27
 -23396631.30749 -18214729.60848  20168022.201    20168022.1084   20168029.7204
       213.0004        214.0004
  -1363373.48547  -1041657.58745  24292733.764    24292733.8484   24292734.1344
       136.0004        142.0004
 -21783831.46149 -16953328.83047  20379590.671    20379591.1354   20379597.2064
       212.0004        210.0004
 -17745241.93949 -13809004.12647  21066900.997    21066901.2554   21066908.0954
       208.0004        208.0004
  -5114396.93547  -3972833.18845  23835346.504    23835347.1864   23835352.7994
       161.0004        162.0004
   -747902.97548   -231921.50246  24227807.012    24227807.3624   24227816.4964
       182.0004        182.0004
  -4805871.96247  -3731258.75545  24087987.319    24087987.7054   24088000.5304
       145.0004        149.0004
 -10641457.54747  -8276755.78845  22729453.583    22729453.2464   22729457.6774
       156.0004        159.0004
 -16552888.77449 -12887104.42248  21816125.553    21816125.7434   21816132.1654
       218.0004        217.0004
 21  2  5  0 19 30.0000000  0  9G08G16G04G09G07G03G01G21G27
 -23384061.25849 -18204934.75148  20170413.480    20170413.8504   20170421.5664
       213.0004        213.0004
  -1284418.77447   -980134.43645  24307757.535    24307758.5834   24307758.3364
       135.0004        141.0004
 -21752670.31049 -16929047.41747  20385520.187    20385520.6964   20385526.4794
       211.0004        210.0004
 -17785648.74249 -13840489.94347  21059211.638    21059212.0304   21059218.3714
       208.0004        209.0004
  -5183052.55047  -4026331.02446  23822282.875    23822283.0204   23822289.2064
       162.0004        165.0004
   -690696.57148   -187345.17846  24238690.245    24238691.9864   24238702.6904
       179.0004        179.0004
  -4874873.74147  -3785026.21645  24074858.533    24074859.8184   24074867.9754
       148.0004        152.0004
 -10691546.09047  -8315785.77045  22719921.292    22719921.4814   22719927.1674
       157.0004        159.0004
 -16474626.14249 -12826120.55548  21831018.645    21831018.5104   21831025.7384
       218.0004        217.0004
 21  2  5  0 20  0.0000000  0  9G08G16G04G09G07G03G01G21G27
 -23370889.21349 -18194670.80248  20172919.889    20172920.4274   20172927.9364
       213.0004        213.0004
  -1205611.33747   -918726.01845  24322755.144    24322755.1014   24322757.2414
       137.0004        141.0004
 -21720956.21349 -16904335.14047  20391555.806    20391556.1374   20391561.6664
       211.0004        210.0004
 -17825528.38549 -13871564.98347  21051623.416    21051623.5984   21051630.1004
       209.0004        209.0004
  -5251843.59647  -4079934.39746  23809194.479    23809193.8904   23809198.0604
       164.0004        166.0004
   -633673.92648   -142912.06946  24249541.457    24249542.6904   24249553.5924
       175.0004        174.0004
  -4944077.47547  -3838951.06045  24061689.090    24061689.7004   24061698.3254
       147.0004        150.0004
 -10741534.18347  -8354737.45445  22710410.297    22710409.7844   22710415.3724
       157.0004        159.0004
 -16395942.84549 -12764808.88648  21845991.935    21845992.0784   21845998.5104
       219.0004        219.0004
 21  2  5  0 20 30.0000000  0  9G08G16G04G09G07G03G01G21G27
 -23357117.04249 -18183939.22948  20175540.770    20175541.1464   20175548.7494
       212.0004        213.0004
  -1126952.86347   -857433.74845  24337722.156    24337722.2504   24337727.0864
       136.0004        139.0004
 -21688691.39049 -16879193.72947  20397695.028    20397695.5534   20397701.7544
       211.0004        210.0004
 -17864880.58749 -13902229.03247  21044134.946    21044135.0374   21044141.5864
       209.0004        209.0004
  -5320770.35147  -4133643.53146  23796077.101    23796077.6694   23796081.5164
       164.0004        164.0004
   -576838.15648    -98624.57846  24260357.995    24260358.7764   24260369.3854
       174.0004        174.0004
  -5013482.14047  -3893032.48345  24048481.627    24048481.9824   24048491.4374
       145.0004        149.0004
 -10791420.06547  -8393609.52245  22700916.100    22700915.8744   22700922.4634
       157.0004        160.0004
 -16316842.77149 -12703172.48148  21861044.547    21861044.3374   21861050.3334
       219.0004        218.0004
 21  2  5  0 21  0.0000000  0  9G08G16G04G09G07G03G01G21G27
 -23342744.69949 -18172739.98648  20178276.116    20178276.4914   20178283.5464
       212.0004        213.0004
  -1048443.21146   -796257.39345  24352661.326    24352660.1304   24352664.6434
       131.0004        138.0004
 -21655875.84349 -16853623.17347  20403939.994    20403940.4144   20403945.9464
       211.0004        210.0004
 -17903702.86449 -13932480.14947  21036746.560    21036746.9694   21036753.7754
       209.0004        209.0004
  -5389830.58047  -4187456.65646  23782933.848    23782934.7064   23782939.3514
       162.0004        163.0004
   -520190.05448    -54483.27846  24271139.323    24271139.9634   24271149.6534
       176.0004        179.0004
  -5083084.59247  -3947268.04045  24035235.745    24035235.3254   24035245.1374
       143.0004        146.0004
 -10841200.02947  -8432399.02445  22691443.493    22691443.0984   22691447.8024
       157.0004        158.0004
 -16237327.61049 -12641212.61848  21876175.005    21876175.3224   21876181.7654
       218.0004        217.0004
 21  2  5  0 21 30.0000000  0  9G08G16G04G09G07G03G01G21G27
 -23327773.02749 -18161073.73548  20181125.255    20181125.2444   20181132.8094
       213.0004        213.0004
   -970083.27446   -735197.65845  24367572.042    24367570.8984   24367579.3194
       130.0004        138.0004
 -21622510.80549 -16827624.44747  20410289.082    20410289.7244   20410295.4044
       211.0004        210.0004
 -17941993.96749 -13962317.37047  21029459.662    21029460.0584   21029467.0114
       208.0004        209.0004
  -5459023.03247  -4241372.83246  23769768.557    23769768.0244   23769772.2644
       163.0004        164.0004
   -463731.71648    -10489.84546  24281882.394    24281883.3584   24281893.2124
       178.0004        179.0004
  -5152882.83647  -4001656.12645  24021953.710    24021954.8394   24021964.5124
       144.0004        149.0004
 -10890871.76247  -8471104.18445  22681991.234    22681990.5424   22681997.0614
       157.0004        160.0004
 -16157400.29149 -12578931.58248  21891384.823    21891385.1794   21891391.5584
       218.0004        218.0004
 21  2  5  0 22  0.0000000  0  9G08G16G04G09G07G03G01G21G27
 -23312203.05149 -18148941.26648  20184087.477    20184087.9524   20184095.7334
       213.0004        213.0004
   -891874.07046   -674255.43045  24382456.131    24382457.1894   24382461.3324
       129.0004        138.0004
 -21588597.39249 -16801198.41047  20416742.270    20416742.5674   20416749.2994
       211.0004        209.0004
 -17979752.47449 -13991739.57547  21022274.371    21022274.9304   21022282.0794
       208.0004        209.0004
  -5528347.51247  -4295391.87646  23756575.888    23756575.9714   23756581.6374
       163.0004        166.0004
   -407464.94548     33354.26346  24292588.461    24292589.7294   24292600.1544
       176.0004        177.0004
  -5222874.70647  -4056195.09345  24008636.299    24008635.9344   24008645.3824
       146.0004        149.0004
 -10940431.96947  -8509722.43645  22672559.089    22672559.7344   22672566.3574
       157.0004        159.0004
 -16077063.60949 -12516331.57948  21906672.827    21906672.7224   21906678.7754
       218.0004        218.0004
 21  2  5  0 22 30.0000000  0  9G08G16G04G09G07G03G01G21G27
 -23296035.04449 -18136342.79748  20187164.377    20187164.6934   20187172.3484
       213.0004        213.0004
   -813816.12046   -613431.06345  24397309.860    24397308.1804   24397310.4484
       125.0004        134.0004
 -21554136.66549 -16774345.89847  20423300.564    20423300.4714   20423305.7594
       211.0004        209.0004
 -18016976.93449 -14020745.63747  21015190.814    21015191.1594   21015198.2894
       208.0004        209.0004
  -5597802.40947  -4349512.55246  23743359.279    23743359.4864   23743363.5424
       164.0004        165.0004
   -351391.57748     77047.67246  24303259.666    24303260.2524   24303272.2304
       176.0004        177.0004
  -5293057.96047  -4110883.22245  23995279.791    23995280.1404   23995290.4644
       147.0004        151.0004
 -10989877.89447  -8548251.65645  22663150.576    22663149.2554   22663158.0344
       157.0004        158.0004
 -15996320.21649 -12453414.63448  21922037.615    21922037.5774   21922043.8374
       218.0004        217.0004
 21  2  5  0 23  0.0000000  0  9G08G16G04G09G07G03G01G21G27
 -23279270.43149 -18123279.45648  20190354.142    20190354.7234   20190362.4944
       212.0004        213.0004
   -735910.67446   -552725.49945  24412135.348    24412137.3434   24412136.3554
       126.0004        135.0004
 -21519130.05849 -16747068.03547  20429961.727    20429962.1854   20429967.6514
       210.0004        209.0004
 -18053666.28449 -14049334.73447  21008209.883    21008210.1344   21008216.9684
       209.0004        210.0004
  -5667387.18047  -4403734.46546  23730115.988    23730116.2594   23730122.5544
       163.0004        164.0004
   -295513.72148    120588.75746  24313894.199    24313893.9114   24313904.4564
       177.0004        177.0004
  -5363430.67947  -4165718.97545  23981888.379    23981887.6814   23981898.8684
       147.0004        150.0004
 -11039207.54547  -8586690.27245  22653762.316    22653763.5044   22653768.1984
       155.0004        156.0004
 -15915173.20449 -12390183.20248  21937479.631    21937479.2034   21937485.9704
       217.0004        217.0004
 21  2  5  0 23 30.0000000  0  9G08G16G04G09G07G03G01G21G27
 -23261909.64649 -18109751.55048  20193657.966    20193658.2134   20193666.3674
       212.0004        213.0004
   -658157.99646   -492139.02745  24426929.984    24426929.7764   24426936.6024
       130.0004        139.0004
 -21483578.37549 -16719365.42147  20436726.736    20436726.8824   20436733.3274
       210.0004        208.0004
 -18089818.79249 -14077505.50247  21001330.424    21001330.7844   21001337.5634
       211.0004        212.0004
  -5737100.68047  -4458056.62846  23716850.169    23716850.9364   23716856.3204
       161.0004        163.0004
   -239832.83148    163976.38846  24324488.500    24324490.0634   24324499.8514
       176.0004        176.0004
  -5433990.26747  -4220700.35345  23968461.506    23968461.2394   23968471.9014
       144.0004        147.0004
 -11088417.24647  -8625035.40745  22644400.366    22644399.4774   22644404.8404
       156.0004        160.0004
 -15833624.99149 -12326639.13048  21952995.895    21952997.0384   21953004.0594
       217.0004        216.0004
 21  2  5  0 24  0.0000000  0  9G08G16G04G09G07G03G01G21G27
 -23243954.23449 -18095760.30948  20197074.935    20197075.3864   20197083.0044
       213.0004        213.0004
   -580559.63946   -431672.77745  24441697.561    24441697.2184   24441700.7344
       131.0004        138.0004
 -21447483.53149 -16691239.57247  20443595.362    20443596.1024   20443601.7164
       210.0004        209.0004
 -18125433.90049 -14105257.51947  20994552.908    20994553.0734   20994560.0404
       211.0004        211.0004
  -5806941.97147  -4512478.37946  23703561.190    23703561.3634   23703566.6144
       163.0004        166.0004
   -184351.47948    207208.49146  24335046.994    24335047.6044   24335057.4764
       174.0004        174.0004
  -5504735.20347  -4275826.18645  23954998.610    23955000.5834   23955007.8694
       145.0004        149.0004
 -11137504.80047  -8663285.36645  22635059.106    22635057.9474   22635064.3784
       157.0004        160.0004
 -15751679.09749 -12262785.19448  21968590.645    21968590.3924   21968597.7724
       216.0004        215.0004
 21  2  5  0 24 30.0000000  0  9G08G16G04G09G07G03G01G21G27
 -23225405.43949 -18081306.68748  20200605.498    20200605.3884   20200612.6574
       212.0004        213.0004
   -503116.48546   -371327.45845  24456433.530    24456431.9654   24456438.6004
       128.0004        135.0004
 -21410846.85949 -16662691.51747  20450567.393    20450567.7074   20450573.5444
       210.0004        208.0004
 -18160510.41149 -14132589.86147  20987877.440    20987878.4054   20987885.0884
       210.0004        211.0004
  -5876910.24748  -4566999.10546  23690246.723    23690247.6144   23690251.8674
       166.0004        169.0004
   -129071.61848    250283.61346  24345567.121    24345567.9084   24345578.0334
       174.0004        175.0004
  -5575663.36847  -4331094.76945  23941500.923    23941501.4664   23941509.6894
       146.0004        149.0004
 -11186468.11347  -8701438.52845  22625740.006    22625739.9134   22625745.4074
       157.0004        157.0004
 -15669338.42949 -12198623.63948  21984258.650    21984259.2124   21984266.4974
       215.0004        214.0004
 21  2  5  0 25  0.0000000  0  9G08G16G04G09G07G03G01G21G27
 -23206263.68049 -18066391.02248  20204247.071    20204247.6674   20204254.9854
       212.0004        213.0004
   -425828.42846   -311103.00845  24471142.455    24471142.7734   24471146.7584
       126.0004        133.0004
 -21373668.90749 -16633721.69047  20457642.367    20457642.7004   20457648.3694
       210.0004        209.0004
 -18195046.35149 -14159500.96947  20981305.937    20981306.1794   20981312.8294
       210.0004        211.0004
  -5947003.60548  -4621617.30846  23676908.992    23676909.3104   23676912.6664
       167.0004        167.0004
    -73994.29048    293200.90546  24356047.872    24356048.2194   24356057.4084
       172.0004        172.0004
  -5646771.86347  -4386503.85045  23927969.325    23927969.4004   23927979.5384
       145.0004        148.0004
 -11235303.51247  -8739492.00745  22616447.315    22616445.8704   22616453.6134
       156.0004        157.0004
 -15586605.05849 -12134156.07848  22000003.537    22000003.4374   22000010.1424
       215.0004        215.0004
 21  2  5  0 25 30.0000000  0  9G08G16G04G09G07G03G01G21G27
 -23186530.82849 -18051014.74748  20208002.196    20208002.5474   20208010.1704
       212.0004        213.0004
   -348697.57646   -251001.03344  24485816.499    24485816.1714   24485822.2584
       124.0004        131.0004
 -21335951.97749 -16604331.86947  20464819.542    20464819.9864   20464825.7354
       210.0004        209.0004
 -18229041.52449 -14185990.68447  20974836.966    20974837.0144   20974844.2974
       211.0004        211.0004
  -6017222.15047  -4676333.03545  23663544.630    23663545.5644   23663549.9384
       163.0004        161.0004
    -19122.35548    335958.10746  24366488.677    24366489.6324   24366499.5004
       171.0004        172.0004
  -5718059.41047  -4442052.43045  23914404.797    23914403.7664   23914413.0434
       144.0004        147.0004
 -11284009.03747  -8777444.28845  22607177.761    22607178.2964   22607183.5854
       155.0004        157.0004
 -15503482.93349 -12069385.56948  22015820.713    22015821.3634   22015827.7844
       215.0004        215.0004
 21  2  5  0 26  0.0000000  0  9G08G16G04G09G07G03G01G21G27
 -23166206.11749 -18035177.29647  20211869.617    20211870.0634   20211877.7474
       212.0004        212.0004
   -271722.80046   -191020.68944  24500464.695    24500464.9884   24500470.1354
       123.0004        131.0004
 -21297695.79649 -16574521.86347  20472099.250    20472099.5834   20472105.8894
       210.0004        208.0004
 -18262493.14149 -14212056.87047  20968471.098    20968471.5364   20968478.2994
       211.0004        211.0004
  -6087563.43647  -4731144.39746  23650159.863    23650160.4954   23650164.6244
       161.0004        163.0004
