     2.11           OBSERVATION DATA    G (GPS)             RINEX VERSION / TYPE
teqc  2018Jun8                          20210202 03:10:41UTCPGM / RUN BY / DATE
Linux2.6.32-573.12.1.el6.x86_64|x86_64|gcc|Win64-MinGW64|=+ COMMENT
BIT 2 OF LLI FLAGS DATA COLLECTED UNDER A/S CONDITION       COMMENT
-Unknown-                                                   MARKER NAME
CRNO                                                        MARKER NUMBER
-Unknown-           -Unknown-                               OBSERVER / AGENCY
-Unknown-           ASHTECH             -Unknown-           REC # / TYPE / VERS
-Unknown-           -Unknown-                               ANT # / TYPE
   408079.7197 -6158372.8412  1605162.9970                  APPROX POSITION XYZ
        0.0000        0.0000        0.0000                  ANTENNA: DELTA H/E/N
     1     1                                                WAVELENGTH FACT L1/2
     7    L1    L2    C1    P1    P2    S1    S2            # / TYPES OF OBSERV
    30.0000                                                 INTERVAL
Forced Modulo Decimation to 30 seconds                      COMMENT
 SNR is mapped to RINEX snr flag value [1-9]                COMMENT
  L1: 1 -> 1;  90 -> 5; 210 -> 9                            COMMENT
  L2: 1 -> 1; 150 -> 5; 250 -> 9                            COMMENT
pseudorange smoothing corrections not applied               COMMENT
  2021     2     4     0     0   30.0000000     GPS         TIME OF FIRST OBS
                                                            END OF HEADER
 21  2  4  0  0 30.0000000  0  7G08G27G07G09G21G04G01
 -21711652.79949 -16905368.33747  20565862.201    20565862.3094   20565869.6814
       209.0004        210.0004
 -10934302.93349  -8479971.29547  23007388.448    23007388.8804   23007395.4804
       200.0004        199.0004
  -9814505.55348  -7625889.02846  22859455.639    22859456.2484   22859461.0534
       180.0004        180.0004
 -18308711.20049 -14233065.73948  20771534.916    20771535.7704   20771542.3114
       215.0004        215.0004
 -14388326.88448 -11194796.25646  22131982.004    22131981.8374   22131987.0454
       173.0004        175.0004
 -18485983.30849 -14387596.04947  21045887.408    21045888.3164   21045894.0984
       200.0004        198.0004
  -8644743.35547  -6721586.92346  23118348.474    23118348.9694   23118357.0544
       163.0004        164.0004
 21  2  4  0  1  0.0000000  0  7G08G27G07G09G21G04G01
 -21661576.77649 -16866348.04647  20575391.437    20575391.7824   20575398.8714
       209.0004        210.0004
 -10833808.44949  -8401663.90247  23026511.867    23026512.1994   23026519.5304
       199.0004        198.0004
  -9889493.17748  -7684320.93546  22845188.086    22845187.6464   22845191.3284
       180.0004        182.0004
 -18309472.10049 -14233658.64748  20771390.361    20771390.8984   20771397.5214
       215.0004        215.0004
 -14425696.99248 -11223915.81546  22124871.127    22124869.9264   22124875.1374
       174.0004        175.0004
 -18419475.61849 -14335771.87847  21058544.271    21058544.6004   21058550.2694
       199.0004        198.0004
  -8722262.91847  -6781991.74345  23103595.924    23103596.1764   23103605.4814
       162.0004        162.0004
 21  2  4  0  1 30.0000000  0  7G08G27G07G09G21G04G01
 -21611007.88849 -16826943.70447  20585014.571    20585014.9504   20585021.7704
       210.0004        210.0004
 -10733099.82149  -8323189.65047  23045677.327    23045677.5554   23045683.8234
       198.0004        198.0004
  -9964520.61348  -7742783.85446  22830909.547    22830910.1234   22830914.0874
       181.0004        181.0004
 -18309666.36349 -14233810.02448  20771353.601    20771354.0564   20771360.8884
       215.0004        216.0004
 -14462783.04648 -11252814.01846  22117813.040    22117812.5324   22117817.5674
       174.0004        175.0004
 -18352546.34249 -14283619.19547  21071280.216    21071280.8424   21071286.3524
       199.0004        197.0004
  -8799814.12647  -6842421.24645  23088837.459    23088838.6984   23088847.1714
       161.0004        162.0004
 21  2  4  0  2  0.0000000  0  7G08G27G07G09G21G04G01
 -21559947.20049 -16787156.14247  20594730.685    20594731.0794   20594738.3864
       209.0004        210.0004
 -10632178.70849  -8244549.81347  23064881.697    23064881.8684   23064888.3004
       197.0004        196.0004
 -10039584.62248  -7801275.27146  22816625.605    22816626.2454   22816628.9214
       181.0004        182.0004
 -18309292.91849 -14233519.02448  20771424.292    20771424.7514   20771431.6294
       215.0004        215.0004
 -14499580.84248 -11281487.61546  22110809.591    22110809.4444   22110815.2594
       173.0004        173.0004
 -18285196.51449 -14231138.80647  21084096.050    21084096.9404   21084102.7684
       199.0004        198.0004
  -8877392.71147  -6902872.07745  23074075.427    23074076.6784   23074084.2374
       161.0004        162.0004
 21  2  4  0  2 30.0000000  0  7G08G27G07G09G21G04G01
 -21508397.76349 -16746987.74547  20604539.549    20604540.3444   20604548.2584
       209.0004        209.0004
 -10531048.93749  -8165747.40147  23084125.589    23084125.6424   23084132.6824
       196.0004        197.0004
 -10114684.22648  -7859794.44746  22802334.155    22802333.9294   22802338.6694
       181.0004        181.0004
 -18308353.05649 -14232786.66848  20771603.066    20771603.7324   20771610.6534
       215.0004        216.0004
 -14536088.97348 -11309935.50246  22103862.605    22103863.0684   22103868.4794
       173.0004        174.0004
 -18217429.52149 -14178333.36447  21096992.543    21096992.8054   21096998.9414
       200.0004        199.0004
  -8954996.63347  -6963342.66646  23059308.994    23059308.3144   23059316.8314
       161.0004        163.0004
 21  2  4  0  3  0.0000000  0  7G08G27G07G09G21G04G01
 -21456362.04549 -16706440.42147  20614441.567    20614442.0764   20614449.8664
       208.0004        209.0004
 -10429713.49349  -8086784.72347  23103408.403    23103408.8004   23103416.0394
       196.0004        196.0004
 -10189817.69148  -7918339.99346  22788035.815    22788035.7834   22788040.8974
       180.0004        180.0004
 -18306847.16849 -14231613.24748  20771890.273    20771890.5494   20771897.1284
       215.0004        216.0004
 -14572304.73948 -11338155.57146  22096972.986    22096971.7014   22096976.1834
       173.0004        173.0004
 -18149247.84749 -14125204.77947  21109966.604    21109967.0334   21109973.6674
       200.0004        198.0004
  -9032622.96647  -7023830.68946  23044537.072    23044537.7994   23044545.5674
       162.0004        165.0004
 21  2  4  0  3 30.0000000  0  7G08G27G07G09G21G04G01
 -21403841.36349 -16665515.20547  20624437.258    20624437.3694   20624444.4624
       208.0004        209.0004
 -10328174.47149  -8007663.39647  23122729.299    23122730.0504   23122738.2394
       195.0004        194.0004
 -10264982.28148  -7976909.77646  22773732.833    22773733.6684   22773738.3374
       179.0004        180.0004
 -18304774.75649 -14229998.37848  20772284.390    20772284.8434   20772291.8674
       215.0004        216.0004
 -14608224.32148 -11366144.83646  22090136.288    22090135.1864   22090141.6754
       172.0004        172.0004
 -18080653.09849 -14071754.32947  21123019.649    21123020.0034   21123026.5964
       199.0004        198.0004
  -9110267.90147  -7084333.21046  23029760.839    23029761.4024   23029769.6204
       162.0004        163.0004
 21  2  4  0  4  0.0000000  0  7G08G27G07G09G21G04G01
 -21350837.59249 -16624213.55547  20634523.333    20634523.7614   20634530.8084
       209.0004        210.0004
 -10226434.23648  -7928385.29847  23142090.831    23142091.1284   23142098.6334
       194.0004        193.0004
 -10340175.28448  -8035501.71446  22759425.384    22759425.2754   22759429.7794
       179.0004        181.0004
 -18302135.71749 -14227941.98448  20772787.220    20772787.2274   20772794.1274
       216.0004        217.0004
 -14643845.06648 -11393901.22546  22083357.962    22083357.1004   22083362.2204
       172.0004        173.0004
 -18011647.18649 -14017983.49847  21136151.134    21136151.5354   21136157.6154
       199.0004        197.0004
  -9187927.87947  -7144847.47746  23014983.734    23014983.9134   23014991.9244
       162.0004        165.0004
 21  2  4  0  4 30.0000000  0  7G08G27G07G09G21G04G01
 -21297355.16549 -16582538.92647  20644700.616    20644700.8144   20644707.8804
       209.0004        209.0004
 -10124497.68248  -7848954.21547  23161486.653    23161488.9094   23161497.6854
       193.0004        193.0004
 -10415396.95248  -8094115.99846  22745110.807    22745110.6244   22745115.2194
       180.0004        180.0004
 -18298932.43749 -14225445.92948  20773396.096    20773396.5674   20773403.5954
       216.0004        216.0004
 -14679166.08648 -11421424.08446  22076637.083    22076636.7044   22076642.2654
       173.0004        174.0004
 -17942234.58349 -13963895.77647  21149360.341    21149360.5974   21149366.6604
       198.0004        197.0004
  -9265601.89647  -7205372.66846  23000201.226    23000202.0334   23000211.4394
       163.0004        165.0004
 21  2  4  0  5  0.0000000  0  7G08G27G07G09G21G04G01
 -21243394.86549 -16540491.92447  20654969.076    20654969.3014   20654976.1454
       209.0004        209.0004
 -10022366.07948  -7769371.15947  23180922.962    23180923.7954   23180932.1264
       192.0004        192.0004
 -10490643.54648  -8152749.69746  22730790.717    22730791.5024   22730795.6034
       179.0004        180.0004
 -18295163.74449 -14222509.28448  20774114.248    20774113.9354   20774120.6964
       216.0004        216.0004
 -14714183.09848 -11448710.04446  22069972.421    22069971.7164   22069978.7844
       173.0004        173.0004
 -17872416.11149 -13909491.77547  21162646.773    21162646.9474   21162652.8004
       199.0004        198.0004
  -9343285.25247  -7265905.11346  22985419.770    22985420.6534   22985428.2044
       163.0004        164.0004
 21  2  4  0  5 30.0000000  0  7G08G27G07G09G21G04G01
 -21188959.50749 -16498074.74447  20665326.614    20665327.1514   20665334.5784
       208.0004        208.0004
  -9920043.47048  -7689639.25547  23200395.712    23200395.0174   23200404.1484
       192.0004        192.0004
 -10565914.21848  -8211402.14946  22716466.615    22716467.1644   22716472.2444
       179.0004        180.0004
 -18290831.29349 -14219133.34248  20774937.658    20774938.0544   20774945.2484
       216.0004        216.0004
 -14748895.06848 -11475758.31146  22063366.644    22063366.3504   22063372.7544
       172.0004        173.0004
 -17802195.46949 -13854774.39147  21176009.080    21176009.2864   21176015.0144
       198.0004        197.0004
  -9420976.14647  -7326443.45146  22970636.035    22970635.7784   22970644.4704
       163.0004        165.0004
 21  2  4  0  6  0.0000000  0  7G08G27G07G09G21G04G01
 -21134053.65349 -16455290.96147  20675774.557    20675775.1554   20675782.8854
       207.0004        207.0004
  -9817534.54548  -7609762.19047  23219901.666    23219902.1564   23219910.4034
       191.0004        191.0004
 -10641208.83348  -8270073.27046  22702139.457    22702139.9624   22702143.9904
       180.0004        182.0004
 -18285937.32549 -14215319.85948  20775869.395    20775869.6634   20775876.1784
       215.0004        216.0004
 -14783300.87248 -11502568.02246  22056820.748    22056820.3704   22056824.8774
       173.0004        174.0004
 -17731576.86949 -13799746.91947  21189446.882    21189447.2334   21189453.5174
       198.0004        197.0004
  -9498673.25947  -7386986.64846  22955850.321    22955850.4754   22955859.3174
       163.0004        164.0004
 21  2  4  0  6 30.0000000  0  7G08G27G07G09G21G04G01
 -21078678.77349 -16412141.71247  20686313.126    20686313.0574   20686320.4914
       207.0004        208.0004
  -9714841.09248  -7529741.33647  23239445.405    23239444.4894   23239452.1074
       190.0004        191.0004
 -10716524.28948  -8328760.63546  22687807.493    22687807.8474   22687811.9344
       181.0004        181.0004
 -18280481.27749 -14211068.40348  20776907.557    20776908.0014   20776914.4064
       215.0004        216.0004
 -14817396.95348 -11529136.38646  22050331.434    22050331.5544   22050336.5944
       173.0004        174.0004
 -17660561.75849 -13744410.48247  21202960.567    21202961.2934   21202967.2574
       198.0004        198.0004
  -9576372.47647  -7447531.47146  22941063.532    22941064.1634   22941073.4934
       162.0004        164.0004
 21  2  4  0  7  0.0000000  0  7G08G27G07G09G21G04G01
 -21022836.89049 -16368628.54447  20696939.555    20696939.7434   20696946.9544
       207.0004        208.0004
  -9611965.70448  -7449578.70047  23259021.569    23259021.4164   23259029.0994
       191.0004        192.0004
 -10791858.28548  -8387462.44746  22673472.519    22673472.2984   22673476.6974
       180.0004        180.0004
 -18274463.41349 -14206379.15748  20778053.092    20778053.0814   20778059.8394
       216.0004        216.0004
 -14851180.39848 -11555461.12346  22043902.597    22043902.6754   22043908.2844
       173.0004        174.0004
 -17589152.38349 -13688766.81247  21216549.394    21216549.9014   21216556.6584
       198.0004        197.0004
  -9654070.40347  -7508075.27846  22926277.358    22926278.7034   22926287.5674
       162.0004        164.0004
 21  2  4  0  7 30.0000000  0  7G08G27G07G09G21G04G01
 -20966529.57649 -16324752.70247  20707654.569    20707654.7294   20707661.8294
       207.0004        208.0004
  -9508910.54848  -7369275.98347  23278629.768    23278631.3544   23278638.5224
       189.0004        189.0004
 -10867207.82748  -8446176.36346  22659133.246    22659133.8584   22659137.7854
       181.0004        181.0004
 -18267883.57449 -14201252.00548  20779304.269    20779304.7504   20779311.9294
       215.0004        216.0004
 -14884647.54348 -11581539.41346  22037535.454    22037535.1004   22037540.2274
       175.0004        175.0004
 -17517350.54649 -13632817.34147  21230212.155    21230212.8724   21230219.7734
       198.0004        197.0004
  -9731763.30147  -7568615.18046  22911494.339    22911495.2324   22911503.3474
       162.0004        163.0004
 21  2  4  0  8  0.0000000  0  7G08G27G07G09G21G04G01
 -20909759.48049 -16280516.25447  20718458.290    20718458.1484   20718464.6814
       208.0004        209.0004
  -9405678.19548  -7288835.19347  23298275.164    23298275.9214   23298284.7404
       191.0004        192.0004
 -10942570.97148  -8504900.86946  22644791.634    22644792.2194   22644796.8084
       181.0004        182.0004
 -18260742.10149 -14195687.22448  20780663.562    20780663.7384   20780670.7384
       215.0004        216.0004
 -14917796.15548 -11607369.48146  22031227.264    22031226.6614   22031232.0744
       175.0004        175.0004
 -17445158.51649 -13576563.81847  21243950.740    21243950.8514   21243956.7984
       198.0004        196.0004
  -9809447.83047  -7629148.55946  22896712.097    22896712.5014   22896720.5254
       162.0004        163.0004
 21  2  4  0  8 30.0000000  0  7G08G27G07G09G21G04G01
 -20852529.29349 -16235921.27947  20729348.058    20729348.2864   20729355.3464
       207.0004        208.0004
  -9302272.67448  -7208259.47447  23317953.684    23317953.2564   23317960.8694
       190.0004        191.0004
 -11017946.78848  -8563635.24046  22630448.005    22630448.1634   22630453.2614
       182.0004        183.0004
 -18253040.74849 -14189686.17148  20782129.030    20782129.4864   20782136.1834
       215.0004        216.0004
 -14950624.88648 -11632950.29446  22024980.137    22024979.2724   22024985.3594
       176.0004        176.0004
 -17372580.05349 -13520009.16347  21257761.472    21257761.7484   21257768.1934
       197.0004        195.0004
  -9887121.99847  -7689673.85646  22881931.047    22881931.4974   22881939.1184
       162.0004        163.0004
 21  2  4  0  9  0.0000000  0  7G08G27G07G09G21G04G01
 -20794843.22949 -16190971.10447  20740324.745    20740325.1984   20740332.4664
       207.0004        207.0004
  -9198697.91748  -7127551.88847  23337663.022    23337662.5614   23337670.2354
       190.0004        190.0004
 -11093334.08048  -8622378.59846  22616103.968    22616103.8204   22616106.6934
       182.0004        184.0004
 -18244781.25449 -14183250.21148  20783701.008    20783701.1754   20783707.8804
       215.0004        215.0004
 -14983132.04648 -11658280.53246  22018794.559    22018793.5964   22018798.2584
       176.0004        176.0004
 -17299618.71549 -13463156.17647  21271645.581    21271645.9954   21271651.7934
       197.0004        195.0004
  -9964783.78047  -7750189.52345  22867152.364    22867152.3404   22867160.7514
       161.0004        162.0004
 21  2  4  0  9 30.0000000  0  7G08G27G07G09G21G04G01
 -20736703.73749 -16145667.61347  20751387.924    20751388.4574   20751395.9164
       206.0004        206.0004
  -9094957.58048  -7046715.26447  23357405.089    23357404.7214   23357412.0444
       190.0004        191.0004
 -11168731.67348  -8681129.98246  22601755.534    22601756.3784   22601759.2834
       184.0004        185.0004
 -18235965.06649 -14176380.46348  20785378.513    20785379.0284   20785385.5834
       215.0004        215.0004
 -15015315.80748 -11683358.77446  22012669.264    22012669.1084   22012673.3944
       175.0004        176.0004
 -17226277.84149 -13406007.46647  21285602.283    21285602.7904   21285608.3724
       196.0004        195.0004
 -10042430.85447  -7810693.71246  22852377.072    22852377.5844   22852385.4594
       162.0004        165.0004
 21  2  4  0 10  0.0000000  0  7G08G27G07G09G21G04G01
 -20678112.67749 -16100012.23247  20762537.994    20762538.2244   20762545.1814
       206.0004        206.0004
  -8991053.01948  -6965750.69747  23377178.224    23377177.6664   23377184.6054
       192.0004        194.0004
 -11244135.92548  -8739886.52946  22587406.501    22587406.8964   22587411.8284
       185.0004        186.0004
 -18226591.44149 -14169076.32548  20787162.427    20787162.4794   20787169.6064
       215.0004        215.0004
 -15047172.40148 -11708182.08246  22006607.702    22006607.0614   22006612.2124
       175.0004        176.0004
 -17152558.68749 -13348563.96247  21299631.108    21299631.1434   21299637.1694
       197.0004        196.0004
 -10120058.69847  -7871182.90246  22837605.221    22837604.5044   22837612.5544
       163.0004        165.0004
 21  2  4  0 10 30.0000000  0  7G08G27G07G09G21G04G01
 -20619073.29649 -16054007.51247  20773773.437    20773773.8934   20773780.3214
       206.0004        207.0004
  -8886988.23448  -6884661.25547  23396980.508    23396980.3414   23396987.4484
       193.0004        193.0004
 -11319545.78848  -8798647.43846  22573056.125    22573056.6484   22573061.4994
       186.0004        186.0004
 -18216662.21049 -14161339.26548  20789051.387    20789051.9294   20789058.8424
       214.0004        215.0004
 -15078700.30248 -11732749.25246  22000608.216    22000606.9134   22000612.9284
       176.0004        175.0004
 -17078464.86549 -13290828.51947  21313729.633    21313730.3124   21313736.7704
       197.0004        196.0004
 -10197665.21247  -7931655.52546  22822836.962    22822837.4484   22822845.1134
       164.0004        167.0004
 21  2  4  0 11  0.0000000  0  7G08G27G07G09G21G04G01
 -20559585.75549 -16007653.56847  20785093.612    20785093.9254   20785100.4694
       207.0004        207.0004
  -8782763.62248  -6803447.26547  23416813.147    23416813.5724   23416821.3294
       193.0004        193.0004
 -11394956.88648  -8857409.32746  22558706.100    22558706.1624   22558710.7144
       186.0004        186.0004
 -18206175.70449 -14153167.96548  20791047.222    20791047.5364   20791054.2194
       214.0004        215.0004
 -15109894.65548 -11757056.51846  21994671.961    21994671.7204   21994676.1344
       175.0004        175.0004
 -17003996.60449 -13232801.30847  21327900.601    21327901.1004   21327907.4484
       197.0004        195.0004
 -10275244.91247  -7992107.21046  22808072.968    22808073.6824   22808082.3034
       164.0004        166.0004
 21  2  4  0 11 30.0000000  0  7G08G27G07G09G21G04G01
 -20499652.83749 -15960952.58447  20796498.044    20796498.1204   20796505.5734
       207.0004        207.0004
  -8678382.17648  -6722111.10447  23436676.726    23436677.1924   23436684.5544
       193.0004        194.0004
 -11470367.27848  -8916170.66246  22544356.523    22544356.7914   22544360.9094
       185.0004        186.0004
 -18195132.85549 -14144563.15248  20793148.936    20793149.1194   20793155.7634
       215.0004        215.0004
 -15140753.02348 -11781101.98946  21988799.713    21988799.6334   21988803.4714
       175.0004        175.0004
 -16929156.65749 -13174484.46847  21342142.500    21342142.7194   21342149.1174
       196.0004        195.0004
 -10352794.77447  -8052535.65746  22793316.264    22793315.9944   22793324.7714
       164.0004        166.0004
 21  2  4  0 12  0.0000000  0  7G08G27G07G09G21G04G01
 -20439278.38949 -15913907.55147  20807986.594    20807986.8014   20807994.5554
       206.0004        206.0004
  -8573848.76448  -6640656.46847  23456568.390    23456568.5754   23456575.6214
       192.0004        192.0004
 -11545776.77648  -8974931.29446  22530005.399    22530006.1644   22530010.5524
       185.0004        186.0004
 -18183536.52049 -14135527.04448  20795355.305    20795355.6824   20795362.6244
       215.0004        215.0004
 -15171274.99848 -11804885.32746  21982991.115    21982990.5994   21982995.7364
       174.0004        174.0004
 -16853949.67949 -13115881.63347  21356454.331    21356454.6074   21356460.2234
       196.0004        195.0004
 -10430313.71048  -8112939.99946  22778564.382    22778565.4774   22778574.3144
       165.0004        168.0004
 21  2  4  0 12 30.0000000  0  7G08G27G07G09G21G04G01
 -20378463.81749 -15866519.57647  20819559.949    20819559.7714   20819566.8144
       206.0004        206.0004
  -8469164.52548  -6559084.35747  23476489.117    23476489.6104   23476496.2824
       192.0004        191.0004
 -11621181.56948  -9033688.27747  22515657.399    22515657.8804   22515661.3114
       187.0004        188.0004
 -18171385.84349 -14126058.98648  20797667.498    20797667.7544   20797674.7574
       215.0004        215.0004
 -15201456.68448 -11828403.51146  21977246.759    21977246.8434   21977253.1104
       174.0004        176.0004
 -16778376.60449 -13056993.53647  21370835.037    21370835.5884   21370841.0854
       196.0004        194.0004
 -10507796.81948  -8173316.44446  22763820.656    22763820.7784   22763828.4114
       167.0004        169.0004
 21  2  4  0 13  0.0000000  0  7G08G27G07G09G21G04G01
 -20317213.93349 -15818792.38547  20831214.395    20831214.7524   20831221.9024
       205.0004        205.0004
  -8364334.39648  -6477398.53947  23496438.182    23496438.4814   23496445.2864
       192.0004        193.0004
 -11696581.58448  -9092441.52546  22501309.066    22501309.4484   22501312.9774
       187.0004        187.0004
 -18158683.77249 -14116161.27248  20800084.540    20800084.9844   20800091.6864
       215.0004        215.0004
 -15231297.33748 -11851655.94446  21971569.466    21971569.3824   21971574.4784
       175.0004        176.0004
 -16702442.21849 -12997823.88147  21385284.557    21385284.6984   21385290.9024
       195.0004        193.0004
 -10585243.13148  -8233664.20946  22749082.519    22749083.4684   22749091.6174
       168.0004        170.0004
 21  2  4  0 13 30.0000000  0  7G08G27G07G09G21G04G01
 -20255530.93449 -15770727.70347  20842952.493    20842953.0294   20842959.6524
       205.0004        206.0004
  -8259361.31248  -6395601.34647  23516413.548    23516413.7324   23516420.1014
       191.0004        191.0004
 -11771974.53348  -9151189.27746  22486962.524    22486962.2394   22486966.1464
       187.0004        187.0004
 -18145431.35949 -14105834.72448  20802606.501    20802606.9924   20802613.7714
       215.0004        215.0004
 -15260795.02148 -11874641.14046  21965955.549    21965956.1084   21965960.8194
       174.0004        175.0004
 -16626149.36749 -12938374.92047  21399802.909    21399803.5614   21399809.8464
       195.0004        194.0004
 -10662649.59248  -8293980.91646  22734353.334    22734353.7164   22734361.7174
       169.0004        171.0004
 21  2  4  0 14  0.0000000  0  7G08G27G07G09G21G04G01
 -20193417.42849 -15722327.55447  20854773.303    20854773.5284   20854779.9514
       205.0004        206.0004
  -8154247.95048  -6313694.83047  23536416.210    23536415.5274   23536422.1904
       189.0004        189.0004
 -11847358.30048  -9209929.85047  22472616.905    22472616.8854   22472621.6904
       187.0004        188.0004
 -18131629.35149 -14095079.90048  20805233.131    20805233.3124   20805240.1824
       215.0004        215.0004
 -15289947.10348 -11897357.01346  21960408.286    21960407.3604   21960413.0854
       174.0004        174.0004
 -16549500.54049 -12878648.56747  21414389.354    21414389.5104   21414395.0844
       196.0004        194.0004
 -10740012.82648  -8354263.93746  22719632.312    22719632.4214   22719639.5824
       170.0004        172.0004
 21  2  4  0 14 30.0000000  0  7G08G27G07G09G21G04G01
 -20130875.63549 -15673593.67747  20866674.277    20866674.1664   20866681.7464
       206.0004        206.0004
  -8048996.73648  -6231680.91747  23556443.956    23556444.6244   23556451.2024
       190.0004        190.0004
 -11922730.53148  -9268661.46547  22458274.676    22458275.0344   22458278.4864
       188.0004        188.0004
 -18117278.24949 -14083897.22948  20807964.026    20807964.1904   20807971.0114
       215.0004        216.0004
 -15318750.88148 -11919801.50946  21954927.008    21954926.8944   21954932.0724
       174.0004        175.0004
 -16472497.96449 -12818646.56147  21429041.763    21429042.5084   21429048.9454
       195.0004        194.0004
 -10817329.25448  -8414510.49846  22704918.867    22704918.5764   22704926.9204
       170.0004        171.0004
 21  2  4  0 15  0.0000000  0  7G08G27G07G09G21G04G01
 -20067906.00749 -15624526.43247  20878656.357    20878656.6004   20878664.0984
       205.0004        205.0004
  -7943608.51048  -6149560.21847  23576498.923    23576499.2784   23576506.5514
       190.0004        191.0004
 -11998087.14648  -9327380.89747  22443933.606    22443934.4224   22443938.2244
       188.0004        189.0004
 -18102377.17549 -14072285.99848  20810799.511    20810799.6714   20810806.5924
       215.0004        216.0004
 -15347201.75948 -11941970.99946  21949513.303    21949512.6204   21949518.6064
       175.0004        176.0004
 -16395142.48149 -12758369.56447  21443762.092    21443762.7414   21443768.5754
       195.0004        194.0004
 -10894593.84348  -8474716.64846  22690215.158    22690215.9424   22690224.3834
       170.0004        172.0004
 21  2  4  0 15 30.0000000  0  7G08G27G07G09G21G04G01
 -20004513.88049 -15575129.97347  20890719.227    20890719.7964   20890727.3234
       204.0004        205.0004
  -7838088.19048  -6067336.61447  23596577.317    23596578.6244   23596585.9744
       190.0004        189.0004
 -12073427.66148  -9386087.78647  22429597.260    22429598.1504   22429602.0054
       189.0004        189.0004
 -18086929.11949 -14060248.55848  20813739.427    20813739.8794   20813746.3254
       215.0004        216.0004
 -15375299.66148 -11963865.44846  21944166.181    21944166.4104   21944171.9254
       175.0004        176.0004
 -16317438.80449 -12697821.25647  21458548.342    21458548.9634   21458554.9524
       195.0004        193.0004
 -10971805.37148  -8534881.47046  22675522.218    22675522.9844   22675530.2354
       171.0004        173.0004
 21  2  4  0 16  0.0000000  0  7G08G27G07G09G21G04G01
 -19940701.48149 -15525406.01747  20902862.731    20902862.8734   20902870.2374
       204.0004        204.0004
  -7732438.63748  -5985012.27647  23616681.910    23616682.9314   23616690.9174
       188.0004        188.0004
 -12148749.75448  -9444780.30247  22415264.285    22415264.2184   22415268.6574
       189.0004        189.0004
 -18070935.29749 -14047785.83748  20816782.965    20816782.9854   20816789.7894
       215.0004        215.0004
 -15403042.48148 -11985483.20946  21938887.306    21938886.7634   21938893.2094
       176.0004        178.0004
 -16239389.82648 -12637003.86947  21473400.662    21473401.1644   21473407.3674
       194.0004        194.0004
 -11048960.84148  -8595002.58246  22660839.905    22660840.8164   22660848.3414
       171.0004        172.0004
 21  2  4  0 16 30.0000000  0  7G08G27G07G09G21G04G01
 -19876470.17449 -15475355.65047  20915086.141    20915085.9334   20915093.0484
       204.0004        205.0004
  -7626661.16248  -5902588.30946  23636812.515    23636813.0034   23636819.2134
       187.0004        186.0004
 -12224050.53648  -9503456.22847  22400934.269    22400934.8274   22400938.9844
       188.0004        188.0004
 -18054395.22149 -14034897.48048  20819930.288    20819930.5384   20819937.1654
       215.0004        215.0004
 -15430426.25848 -12006821.20946  21933676.199    21933675.4994   21933681.4104
       177.0004        178.0004
 -16160996.74748 -12575918.37547  21488318.088    21488318.6874   21488324.9484
       194.0004        192.0004
 -11126055.51548  -8655076.35446  22646167.634    22646169.7614   22646177.8744
       171.0004        172.0004
 21  2  4  0 17  0.0000000  0  7G08G27G07G09G21G04G01
 -19811824.64049 -15424982.47647  20927387.056    20927387.1584   20927394.6174
       204.0004        204.0004
  -7520761.02748  -5820068.72346  23656965.132    23656964.8324   23656971.1764
       185.0004        185.0004
 -12299329.98748  -9562115.52347  22386608.918    22386609.7884   22386613.5194
       187.0004        188.0004
 -18037312.41249 -14021586.18348  20823180.270    20823180.9644   20823188.0204
       215.0004        215.0004
 -15457450.96648 -12027879.39346  21928533.718    21928533.1504   21928538.1974
       177.0004        177.0004
 -16082264.76448 -12514568.77747  21503300.482    21503301.0064   21503307.1004
       194.0004        193.0004
 -11203088.68548  -8715102.17846  22631510.113    22631510.5924   22631519.6034
       171.0004        173.0004
 21  2  4  0 17 30.0000000  0  7G08G27G07G09G21G04G01
 -19746766.31549 -15374287.66847  20939766.571    20939766.9274   20939774.7014
       203.0004        203.0004
  -7414739.59648  -5737454.63446  23677140.922    23677140.6144   23677146.4194
       186.0004        186.0004
 -12374584.02148  -9620755.01847  22372289.501    22372289.2814   22372293.0664
       188.0004        189.0004
 -18019686.54749 -14007851.74848  20826535.390    20826535.7714   20826542.3114
       215.0004        216.0004
 -15484112.45748 -12048654.56246  21923459.963    21923459.5894   21923464.6304
       177.0004        178.0004
 -16003195.19048 -12452956.12747  21518346.575    21518347.2814   21518354.2264
       194.0004        193.0004
 -11280055.63848  -8775076.40946  22616864.711    22616865.0064   22616873.7614
       172.0004        174.0004
 21  2  4  0 18  0.0000000  0  7G08G27G07G09G21G04G01
 -19681301.51649 -15323276.13547  20952224.171    20952224.6044   20952232.3794
       203.0004        203.0004
  -7308602.98248  -5654750.76046  23697337.675    23697337.7244   23697344.0974
       186.0004        187.0004
 -12449813.53848  -9679375.41947  22357973.731    22357974.1904   22357977.8494
       188.0004        188.0004
 -18001522.26549 -13993697.75848  20829991.822    20829991.8324   20829998.6584
       215.0004        215.0004
 -15510412.52248 -12069148.09746  21918455.311    21918454.8504   21918459.8764
       177.0004        178.0004
 -15923794.13748 -12391085.18047  21533456.768    21533457.1614   21533463.1754
       194.0004        192.0004
 -11356956.55448  -8834999.19546  22602230.460    22602231.4294   22602239.4524
       172.0004        173.0004
 21  2  4  0 18 30.0000000  0  7G08G27G07G09G21G04G01
 -19615430.37249 -15271947.96647  20964759.532    20964759.7104   20964767.2524
       203.0004        203.0004
  -7202352.14548  -5571957.92046  23717558.736    23717557.6334   23717561.9654
       187.0004        187.0004
 -12525015.15848  -9737974.08046  22343662.233    22343662.9064   22343666.4994
       187.0004        187.0004
 -17982818.60749 -13979123.47948  20833550.430    20833550.6574   20833557.6844
       215.0004        215.0004
 -15536347.06748 -12089356.83346  21913519.841    21913519.3364   21913524.6944
       178.0004        178.0004
 -15844062.52148 -12328956.66547  21548629.637    21548629.5114   21548635.5534
       193.0004        192.0004
 -11433786.41148  -8894866.59046  22587609.535    22587610.8324   22587619.5214
       172.0004        172.0004
 21  2  4  0 19  0.0000000  0  7G08G27G07G09G21G04G01
 -19549154.70549 -15220304.58247  20977370.983    20977371.2664   20977379.0464
       202.0004        202.0004
  -7095988.47748  -5489077.15746  23737799.140    23737796.9474   23737802.9244
       187.0004        187.0004
 -12600185.08548  -9796548.05147  22329358.133    22329358.5284   22329363.0934
       187.0004        188.0004
 -17963575.58049 -13964128.91848  20837212.717    20837212.7074   20837220.2764
       215.0004        216.0004
 -15561912.12548 -12109277.65346  21908654.134    21908654.6984   21908659.6664
       178.0004        179.0004
 -15764001.85348 -12266571.73447  21563863.840    21563864.2514   21563870.6364
       194.0004        193.0004
 -11510540.63548  -8954675.05846  22573003.591    22573004.4094   22573013.1094
       171.0004        172.0004
 21  2  4  0 19 30.0000000  0  7G08G27G07G09G21G04G01
 -19482478.21449 -15168348.85647  20990059.543    20990059.7244   20990067.0974
       202.0004        203.0004
  -6989515.88948  -5406111.50046  23758058.635    23758058.2464   23758064.5764
       187.0004        186.0004
 -12675322.02648  -9855096.27647  22315059.647    22315060.4104   22315065.1654
       187.0004        189.0004
 -17943795.41049 -13948715.79648  20840976.902    20840977.3164   20840983.9334
       216.0004        216.0004
 -15587106.71648 -12128909.77646  21903860.631    21903860.1334   21903865.4584
       179.0004        180.0004
 -15683615.90648 -12203933.33647  21579161.098    21579161.7534   21579167.8854
       194.0004        193.0004
 -11587217.06548  -9014422.90346  22558413.329    22558413.2884   22558420.4724
       171.0004        172.0004
 21  2  4  0 20  0.0000000  0  7G08G27G07G09G21G04G01
 -19415401.61149 -15116081.38147  21002823.476    21002823.8114   21002831.5454
       202.0004        202.0004
  -6882934.74348  -5323061.29546  23778338.620    23778338.8324   23778345.8284
       185.0004        185.0004
 -12750421.34748  -9913615.23447  22300770.658    22300770.2044   22300773.6104
       189.0004        189.0004
 -17923477.06549 -13932883.32948  20844843.578    20844843.5934   20844850.0184
       216.0004        216.0004
 -15611926.18548 -12148249.62446  21899138.822    21899137.8704   21899143.5814
       180.0004        180.0004
 -15602905.18748 -12141041.87347  21594519.441    21594520.1554   21594526.7594
       193.0004        192.0004
 -11663810.11848  -9074105.79146  22543838.419    22543838.5804   22543847.0214
       170.0004        172.0004
 21  2  4  0 20 30.0000000  0  8G08G27G07G30G09G21G04G01
 -19347929.44449 -15063505.67847  21015662.773    21015663.1614   21015670.8844
       201.0004        202.0004
  -6776250.22948  -5239930.52846  23798639.895    23798640.1334   23798647.2874
       184.0004        184.0004
 -12825483.25848  -9972105.04847  22286485.784    22286486.2324   22286490.1554
       188.0004        188.0004
   -407968.75257   -293587.79045  24239242.414                    24239248.7274
       143.0004        155.0004
 -17902624.22149 -13916634.37648  20848811.102    20848811.5604   20848818.5374
       215.0004        215.0004
 -15636370.75748 -12167297.33446  21894486.968    21894486.5214   21894492.1454
       180.0004        181.0004
 -15521874.91048 -12077901.41247  21609939.134    21609939.9564   21609946.2594
       193.0004        191.0004
 -11740318.97648  -9133723.08246  22529279.332    22529280.1064   22529287.6464
       171.0004        172.0004
 21  2  4  0 21  0.0000000  0  8G08G27G07G30G09G21G04G01
 -19280063.58649 -15010623.16447  21028576.689    21028577.3114   21028584.9664
       201.0004        201.0004
  -6669463.97148  -5156720.44346  23818959.876    23818960.7134   23818967.4154
       182.0004        182.0004
 -12900504.07748 -10030562.79947  22272209.173    22272210.5254   22272214.6524
       188.0004        189.0004
   -492446.03947   -359414.22245  24223167.465    24223166.2944   24223173.4804
       151.0004        156.0004
 -17881236.99549 -13899968.98648  20852881.341    20852881.5994   20852888.0654
       215.0004        215.0004
 -15660437.27148 -12186050.43546  21889905.892    21889906.5014   21889910.8864
       181.0004        182.0004
 -15440526.71048 -12014513.19847  21625419.172    21625419.5204   21625426.1044
       192.0004        191.0004
 -11816739.25848  -9193271.32346  22514736.356    22514736.4584   22514745.3394
       170.0004        171.0004
 21  2  4  0 21 30.0000000  0  8G08G27G07G30G09G21G04G01
 -19211807.85549 -14957436.88547  21041566.108    21041566.2984   21041573.6814
       201.0004        201.0004
  -6562579.42048  -5073433.82646  23839300.147    23839300.5784   23839307.6594
       182.0004        183.0004
 -12975482.18848 -10088987.31647  22257942.376    22257942.5064   22257946.0834
       189.0004        189.0004
   -577026.00847   -425320.67745  24207072.005    24207071.4594   24207078.9294
       154.0004        158.0004
 -17859317.44649 -13882888.82348  20857052.301    20857052.8684   20857059.0224
       215.0004        215.0004
 -15684124.35048 -12204507.87946  21885399.444    21885398.7944   21885403.3694
       180.0004        180.0004
 -15358864.19448 -11950880.08047  21640959.688    21640959.7174   21640965.5394
       193.0004        192.0004
 -11893068.50648  -9252748.64246  22500212.140    22500211.8434   22500220.4804
       171.0004        173.0004
 21  2  4  0 22  0.0000000  0  8G08G27G07G30G09G21G04G01
 -19143166.26149 -14903949.92747  21054628.039    21054628.5064   21054635.9124
       201.0004        202.0004
  -6455601.06948  -4990074.04846  23859658.040    23859658.6264   23859664.0594
       182.0004        182.0004
 -13050417.48148 -10147378.45847  22243681.446    22243681.8934   22243686.6074
       188.0004        188.0004
   -661708.91647   -491307.35345  24190956.230    24190956.6744   24190964.8354
       157.0004        160.0004
 -17836868.62549 -13865396.24348  20861324.443    20861324.7724   20861330.9514
       215.0004        215.0004
 -15707431.21648 -12222669.06846  21880963.354    21880963.6204   21880968.6714
       180.0004        181.0004
 -15276891.87348 -11887005.56047  21656557.868    21656558.6474   21656564.7254
       192.0004        191.0004
 -11969305.12348  -9312153.77246  22485704.067    22485704.2124   22485712.3584
       171.0004        172.0004
 21  2  4  0 22 30.0000000  0  8G08G27G07G30G09G21G04G01
 -19074139.36849 -14850162.70847  21067763.699    21067763.9464   21067771.2464
       201.0004        201.0004
  -6348529.66048  -4906641.80946  23880033.049    23880033.3224   23880039.6834
       183.0004        184.0004
 -13125305.59748 -10205732.79247  22229430.776    22229430.9214   22229435.7354
       188.0004        188.0004
   -746491.41147   -557371.61445  24174824.043    24174824.1394   24174830.7364
       158.0004        161.0004
 -17813889.93149 -13847490.75748  20865697.185    20865697.1294   20865704.1404
       215.0004        215.0004
 -15730353.55648 -12240530.58646  21876601.635    21876601.0104   21876606.9444
       180.0004        179.0004
 -15194610.64248 -11822890.30347  21672215.579    21672216.0684   21672222.7884
       193.0004        192.0004
 -12045443.88448  -9371482.65346  22471214.603    22471215.9854   22471223.9764
       172.0004        174.0004
 21  2  4  0 23  0.0000000  0  8G08G27G07G30G09G21G04G01
 -19004729.83449 -14796077.35847  21080971.397    21080971.7704   21080979.8484
       200.0004        200.0004
  -6241367.05848  -4823138.49346  23900424.036    23900424.4434   23900432.7894
       182.0004        182.0004
 -13200143.12748 -10264047.74247  22215189.853    22215190.4614   22215194.5834
       189.0004        190.0004
   -831371.25647   -623511.74845  24158671.852    24158671.4404   24158678.6554
       157.0004        160.0004
 -17790381.92549 -13829172.83348  20870169.952    20870170.3534   20870177.2764
       214.0004        214.0004
 -15752889.04548 -12258090.70046  21872313.861    21872312.7394   21872318.9554
       180.0004        180.0004
 -15112022.49648 -11758535.91347  21687931.287    21687932.2644   21687938.2904
       193.0004        192.0004
 -12121480.69548  -9430732.10846  22456747.136    22456747.3194   22456754.0444
       173.0004        173.0004
 21  2  4  0 23 30.0000000  0  8G08G27G07G30G09G21G04G01
 -18934942.19849 -14741697.40647  21094251.461    21094251.6634   21094259.9384
       199.0004        199.0004
  -6134118.63748  -4739568.34546  23920832.863    23920832.8064   23920840.7974
       180.0004        180.0004
 -13274930.29748 -10322323.48347  22200958.442    22200959.0354   22200963.1084
       190.0004        190.0004
   -916349.59347   -689728.64145  24142501.293    24142500.6704   24142507.5554
       157.0004        160.0004
 -17766348.58649 -13810445.57748  20874743.919    20874744.1324   20874750.8244
       214.0004        215.0004
 -15775038.03648 -12275349.66246  21868098.738    21868098.5554   21868103.7644
       180.0004        181.0004
 -15029132.84748 -11693946.60247  21703705.274    21703705.7474   21703711.3724
       192.0004        190.0004
 -12197414.96548  -9489901.67346  22442295.641    22442296.9434   22442304.0964
       171.0004        172.0004
 21  2  4  0 24  0.0000000  0  8G08G27G07G30G09G21G04G01
 -18864778.22749 -14687024.16347  21107603.206    21107603.4514   21107611.6884
       199.0004        200.0004
  -6026785.29248  -4655931.98846  23941257.718    23941257.2384   23941265.9854
       178.0004        178.0004
 -13349662.77448 -10380556.57447  22186737.745    22186738.0764   22186742.0164
       190.0004        190.0004
  -1001423.18147   -756019.74945  24126311.868    24126311.5154   24126318.6094
       158.0004        160.0004
 -17741789.64249 -13791308.73548  20879416.828    20879417.3024   20879424.5304
       214.0004        215.0004
 -15796796.39848 -12292304.20946  21863959.129    21863958.3184   21863963.7494
       181.0004        181.0004
 -14945942.81648 -11629123.20447  21719536.135    21719536.1844   21719542.0464
       192.0004        190.0004
 -12273241.59148  -9548987.33446  22427867.127    22427867.5044   22427875.1124
       171.0004        172.0004
 21  2  4  0 24 30.0000000  0  8G08G27G07G30G09G21G04G01
 -18794241.58749 -14632060.52947  21121026.430    21121026.3254   21121034.3254
       199.0004        200.0004
  -5919370.89248  -4572232.44746  23961700.411    23961699.0444   23961706.2744
       179.0004        181.0004
 -13424339.36948 -10438746.11447  22172527.425    22172527.5724   22172531.9824
       190.0004        191.0004
  -1086591.72247   -822384.82545  24110104.517    24110104.5334   24110110.9644
       157.0004        159.0004
 -17716707.69549 -13771764.35048  20884190.611    20884190.7414   20884197.2204
       214.0004        215.0004
 -15818163.35248 -12308953.75946  21859892.097    21859892.1514   21859897.1914
       180.0004        180.0004
 -14862456.41248 -11564068.84847  21735423.046    21735423.4424   21735428.5714
       191.0004        190.0004
 -12348958.48048  -9607987.46546  22413458.871    22413459.0594   22413467.3324
       172.0004        173.0004
 21  2  4  0 25  0.0000000  0  8G08G27G07G30G09G21G04G01
 -18723333.70649 -14576807.64247  21134519.627    21134520.1384   21134527.5994
       199.0004        200.0004
  -5811877.25048  -4488471.21446  23982153.872    23982153.7574   23982160.6604
       177.0004        176.0004
 -13498957.62948 -10496890.21847  22158327.628    22158327.5114   22158331.8434
       190.0004        189.0004
  -1171852.91047   -888822.11545  24093881.192    24093880.2034   24093885.9924
       157.0004        159.0004
 -17691103.35849 -13751812.92648  20889062.341    20889062.4564   20889069.6184
       214.0004        214.0004
 -15839135.63848 -12325295.78646  21855899.992    21855900.5304   21855905.6764
       179.0004        179.0004
 -14778675.64748 -11498785.16247  21751365.924    21751366.5674   21751371.9074
       191.0004        191.0004
 -12424561.50748  -9666898.91046  22399071.040    22399071.9884   22399080.2244
       173.0004        174.0004
 21  2  4  0 25 30.0000000  0  8G08G27G07G30G09G21G04G01
 -18652059.42249 -14521269.23747  21148083.043    21148082.7674   21148090.5184
       199.0004        198.0004
  -5704308.48948  -4404651.42146  24002622.914    24002623.4754   24002630.0614
       175.0004        176.0004
 -13573515.96248 -10554987.59847  22144139.941    22144139.9534   22144144.6454
       190.0004        192.0004
  -1257206.66947   -955331.52045  24077637.150    24077638.4094   24077643.7134
       157.0004        160.0004
 -17664979.51849 -13731456.68448  20894033.742    20894033.9284   20894040.8214
       214.0004        214.0004
 -15859712.69048 -12341329.84246  21851985.150    21851984.4604   21851989.2924
       179.0004        179.0004
 -14694604.79948 -11433275.41647  21767364.302    21767364.5474   21767370.2454
       191.0004        190.0004
 -12500048.76148  -9725720.12546  22384706.380    22384706.9334   22384714.4414
       172.0004        173.0004
 21  2  4  0 26  0.0000000  0  8G08G27G07G30G09G21G04G01
 -18580418.44749 -14465445.10047  21161714.973    21161715.0774   21161723.7824
       198.0004        198.0004
  -5596663.98748  -4320772.59646  24023106.282    24023106.7674   24023114.3924
       173.0004        173.0004
 -13648008.86748 -10613034.00747  22129963.484    22129964.3894   22129969.2014
       192.0004        192.0004
  -1342648.23247  -1021909.33045  24061378.954    24061378.2904   24061385.4744
       158.0004        161.0004
 -17638334.48149 -13710694.31448  20899103.815    20899103.9774   20899111.0254
       214.0004        214.0004
 -15879889.93648 -12357052.34746  21848145.797    21848145.8634   21848150.8214
       179.0004        180.0004
 -14610243.49148 -11367539.33647  21783417.060    21783417.6664   21783423.9204
       190.0004        189.0004
 -12575413.73748  -9784446.06346  22370364.411    22370365.3524   22370373.7784
       173.0004        175.0004
 21  2  4  0 26 30.0000000  0  8G08G27G07G30G09G21G04G01
 -18508417.07849 -14409340.15747  21175416.176    21175416.5974   21175424.7774
       198.0004        199.0004
  -5488950.39548  -4236839.96646  24043605.373    24043604.9144   24043611.6784
       174.0004        175.0004
 -13722437.80548 -10671030.60047  22115801.262    22115801.8924   22115805.5734
       193.0004        193.0004
  -1428180.01047  -1088557.44345  24045101.128    24045102.3364   24045109.5244
       160.0004        162.0004
 -17611173.70249 -13689530.09448  20904272.494    20904272.4614   20904279.8824
       213.0004        214.0004
 -15899668.72548 -12372464.40246  21844382.106    21844382.1144   21844387.6664
       180.0004        181.0004
 -14525598.49848 -11301582.21947  21799523.851    21799524.6384   21799530.7294
       189.0004        188.0004
 -12650657.01848  -9843077.20146  22356046.558    22356047.1104   22356055.3054
       174.0004        175.0004
 21  2  4  0 27  0.0000000  0  8G08G27G07G30G09G21G04G01
 -18436056.10749 -14352954.95547  21189186.126    21189186.8834   21189194.4394
       198.0004        199.0004
  -5381167.97748  -4152853.67946  24064114.399    24064114.1094   24064122.1984
       172.0004        173.0004
 -13796798.03948 -10728973.61347  22101651.030    22101651.1494   22101655.5544
       193.0004        193.0004
  -1513798.12447  -1155272.85246  24028809.183    24028809.8934   24028817.4774
       162.0004        164.0004
 -17583496.43049 -13667963.37848  20909539.363    20909539.5864   20909546.2384
       213.0004        213.0004
 -15919044.52648 -12387562.38046  21840694.914    21840694.3824   21840699.9204
       180.0004        180.0004
 -14440670.39748 -11235404.46847  21815686.006    21815687.0554   21815692.4504
       189.0004        189.0004
 -12725772.99948  -9901609.10146  22341753.867    22341754.0904   22341761.1734
       175.0004        175.0004
 21  2  4  0 27 30.0000000  0  8G08G27G07G30G09G21G04G01
 -18363340.47249 -14296293.41347  21203024.925    21203024.2424   21203031.4234
       198.0004        198.0004
  -5273322.11248  -4068817.95946  24084636.526    24084637.0784   24084644.2994
       174.0004        175.0004
 -13871089.84948 -10786863.32047  22087513.180    22087513.6914   22087517.9184
       192.0004        192.0004
  -1599503.70347  -1222056.39745  24012500.807    24012501.1324   24012507.4004
       161.0004        162.0004
 -17555306.89849 -13645997.51448  20914903.491    20914903.7374   20914910.6794
       213.0004        213.0004
 -15938018.04648 -12402346.92346  21837084.320    21837084.0214   21837089.4534
       181.0004        181.0004
 -14355464.68948 -11169010.40847  21831899.892    21831900.4544   21831906.2774
       189.0004        188.0004
 -12800761.02348  -9960041.30746  22327483.892    22327483.6844   22327491.7744
       175.0004        176.0004
 21  2  4  0 28  0.0000000  0  8G08G27G07G30G09G21G04G01
 -18290271.01549 -14239356.16147  21216928.908    21216928.9094   21216936.2574
       197.0004        197.0004
  -5165413.04148  -3984732.93846  24105169.592    24105171.4014   24105179.6384
       174.0004        176.0004
 -13945308.43648 -10844695.97147  22073390.364    22073390.4614   22073394.2254
       192.0004        193.0004
  -1685292.89247  -1288905.09045  23996174.975    23996175.3214   23996181.6174
       158.0004        157.0004
 -17526604.39849 -13623631.92448  20920365.235    20920365.5604   20920372.7734
       213.0004        214.0004
 -15956585.29648 -12416814.88846  21833550.610    21833550.6364   21833556.1894
       181.0004        181.0004
 -14269981.96248 -11102400.49446  21848166.476    21848166.6554   21848173.3434
       188.0004        187.0004
 -12875615.45148 -10018369.40446  22313238.809    22313238.7664   22313247.2544
       176.0004        176.0004
 21  2  4  0 28 30.0000000  0  8G08G27G07G30G09G21G04G01
 -18216851.10849 -14182145.85047  21230899.028    21230899.9284   21230907.8174
       196.0004        197.0004
  -5057444.14148  -3900601.35646  24125717.494    24125718.5134   24125724.2364
       175.0004        176.0004
 -14019452.06548 -10902470.21947  22059280.716    22059281.4784   22059285.6934
       193.0004        194.0004
  -1771164.83647  -1355818.29745  23979835.088    23979834.2444   23979840.5824
       156.0004        157.0004
 -17497391.28149 -13600868.45548  20925924.297    20925924.9484   20925931.5854
       213.0004        214.0004
 -15974744.75548 -12430965.10246  21830095.795    21830095.4424   21830100.7284
       181.0004        181.0004
 -14184225.80548 -11035577.52246  21864485.262    21864486.4294   21864491.6744
       188.0004        187.0004
 -12950333.66648 -10076591.37646  22299019.692    22299020.2064   22299028.8944
       176.0004        176.0004
 21  2  4  0 29  0.0000000  0  8G08G27G07G30G09G21G04G01
 -18143084.05749 -14124665.03447  21244937.378    21244937.6784   21244944.9844
       197.0004        197.0004
  -4949418.34348  -3816425.40546  24146273.169    24146275.0764   24146281.8614
       175.0004        176.0004
 -14093518.42248 -10960184.27047  22045186.429    22045186.7584   22045190.9254
       193.0004        193.0004
  -1857118.23247  -1422794.96545  23963478.675    23963479.2904   23963485.1804
       157.0004        160.0004
 -17467669.50449 -13577708.63348  20931579.929    20931580.4484   20931587.2344
       213.0004        213.0004
 -15992494.93648 -12444796.39946  21826717.371    21826717.1964   21826722.6114
       181.0004        181.0004
 -14098199.42948 -10968543.99546  21880855.278    21880855.8024   21880862.8834
       187.0004        186.0004
 -13024912.66748 -10134704.87746  22284828.489    22284829.1534   22284837.0314
       176.0004        177.0004
 21  2  4  0 29 30.0000000  0  8G08G27G07G30G09G21G04G01
 -18068972.84249 -14066916.03247  21259040.737    21259040.5194   21259047.6914
       197.0004        197.0004
  -4841338.61548  -3732207.47146  24166841.221    24166841.9854   24166848.1764
       176.0004        176.0004
 -14167505.79948 -11017836.76847  22031106.942    22031107.1614   22031111.2864
       193.0004        192.0004
  -1943151.91747  -1489834.20745  23947106.473    23947106.7164   23947114.1304
       158.0004        160.0004
 -17437441.11649 -13554154.05648  20937332.899    20937332.9864   20937339.6914
       212.0004        213.0004
 -16009834.19748 -12458307.49246  21823418.554    21823418.1274   21823423.0644
       181.0004        182.0004
 -14011906.10248 -10901302.45346  21897276.683    21897276.6984   21897283.5214
       187.0004        186.0004
 -13099349.53648 -10192707.62546  22270663.678    22270663.6604   22270672.5374
       175.0004        175.0004
 21  2  4  0 30  0.0000000  0  8G08G27G07G30G09G21G04G01
 -17994520.36549 -14008901.11647  21273208.315    21273208.5734   21273216.0684
       197.0004        197.0004
  -4733207.44748  -3647949.43446  24187417.227    24187417.8264   24187425.4144
       175.0004        175.0004
 -14241411.37048 -11075425.52847  22017042.706    22017043.6634   22017047.8364
       193.0004        194.0004
  -2029264.25847  -1556934.69245  23930720.769    23930719.3204   23930727.1454
       157.0004        159.0004
 -17406707.73249 -13530205.97148  20943180.705    20943180.8414   20943188.4134
       212.0004        213.0004
 -16026760.70348 -12471496.97546  21820196.350    21820196.4694   21820202.2644
       180.0004        182.0004
 -13925348.65248 -10833855.09246  21913748.480    21913748.7584   21913755.1264
       187.0004        187.0004
 -13173640.83448 -10250596.93946  22256525.789    22256526.5024   22256535.2434
       175.0004        177.0004
 21  2  4  0 30 30.0000000  0  8G08G27G07G30G09G21G04G01
 -17919725.18249 -13950619.13547  21287440.678    21287441.2164   21287448.9404
       197.0004        197.0004
  -4625023.25148  -3563650.09946  24208003.938    24208005.4434   24208011.4504
       176.0004        177.0004
 -14315228.55048 -11132945.39247  22002996.226    22002997.1244   22003000.8694
       194.0004        194.0004
  -2115449.33047  -1624091.85945  23914318.255    23914319.0914   23914326.0234
       157.0004        160.0004
 -17375466.81349 -13505862.38748  20949125.752    20949126.2564   20949133.0314
       212.0004        213.0004
 -16043268.29348 -12484360.01146  21817055.889    21817055.8264   21817060.3294
       181.0004        182.0004
 -13838525.72948 -10766200.86746  21930269.837    21930270.1864   21930276.8714
       187.0004        185.0004
 -13247778.95848 -10308366.88746  22242418.242    22242419.2324   22242426.6264
       176.0004        178.0004
 21  2  4  0 31  0.0000000  0  8G08G27G07G30G09G21G04G01
 -17844595.49549 -13892076.53247  21301737.388    21301737.8034   21301745.5124
       196.0004        197.0004
  -4516793.43048  -3479315.16346  24228598.891    24228600.2854   24228607.1364
       178.0004        179.0004
 -14388959.69748 -11190398.23347  21988965.817    21988966.2654   21988970.3004
       194.0004        195.0004
  -2201710.35847  -1691308.25645  23897905.420    23897904.7284   23897910.9114
       159.0004        162.0004
 -17343724.98549 -13481128.50748  20955166.928    20955166.7644   20955173.1314
       212.0004        213.0004
 -16059360.14948 -12496899.12246  21813994.527    21813993.9774   21813998.5674
       182.0004        182.0004
 -13751445.12348 -10698345.86846  21946840.928    21946841.1524   21946847.4454
       187.0004        187.0004
 -13321765.45248 -10366018.70446  22228339.759    22228340.1664   22228347.4594
       177.0004        178.0004
 21  2  4  0 31 30.0000000  0  8G08G27G07G30G09G21G04G01
 -17769135.20049 -13833276.29447  21316098.207    21316098.1224   21316105.1784
       196.0004        197.0004
  -4408522.23148  -3394947.99246  24249202.712    24249204.0164   24249210.1104
       179.0004        179.0004
 -14462603.75548 -11247783.19647  21974952.292    21974952.4884   21974956.2984
       194.0004        195.0004
  -2288047.37147  -1758583.83945  23881475.794    23881475.6324   23881481.7744
       160.0004        161.0004
 -17311485.63749 -13456006.93548  20961301.035    20961301.6234   20961308.6244
       212.0004        213.0004
 -16075035.61448 -12509113.74146  21811009.915    21811010.2784   21811015.8104
       181.0004        181.0004
 -13664111.35348 -10630293.57446  21963459.914    21963460.2024   21963466.6444
       187.0004        185.0004
 -13395598.66848 -10423551.03546  22214289.686    22214289.5124   22214298.1914
       177.0004        178.0004
 21  2  4  0 32  0.0000000  0  8G08G27G07G30G09G21G04G01
 -17693344.53149 -13774218.63347  21330521.290    21330521.0784   21330527.8054
       197.0004        198.0004
  -4300209.86548  -3310548.75146  24269814.876    24269815.2014   24269822.5184
       181.0004        182.0004
 -14536156.00348 -11305096.63047  21960955.534    21960955.9244   21960959.4424
       194.0004        194.0004
  -2374456.43147  -1825915.55245  23865031.876    23865031.6134   23865038.7604
       157.0004        158.0004
 -17278748.21749 -13430497.26248  20967531.659    20967531.4414   20967538.3574
       213.0004        213.0004
 -16090290.42248 -12521000.59046  21808107.506    21808107.4164   21808112.4894
       182.0004        182.0004
 -13576524.99848 -10562044.47746  21980126.947    21980127.4464   21980133.3104
       185.0004        184.0004
 -13469272.87248 -10480959.48746  22200268.750    22200269.6354   22200278.5124
       177.0004        178.0004
 21  2  4  0 32 30.0000000  0  8G08G27G07G30G09G21G04G01
 -17617226.58049 -13714905.94947  21345005.255    21345005.6674   21345012.8614
       198.0004        198.0004
  -4191858.35648  -3226119.04746  24290433.379    24290433.6794   24290439.9794
       180.0004        179.0004
 -14609613.00048 -11362335.86047  21946976.842    21946976.9394   21946981.6294
       194.0004        194.0004
  -2460935.28447  -1893301.68045  23848574.171    23848574.5354   23848582.3954
       155.0004        156.0004
 -17245513.97349 -13404600.46348  20973855.202    20973855.5064   20973862.3884
       213.0004        213.0004
 -16105122.12548 -12532557.76046  21805285.483    21805285.5484   21805291.1574
       183.0004        183.0004
 -13488688.44248 -10493600.41246  21996841.578    21996842.2624   21996848.7404
       185.0004        185.0004
 -13542784.15148 -10538241.01046  22186279.862    22186280.9224   22186289.1774
       178.0004        180.0004
 21  2  4  0 33  0.0000000  0  8G08G27G07G30G09G21G04G01
 -17540784.38249 -13655340.58047  21359551.267    21359551.7654   21359558.7564
       197.0004        196.0004
  -4083470.96248  -3141661.31346  24311059.112    24311059.4054   24311065.2254
       176.0004        175.0004
 -14682973.40748 -11419499.78947  21933016.254    21933017.2204   21933021.6844
       194.0004        195.0004
  -2547483.05747  -1960741.47745  23832105.500    23832105.4754   23832112.7494
       153.0004        155.0004
 -17211785.48949 -13378318.51048  20980273.404    20980273.6504   20980280.6294
       212.0004        213.0004
 -16119530.01848 -12543784.66746  21802544.080    21802543.1694   21802548.6704
       183.0004        183.0004
 -13400605.31348 -10424964.20546  22013603.667    22013604.0114   22013610.4114
       186.0004        186.0004
 -13616129.94048 -10595393.54846  22172323.066    22172324.3214   22172331.5534
       178.0004        179.0004
 21  2  4  0 33 30.0000000  0  8G08G27G07G30G09G21G04G01
 -17464022.26349 -13595525.93747  21374158.788    21374159.0194   21374166.2954
