     2.11           OBSERVATION DATA    G (GPS)             RINEX VERSION / TYPE
teqc  2018Jun8                          20210202 03:10:42UTCPGM / RUN BY / DATE
Linux2.6.32-573.12.1.el6.x86_64|x86_64|gcc|Win64-MinGW64|=+ COMMENT
BIT 2 OF LLI FLAGS DATA COLLECTED UNDER A/S CONDITION       COMMENT
-Unknown-                                                   MARKER NAME
CRNO                                                        MARKER NUMBER
-Unknown-           -Unknown-                               OBSERVER / AGENCY
-Unknown-           ASHTECH             -Unknown-           REC # / TYPE / VERS
-Unknown-           -Unknown-                               ANT # / TYPE
   408076.9984 -6158368.2815  1605160.3984                  APPROX POSITION XYZ
        0.0000        0.0000        0.0000                  ANTENNA: DELTA H/E/N
     1     1                                                WAVELENGTH FACT L1/2
     7    L1    L2    C1    P1    P2    S1    S2            # / TYPES OF OBSERV
    30.0000                                                 INTERVAL
Forced Modulo Decimation to 30 seconds                      COMMENT
 SNR is mapped to RINEX snr flag value [1-9]                COMMENT
  L1: 1 -> 1;  90 -> 5; 210 -> 9                            COMMENT
  L2: 1 -> 1; 150 -> 5; 250 -> 9                            COMMENT
pseudorange smoothing corrections not applied               COMMENT
  2021     2     5     0     0   30.0000000     GPS         TIME OF FIRST OBS
                                                            END OF HEADER
 21  2  5  0  0 30.0000000  0  7G01G04G27G07G08G09G21
 -10132014.52347  -7881153.97646  22997908.369    22997910.2254   22997917.9014
       162.0004        163.0004
   4692118.85549   3664320.99247  21153513.218    21153513.3924   21153519.6094
       198.0004        197.0004
  10480088.17048   8163885.97047  23164929.616    23164930.4424   23164938.7994
       192.0004        192.0004
  -9333708.77048  -7254579.65546  22740465.233    22740464.6304   22740468.7784
       179.0004        180.0004
   2037443.17149   1599164.04247  20644321.080    20644321.2354   20644328.2134
       208.0004        208.0004
  -4570771.82249  -3542607.77748  20772874.772    20772875.1074   20772882.0134
       215.0004        216.0004
  -6478268.98848  -5028437.27546  22074349.198    22074348.3224   22074353.2944
       172.0004        173.0004
 21  2  5  0  1  0.0000000  0  7G01G04G27G07G08G09G21
 -10209704.97247  -7941691.94746  22983125.684    22983126.2834   22983133.9644
       162.0004        164.0004
   4762069.58049   3718828.04947  21166824.458    21166824.3724   21166830.2794
       198.0004        196.0004
  10582256.50348   8243497.66147  23184371.757    23184372.5934   23184380.2804
       191.0004        191.0004
  -9408943.15548  -7313203.83546  22726147.077    22726147.7754   22726152.2174
       178.0004        179.0004
   2091412.07649   1641217.75247  20654591.190    20654591.1594   20654598.1234
       208.0004        208.0004
  -4566822.63749  -3539530.49248  20773626.344    20773626.5774   20773633.2984
       215.0004        215.0004
  -6513276.66148  -5055715.96346  22067685.921    22067684.6304   22067691.7744
       171.0004        172.0004
 21  2  5  0  1 30.0000000  0  7G01G04G27G07G08G09G21
 -10287402.30047  -8002235.30446  22968340.656    22968340.7564   22968348.6564
       162.0004        164.0004
   4832421.96449   3773648.09047  21180211.798    21180212.0794   21180217.5784
       198.0004        197.0004
  10684615.45648   8323257.87947  23203850.570    23203850.6204   23203859.3124
       191.0004        191.0004
  -9484200.93448  -7371846.24746  22711826.721    22711826.8834   22711831.3854
       179.0004        181.0004
   2145855.54349   1683641.24547  20664950.258    20664950.7054   20664958.0194
       207.0004        207.0004
  -4562309.60649  -3536013.84048  20774484.914    20774485.1594   20774491.9614
       215.0004        215.0004
  -6547978.20948  -5082756.11846  22061082.605    22061082.3494   22061088.9964
       172.0004        173.0004
 21  2  5  0  2  0.0000000  0  7G01G04G27G07G08G09G21
 -10365105.03947  -8062782.87746  22953554.225    22953554.3684   22953562.3954
       163.0004        164.0004
   4903171.86549   3828777.87947  21193674.415    21193674.9714   21193681.0934
       198.0004        196.0004
  10787160.51248   8403163.10647  23223363.795    23223365.1374   23223372.9074
       190.0004        190.0004
  -9559481.64848  -7430506.52746  22697501.112    22697502.0014   22697506.2834
       180.0004        181.0004
   2200769.84649   1726431.61547  20675399.781    20675400.1824   20675408.0744
       206.0004        206.0004
  -4557234.87649  -3532059.50148  20775451.063    20775451.0454   20775457.4314
       215.0004        215.0004
  -6582372.70848  -5109557.01046  22054538.348    22054537.3284   22054542.5074
       172.0004        173.0004
 21  2  5  0  2 30.0000000  0  7G01G04G27G07G08G09G21
 -10442810.27247  -8123332.37946  22938766.111    22938767.2454   22938775.9344
       162.0004        164.0004
   4974316.72849   3884215.43947  21207213.523    21207213.6264   21207219.6884
       197.0004        197.0004
  10889888.74648   8483211.07847  23242914.342    23242913.8064   23242921.1074
       190.0004        190.0004
  -9634783.38548  -7489183.19246  22683172.062    22683172.2684   22683176.1294
       180.0004        180.0004
   2256152.35649   1769586.82247  20685939.693    20685939.6434   20685946.7834
       206.0004        207.0004
  -4551598.98249  -3527667.89648  20776523.661    20776523.6584   20776529.9544
       215.0004        215.0004
  -6616458.06148  -5136117.01846  22048051.836    22048051.5594   22048056.7084
       173.0004        173.0004
 21  2  5  0  3  0.0000000  0  7G01G04G27G07G08G09G21
 -10520513.30847  -8183880.17546  22923978.048    22923981.0764   22923989.0014
       162.0004        164.0004
   5045855.57849   3939959.98547  21220826.763    21220826.8744   21220833.5994
       198.0004        196.0004
  10992798.81948   8563400.75047  23262496.606    23262496.6454   23262504.2204
       190.0004        190.0004
  -9710102.57648  -7547873.45546  22668839.213    22668838.9084   22668843.8044
       180.0004        180.0004
   2312002.24249   1813106.22247  20696567.471    20696567.5964   20696574.9624
       206.0004        207.0004
  -4545400.99949  -3522838.29448  20777702.494    20777702.8564   20777709.8744
       215.0004        215.0004
  -6650230.08148  -5162432.85246  22041624.640    22041624.8724   22041630.0244
       173.0004        174.0004
 21  2  5  0  7  0.0000000  0  7G27G01G04G21G07G08G09
    130320.53344     88153.03547  23598886.887
        74.0004        192.0004
   -209171.00547   -149294.48046  22984320.216                    22984328.8604
       136.0004        166.0004
     99380.01449     72209.57447  21510918.752    21510918.9104   21510924.6674
       195.0004        195.0004
   -171929.51248   -120815.63446  22170963.573    22170962.1914   22170967.1674
       174.0004        175.0004
   -253343.53448   -181396.59946  22732649.175    22732648.9904   22732653.7434
       184.0004        185.0004
     62174.97249     43145.29847  20963282.028    20963282.3624   20963288.9994
       206.0004        207.0004
    -68605.86244    -46514.60945  20969519.323
        74.0004        150.0004
 21  2  5  0  7 30.0000000  0  7G27G01G04G21G07G08G09
    198033.66448    140916.55047  23611773.124                    23611780.0934
       183.0004        193.0004
   -323420.12347   -238319.73846  22962577.713    22962578.9514   22962587.5354
       160.0004        166.0004
    137644.40649    102025.99447  21518201.017    21518200.7874   21518206.1844
       195.0004        194.0004
   -239471.42148   -173445.67046  22158110.071    22158109.8254   22158113.6814
       174.0004        174.0004
   -365432.28348   -268738.46546  22711319.636    22711319.4604   22711323.0694
       185.0004        185.0004
     85417.24149     61256.17847  20967704.177    20967704.6924   20967711.9534
       206.0004        206.0004
    -94082.71247     -4124.76248  20964671.172                    20964678.9224
       159.0004        215.0004
 21  2  5  0  8  0.0000000  0  7G27G01G04G21G07G08G09
   -598996.36348   -480145.79947  23460101.795    23460102.3494   23460109.2794
       190.0004        192.0004
  -1302535.71847  -1001266.93646  22776260.665    22776260.2554   22776268.1464
       164.0004        167.0004
   -688620.00149   -541816.41947  21360968.018    21360968.1084   21360973.9024
       195.0004        194.0004
  -1171573.79448   -899759.20746  21980737.065    21980736.1644   21980741.7134
       173.0004        175.0004
  -1342417.60648  -1030025.72546  22525405.057    22525405.0614   22525408.9314
       185.0004        186.0004
   -755794.74249   -594233.68547  20807627.037    20807627.2794   20807634.6054
       205.0004        205.0004
   -983902.53849   -697490.88248  20795344.454    20795344.6884   20795351.4534
       209.0004        214.0004
 21  2  5  0  8 30.0000000  0  7G27G01G04G21G07G08G09
   -494280.47448   -398549.00347  23480029.753    23480029.3554   23480035.8504
       191.0004        191.0004
  -1380015.95648  -1061641.13346  22761516.133    22761515.8304   22761524.0554
       166.0004        169.0004
   -612922.96349   -482831.70147  21375371.766    21375372.1874   21375378.2484
       195.0004        194.0004
  -1201737.22248   -923263.13246  21974995.299    21974995.4604   21975002.6014
       174.0004        175.0004
  -1417798.25748  -1088763.86447  22511060.884    22511061.1864   22511065.1154
       187.0004        188.0004
   -694970.38649   -546838.05647  20819202.137    20819201.9964   20819209.0694
       205.0004        205.0004
   -971570.86149   -687881.76148  20797690.229    20797690.8774   20797697.6164
       213.0004        214.0004
 21  2  5  0  9  0.0000000  0  7G27G01G04G21G07G08G09
   -389419.59048   -316839.19947  23499983.955    23499984.1894   23499990.3984
       192.0004        192.0004
  -1457459.27248  -1121986.53246  22746778.157    22746778.6464   22746787.1274
       168.0004        170.0004
   -536865.75748   -423566.33547  21389844.708    21389845.4244   21389851.3324
       194.0004        192.0004
  -1231559.90548   -946501.55246  21969322.055    21969321.7824   21969326.1534
       174.0004        175.0004
  -1493174.03148  -1147498.21746  22496716.826    22496717.3044   22496720.6644
       186.0004        186.0004
   -633710.80049   -499103.30647  20830858.434    20830859.2834   20830866.2004
       205.0004        205.0004
   -958688.37349   -677843.45248  20800142.214    20800142.5494   20800149.2314
       214.0004        215.0004
 21  2  5  0  9 30.0000000  0  7G27G01G04G21G07G08G09
   -284415.04448   -235017.48647  23519965.758    23519965.7094   23519971.5544
       190.0004        190.0004
  -1534861.03348  -1182299.57246  22732049.985    22732049.7694   22732058.0974
       169.0004        170.0004
   -460449.65448   -364021.31947  21404387.067    21404387.3884   21404393.1694
       194.0004        193.0004
  -1261037.95648   -969471.42546  21963710.960    21963711.3534   21963716.4424
       174.0004        174.0004
  -1568540.98048  -1206225.69246  22482375.150    22482375.6214   22482379.6654
       186.0004        187.0004
   -572017.26149   -451030.39247  20842598.591    20842599.1304   20842605.6854
       205.0004        205.0004
   -945254.59549   -667375.56248  20802698.271    20802698.9124   20802705.6874
       214.0004        215.0004
 21  2  5  0 10  0.0000000  0  7G27G01G04G21G07G08G09
   -179271.45448   -153087.42147  23539973.979    23539973.0174   23539979.6574
       188.0004        188.0004
  -1612219.84348  -1242579.16346  22717329.617    22717329.3454   22717336.0684
       169.0004        170.0004
   -383679.03549   -304200.06047  21418995.990    21418996.4794   21419002.2094
       195.0004        194.0004
  -1290170.69148   -992172.23246  21958167.754    21958166.8344   21958172.4594
       173.0004        174.0004
  -1643899.31648  -1264946.45846  22468035.209    22468035.1264   22468038.6584
       186.0004        187.0004
   -509894.53449   -402623.06147  20854421.104    20854421.2534   20854427.4674
       205.0004        205.0004
   -931272.15649   -656480.15448  20805359.697    20805359.9764   20805366.1904
       214.0004        215.0004
 21  2  5  0 10 30.0000000  0  8G03G27G01G04G21G07G08G09
 -10594325.77654  -8241396.35943                                  22909942.9014
        74.0004         74.0004
    -73991.01748    -71050.72147  23560007.500    23560007.9054   23560014.1494
       190.0004        190.0004
  -1689531.88148  -1302822.28346  22702616.703    22702616.5694   22702625.2444
       169.0004        171.0004
   -306556.00149   -244104.18947  21433672.056    21433672.1154   21433678.4584
       195.0004        194.0004
  -1318955.17048  -1014601.68946  21952690.302    21952690.4674   21952695.9354
       173.0004        174.0004
  -1719245.83948  -1323658.03347  22453697.548    22453697.3814   22453700.6904
       187.0004        188.0004
   -447344.02049   -353882.38447  20866323.898    20866323.8184   20866330.8724
       205.0004        205.0004
   -916741.43449   -645157.50848  20808124.424    20808124.7834   20808131.3664
       215.0004        215.0004
 21  2  5  0 11  0.0000000  0  8G03G27G01G04G21G07G08G09
 -10594325.77644  -8241396.359 5                                  22909942.901
        74.0004        132.000
     31424.05748     11090.89647  23580067.177    23580067.7454   23580074.6354
       190.0004        191.0004
  -1766793.36548  -1363026.01546  22687913.641    22687914.4774   22687923.1184
       170.0004        172.0004
   -229082.61048   -183735.31447  21448414.388    21448414.4844   21448420.4714
       194.0004        193.0004
  -1347388.46248  -1036757.47046  21947279.859    21947279.2604   21947285.6944
       174.0004        175.0004
  -1794577.53348  -1382358.05447  22439361.015    22439361.9604   22439365.8394
       187.0004        188.0004
   -384367.55049   -304809.81147  20878307.285    20878307.4274   20878314.7034
       204.0004        204.0004
   -901662.74749   -633407.88048  20810993.711    20810994.1524   20811000.7874
       215.0004        215.0004
 21  2  5  0 11 30.0000000  0  8G03G27G01G04G21G07G08G09
 -10594325.77645  -8241396.359 5                                  22909942.901
        96.0004        132.000
    136971.45448     93335.61047  23600151.107    23600152.3004   23600158.9734
       189.0004        188.0004
  -1844000.59048  -1423187.46246  22673221.302    22673222.1554   22673229.1094
       171.0004        172.0004
   -151261.11248   -123095.18147  21463223.579    21463223.9174   21463229.5544
       194.0004        193.0004
  -1375467.36948  -1058637.11146  21941936.585    21941936.3424   21941942.4854
       175.0004        176.0004
  -1869891.78848  -1441044.44947  22425030.384    22425030.4204   22425034.4664
       188.0004        189.0004
   -320967.88949   -255407.46247  20890371.468    20890371.9764   20890379.5264
       204.0004        204.0004
   -886036.61949   -621231.66348  20813967.915    20813968.0894   20813974.4354
       215.0004        215.0004
 21  2  5  0 12  0.0000000  0  7G27G01G04G21G07G08G09
    242647.76048    175680.80946  23620260.995    23620261.7424   23620269.1384
       187.0004        187.0004
  -1921151.03748  -1483304.66446  22658539.989    22658540.6084   22658549.0714
       171.0004        172.0004
    -73094.87848    -62186.41447  21478097.877    21478097.9734   21478104.2184
       193.0004        192.0004
  -1403190.76348  -1080239.73746  21936661.310    21936661.0474   21936666.3594
       175.0004        176.0004
  -1945187.23448  -1499716.19347  22410701.202    22410702.0154   22410706.0804
       188.0004        188.0004
   -257147.56549   -205677.32147  20902516.241    20902516.5494   20902524.1554
       204.0004        204.0004
   -869864.74949   -608630.19048  20817044.967    20817045.1844   20817051.7124
       215.0004        215.0004
 21  2  5  0 12 30.0000000  0  8G03G27G01G04G21G07G08G09
 -10594325.77654  -8241396.359 3                                  22909942.901
        74.0004         74.000
    348449.80948    258123.93346  23640396.129    23640395.9504   23640401.5304
       186.0004        185.0004
  -1998241.90948  -1543375.46446  22643868.133    22643870.1504   22643878.5444
       171.0004        171.0004
      5413.05348     -1011.42347  21493036.847    21493037.6774   21493044.0044
       193.0004        192.0004
  -1430556.25348  -1101563.47546  21931453.466    21931454.0764   21931459.0074
       176.0004        176.0004
  -2020461.70148  -1558371.61346  22396376.694    22396377.2414   22396381.2824
       187.0004        187.0004
   -192910.04149   -155622.10647  20914741.239    20914741.1104   20914747.7954
       204.0004        204.0004
   -853148.56049   -595604.59048  20820225.564    20820226.0394   20820232.8034
       214.0004        214.0004
 21  2  5  0 13  0.0000000  0  9G03G27G01G04G21G30G07G08G09
 -10594325.77644  -8241396.359 3                                  22909942.901
        74.0004         74.000
    454375.41648    340663.38746  23660552.908    23660552.9774   23660558.7794
       184.0004        184.0004
  -2075269.30748  -1603396.78146  22629212.527    22629213.0854   22629222.4304
       171.0004        173.0004
     84260.47048     60428.13347  21508041.287    21508042.0184   21508048.0664
       194.0004        193.0004
  -1457560.82248  -1122605.97546  21926315.347    21926313.7984   21926319.8994
       176.0004        178.0004
   -827195.02454   -617664.656 5                                  24352154.207
        74.0004        144.000
  -2095712.92148  -1617008.91347  22382057.009    22382057.6474   22382061.5984
       187.0004        188.0004
   -128257.31049   -105243.33047  20927043.415    20927043.9104   20927050.7784
       203.0004        203.0004
   -835888.50249   -582155.18348  20823509.952    20823510.7034   20823517.1244
       214.0004        215.0004
 21  2  5  0 13 30.0000000  0  9G03G27G01G04G21G30G07G08G09
 -10594325.77645  -8241396.359 3                                  22909942.901
        97.0004         74.000
    560420.86648    423296.18046  23680733.289    23680733.1204   23680738.0884
       185.0004        186.0004
  -2152231.02748  -1663366.94746  22614567.893    22614568.2324   22614576.2844
       171.0004        172.0004
    163443.76748    122129.38847  21523109.181    21523110.2174   21523116.0654
       193.0004        191.0004
  -1484203.42048  -1143366.42746  21921244.956    21921244.5344   21921249.9194
       177.0004        177.0004
   -913733.43747   -685097.11845  24335678.299    24335677.8764   24335686.6024
       138.0004        149.0004
  -2170939.39448  -1675626.94447  22367742.979    22367743.1434   22367746.5704
       187.0004        188.0004
    -63192.68949    -54543.62947  20939424.264    20939424.5734   20939432.2714
       202.0004        203.0004
   -818086.67449   -568283.63548  20826898.267    20826898.7144   20826905.1044
       215.0004        215.0004
 21  2  5  0 14  0.0000000  0  8G27G01G04G21G30G07G08G09
    666578.25348    506016.25146  23700933.999    23700934.2374   23700940.7664
       185.0004        187.0004
  -2229128.97148  -1723287.40246  22599934.685    22599934.7584   22599943.7484
       171.0004        172.0004
    242954.96848    184086.18647  21538240.553    21538240.4914   21538246.6944
       193.0004        192.0004
  -1510487.02948  -1163847.13446  21916243.871    21916242.8164   21916247.6354
       177.0004        177.0004
   -997599.49547   -750447.26445  24319719.508    24319719.5524   24319726.3144
       144.0004        150.0004
  -2246143.72248  -1734227.69346  22353431.539    22353431.8224   22353435.9734
       188.0004        187.0004
      2275.85149     -3529.16247  20951882.396    20951883.0074   20951890.3974
       202.0004        202.0004
   -799749.32449   -553994.77348  20830387.299    20830387.5394   20830394.2564
       214.0004        215.0004
 21  2  5  0 14 30.0000000  0  8G27G01G04G21G30G07G08G09
    772849.42448    588824.96946  23721159.269    23721157.7994   23721162.3864
       187.0004        187.0004
  -2305955.26348  -1783151.99946  22585314.270    22585314.6184   22585324.3814
       171.0004        171.0004
    322796.01048    246299.99147  21553433.851    21553433.7684   21553439.3144
       193.0004        192.0004
  -1536404.38748  -1184042.44746  21911310.899    21911310.8684   21911315.5254
       177.0004        178.0004
  -1081576.84047   -815884.12945  24303740.239    24303738.4894   24303746.7734
       146.0004        150.0004
  -2321319.09648  -1792805.89846  22339125.802    22339125.7124   22339129.6674
       187.0004        187.0004
     68149.99749     47801.35647  20964418.190    20964418.6504   20964425.9374
       202.0004        203.0004
   -780872.97049   -539285.90248  20833979.415    20833979.6384   20833986.4274
       214.0004        215.0004
 21  2  5  0 15  0.0000000  0  8G27G01G04G21G30G07G08G09
    879232.14148    671720.57946  23741403.359    23741401.2564   23741406.6534
       186.0004        186.0004
  -2382706.12248  -1842957.84546  22570708.658    22570709.8894   22570718.2424
       171.0004        172.0004
    402964.64348    308769.05747  21568688.443    21568689.3164   21568695.4154
       193.0004        192.0004
  -1561952.66548  -1203950.18546  21906449.188    21906448.8704   21906454.4414
       178.0004        178.0004
  -1165663.59047   -881406.23345  24287738.537    24287737.4274   24287745.0914
       147.0004        152.0004
  -2396462.94048  -1851359.52546  22324826.100    22324826.4634   22324831.5304
       186.0004        187.0004
    134427.91449     99446.49947  20977030.650    20977030.7634   20977038.1764
       202.0004        202.0004
   -761458.24249   -524157.53948  20837673.919    20837674.4134   20837681.4384
       215.0004        216.0004
 21  2  5  0 15 30.0000000  0  8G27G01G04G21G30G07G08G09
    985725.32048    754702.28546  23761666.390    23761665.3094   23761671.9254
       186.0004        185.0004
  -2459376.69948  -1902701.13146  22556119.244    22556119.6234   22556127.1384
       170.0004        171.0004
    483459.70148    371492.47847  21584007.108    21584007.2064   21584013.5994
       193.0004        191.0004
  -1587128.20348  -1223567.46146  21901658.541    21901658.4614   21901664.7254
       178.0004        179.0004
  -1249856.77147   -947011.26945  24271717.985    24271717.2374   24271724.5614
       151.0004        156.0004
  -2471571.06048  -1909885.30147  22310533.919    22310534.6344   22310538.2574
       187.0004        189.0004
    201108.37649    151405.31847  20989719.701    20989719.8074   20989727.2094
       202.0004        202.0004
   -741504.73049   -508609.33648  20841471.658    20841471.6174   20841477.9784
       215.0004        215.0004
 21  2  5  0 16  0.0000000  0  8G27G01G04G21G30G07G08G09
   1092325.97148    837767.72546  23781949.260    23781950.3854   23781956.7804
       184.0004        185.0004
  -2535963.98048  -1962379.51146  22541546.028    22541546.5524   22541554.4484
       170.0004        172.0004
    564278.15548    434467.90047  21599385.427    21599386.2994   21599392.7934
       192.0004        191.0004
  -1611928.80048  -1242892.58546  21896940.397    21896939.3254   21896945.1494
       179.0004        180.0004
  -1334155.25447  -1012698.35745  24255675.182    24255675.7224   24255682.8654
       153.0004        156.0004
  -2546641.39048  -1968381.65847  22296249.022    22296248.9924   22296252.0554
       188.0004        188.0004
    268188.76649    203675.75947  21002484.378    21002484.8474   21002491.9464
       201.0004        202.0004
   -721013.91149   -492642.46448  20845370.030    20845370.5104   20845377.1434
       215.0004        215.0004
 21  2  5  0 16 30.0000000  0  8G27G01G04G21G30G07G08G09
   1199030.97748    920914.45946  23802255.225    23802255.4754   23802262.2794
       183.0004        183.0004
  -2612465.08648  -2021990.75746  22526987.992    22526988.1244   22526996.3964
       170.0004        170.0004
    645416.87048    497692.87647  21614826.176    21614826.5294   21614832.8274
       192.0004        191.0004
  -1636352.66748  -1261924.13746  21892292.253    21892291.7574   21892297.3264
       180.0004        180.0004
  -1418558.02047  -1078466.72345  24239614.642    24239613.4944   24239619.9824
       153.0004        156.0004
  -2621672.11848  -2026847.15347  22281969.907    22281970.4594   22281975.0184
       187.0004        188.0004
    335665.72549    256255.21647  21015324.760    21015324.8584   21015332.4784
       201.0004        201.0004
   -699987.39649   -476258.16248  20849371.859    20849371.9504   20849378.2604
       214.0004        214.0004
 21  2  5  0 17  0.0000000  0  8G27G01G04G21G30G07G08G09
   1305836.84248   1004139.83346  23822579.314    23822580.1334   23822586.0234
       181.0004        181.0004
  -2688877.47248  -2081532.84646  22512447.077    22512447.4424   22512455.7464
       170.0004        172.0004
    726872.31148    561164.65047  21630326.939    21630326.9254   21630332.6924
       191.0004        190.0004
  -1660398.26548  -1280660.94446  21887716.052    21887716.1934   21887720.7374
       180.0004        181.0004
  -1503064.40347  -1144315.81845  24223532.673    24223532.0894   24223539.1654
       153.0004        156.0004
  -2696661.68148  -2085280.56247  22267700.990    22267701.1924   22267704.4574
       188.0004        188.0004
    403535.71049    309140.93847  21028239.083    21028239.7454   21028247.2134
       200.0004        200.0004
   -678427.20449   -459457.99948  20853474.020    20853474.6474   20853481.2644
       214.0004        214.0004
 21  2  5  0 17 30.0000000  0  8G27G01G04G21G30G07G08G09
   1412740.71648   1087441.51946  23842923.782    23842923.4654   23842930.0354
       181.0004        181.0004
  -2765198.09048  -2141003.43346  22497923.799    22497923.5974   22497932.6754
       170.0004        172.0004
    808641.45948    624880.87447  21645886.648    21645887.1774   21645893.1814
       191.0004        190.0004
  -1684063.72948  -1299101.53546  21883213.295    21883212.2714   21883217.2404
       179.0004        179.0004
  -1587673.13647  -1210244.66845  24207432.491    24207431.8404   24207438.6964
       154.0004        157.0004
  -2771607.85748  -2143680.18047  22253439.528    22253439.1804   22253443.2614
       188.0004        188.0004
    471796.40349    362331.08947  21041229.464    21041229.5854   21041237.0544
       200.0004        200.0004
   -656334.88149   -442243.19448  20857678.629    20857678.8094   20857685.0724
       214.0004        214.0004
 21  2  5  0 18  0.0000000  0  8G27G01G04G21G30G07G08G09
   1519739.56148   1170817.29746  23863285.219    23863285.1044   23863290.9274
       181.0004        181.0004
  -2841423.93448  -2200400.16146  22483418.072    22483418.0564   22483427.2934
       170.0004        172.0004
    890721.32948    688839.21747  21661506.290    21661506.9164   21661512.6214
       191.0004        192.0004
  -1707346.78648  -1317244.16246  21878781.807    21878781.4494   21878786.3544
       179.0004        179.0004
  -1672383.08247  -1276252.38845  24191311.023    24191311.9424   24191319.5404
       156.0004        158.0004
  -2846508.45848  -2202044.27046  22239184.878    22239185.8904   22239189.1314
       187.0004        187.0004
    540444.46449    415823.09147  21054292.826    21054293.0914   21054300.3594
       200.0004        201.0004
   -633711.90349   -424614.89948  20861983.223    20861983.6044   20861990.1444
       214.0004        214.0004
 21  2  5  0 18 30.0000000  0  8G27G01G04G21G30G07G08G09
   1626831.09448   1254265.20446  23883663.931    23883664.0964   23883670.1634
       182.0004        183.0004
  -2917551.31848  -2259720.19446  22468930.939    22468931.9974   22468940.6644
       171.0004        173.0004
    973109.40248    753037.71647  21677183.550    21677184.0854   21677190.9734
       192.0004        191.0004
  -1730245.24048  -1335087.06746  21874424.195    21874423.7454   21874429.6244
       179.0004        180.0004
  -1757192.41247  -1342337.55745  24175173.464    24175173.8484   24175181.1774
       157.0004        159.0004
  -2921360.83548  -2260370.76747  22224941.047    22224941.4024   22224945.8204
       187.0004        188.0004
    609476.93649    469614.64947  21067429.187    21067429.5544   21067436.5534
       200.0004        200.0004
   -610559.35749   -406573.94348  20866388.956    20866389.1714   20866396.0614
       214.0004        214.0004
 21  2  5  0 19  0.0000000  0  8G27G01G04G21G30G07G08G09
   1734012.15748   1337782.91246  23904058.525    23904058.5024   23904067.1664
       182.0004        181.0004
  -2993577.38248  -2318961.26646  22454465.437    22454465.2464   22454472.0814
       172.0004        173.0004
   1055802.44948    817473.85847  21692919.475    21692919.7934   21692925.9464
       192.0004        191.0004
  -1752757.57948  -1352629.14746  21870140.662    21870139.5544   21870146.0544
       179.0004        180.0004
  -1842100.11347  -1408499.36945  24159015.530    24159016.0584   24159023.4304
       157.0004        159.0004
  -2996163.38148  -2318658.46247  22210706.661    22210707.4004   22210711.1734
       188.0004        189.0004
    678891.26049    523703.74047  21080637.885    21080638.2524   21080646.2114
       199.0004        199.0004
   -586878.96849   -388121.69448  20870894.844    20870895.5214   20870902.3694
       213.0004        214.0004
 21  2  5  0 19 30.0000000  0  8G27G01G04G21G30G07G08G09
   1841279.14048   1421367.56446  23924470.678    23924470.8854   23924478.5894
       180.0004        179.0004
  -3069499.87148  -2378121.62146  22440015.695    22440016.5194   22440024.7594
       170.0004        171.0004
   1138796.67648    882144.68947  21708713.612    21708713.7584   21708719.2854
       191.0004        189.0004
  -1774882.38048  -1369869.23546  21865930.121    21865929.6374   21865935.2464
       179.0004        181.0004
  -1927105.70347  -1474737.46945  24142840.413    24142840.5304   24142847.4724
       157.0004        160.0004
  -3070914.44048  -2376906.03047  22196482.637    22196482.8324   22196486.7244
       189.0004        190.0004
    748683.70149    578087.45947  21093919.131    21093919.3784   21093927.0744
       199.0004        199.0004
   -562673.11849   -369259.98248  20875501.796    20875501.8034   20875508.5884
       214.0004        214.0004
 21  2  5  0 20  0.0000000  0  8G27G01G04G21G30G07G08G09
   1948630.31448   1505017.81146  23944898.140    23944898.7224   23944906.3094
       178.0004        177.0004
  -3145314.45448  -2437197.89946  22425589.546    22425590.4564   22425597.8384
       170.0004        172.0004
   1222090.23248    947048.75647  21724564.328    21724564.5634   21724570.0684
       191.0004        189.0004
  -1796616.79948  -1386805.11546  21861795.948    21861795.1364   21861799.6664
       180.0004        180.0004
  -2012206.72947  -1541049.94145  24126645.785    24126645.8424   24126652.9174
       157.0004        159.0004
  -3145610.56148  -2435110.79347  22182268.262    22182268.6974   22182272.5904
       189.0004        190.0004
    818852.62149    632764.55747  21107271.861    21107272.1854   21107279.9324
       198.0004        198.0004
   -537942.24249   -349989.16948  20880207.435    20880207.8594   20880214.7114
       214.0004        214.0004
 21  2  5  0 20 30.0000000  0  8G27G01G04G21G30G07G08G09
   2056061.61848   1588730.53046  23965343.753    23965343.4534   23965350.6814
       179.0004        181.0004
  -3221019.16348  -2496188.54646  22411183.398    22411184.1744   22411192.2574
       171.0004        173.0004
   1305678.93948   1012182.81047  21740470.540    21740470.7644   21740476.1694
       191.0004        189.0004
  -1817959.83048  -1403436.03546  21857733.139    21857732.7384   21857737.5574
       179.0004        179.0004
  -2097403.02247  -1607436.64745  24110432.799    24110433.5384   24110440.4764
       156.0004        158.0004
  -3220251.01648  -2493272.19047  22168065.267    22168065.6234   22168069.2184
       189.0004        190.0004
    889393.99949    687731.86647  21120695.268    21120695.5714   21120703.6444
       198.0004        199.0004
   -512689.11549   -330311.41148  20885013.528    20885013.8874   20885020.1164
       214.0004        214.0004
 21  2  5  0 21  0.0000000  0  8G27G01G04G21G30G07G08G09
   2163571.45448   1672504.39346  23985800.544    23985801.0564   23985808.0144
       176.0004        175.0004
  -3296609.71848  -2555090.25446  22396798.672    22396799.4674   22396807.6334
       172.0004        173.0004
   1389560.96448   1077545.42247  21756432.214    21756432.7414   21756437.7914
       190.0004        189.0004
  -1838908.22648  -1419759.43046  21853745.058    21853745.6044   21853751.1304
       178.0004        179.0004
  -2182692.10647  -1673895.64245  24094204.781    24094204.3274   24094209.7444
       157.0004        160.0004
  -3294832.33848  -2551387.49047  22153872.426    22153872.0954   22153876.4484
       189.0004        188.0004
    960305.43349    742987.54047  21134189.174    21134190.2394   21134197.6744
       199.0004        199.0004
   -486914.24949   -310227.09348  20889917.730    20889918.1244   20889925.0504
       213.0004        214.0004
 21  2  5  0 21 30.0000000  0  8G27G01G04G21G30G07G08G09
   2271156.52548   1756336.88646  24006273.066    24006273.9444   24006279.8004
       175.0004        175.0004
  -3372083.38948  -2613900.87546  22382436.363    22382436.9774   22382444.7154
       172.0004        173.0004
   1473732.89548   1143133.93647  21772449.304    21772449.9794   21772455.8074
       190.0004        188.0004
  -1859460.49948  -1435774.18346  21849835.122    21849834.9414   21849840.5874
       178.0004        179.0004
  -2268072.98947  -1740426.18245  24077956.418    24077956.2094   24077962.8094
       157.0004        159.0004
  -3369352.08748  -2609454.81647  22139691.205    22139691.6684   22139696.2154
       190.0004        191.0004
   1031583.89049    798529.19047  21147754.183    21147753.6824   21147761.2684
       198.0004        198.0004
   -460619.66649   -289737.80948  20894921.823    20894922.0884   20894928.5244
       213.0004        214.0004
 21  2  5  0 22  0.0000000  0  8G27G01G04G21G30G07G08G09
   2378814.86548   1840226.48846  24026758.821    24026760.0984   24026767.8114
       172.0004        173.0004
  -3447436.25048  -2672617.36046  22368096.368    22368097.6434   22368106.4234
       173.0004        174.0004
   1558192.50148   1208946.62347  21788521.695    21788521.7284   21788527.6204
       189.0004        188.0004
  -1879613.84948  -1451478.06646  21846001.034    21846000.6394   21846005.9974
       179.0004        180.0004
  -2353543.50947  -1807026.54045  24061692.819    24061691.9014   24061698.7394
       158.0004        161.0004
  -3443807.28348  -2667471.83647  22125522.394    22125523.6064   22125528.0854
       191.0004        192.0004
   1103227.48349    854355.37247  21161386.326    21161386.9174   21161394.4044
       197.0004        198.0004
   -433806.25649   -268844.23348  20900023.937    20900024.3634   20900031.2184
       213.0004        213.0004
 21  2  5  0 22 30.0000000  0  8G27G01G04G21G30G07G08G09
   2486543.46048   1924170.83446  24047259.975    24047260.3424   24047267.0054
       174.0004        174.0004
  -3522665.27348  -2731237.36246  22353782.111    22353782.7504   22353790.3324
       173.0004        175.0004
   1642936.60748   1274980.99846  21804647.320    21804647.9714   21804654.3144
       188.0004        187.0004
  -1899366.79348  -1466869.94346  21842241.494    21842241.6254   21842246.3714
       180.0004        180.0004
  -2439102.51047  -1873695.84645  24045409.389    24045410.3004   24045417.5294
       159.0004        161.0004
  -3518196.69248  -2725437.60947  22111368.182    22111367.9574   22111372.0054
       193.0004        192.0004
   1175233.14649    910463.68047  21175088.701    21175088.8984   21175096.7724
       197.0004        198.0004
   -406475.84249   -247547.81348  20905224.510    20905224.9614   20905231.9654
       213.0004        213.0004
 21  2  5  0 23  0.0000000  0  8G27G01G04G21G30G07G08G09
   2594339.56548   2008167.76246  24067773.669    24067772.8834   24067780.9124
       172.0004        173.0004
  -3597767.29448  -2789758.38846  22339491.460    22339491.8304   22339499.0674
       174.0004        176.0004
   1727962.18148   1341234.68447  21820827.737    21820828.2094   21820834.1134
       189.0004        188.0004
  -1918717.57948  -1481948.45946  21838559.492    21838559.1704   21838564.3284
       180.0004        180.0004
  -2524748.53847  -1940432.99546  24029111.851    24029112.7154   24029119.7824
       161.0004        164.0004
  -3592517.63848  -2783350.02747  22097225.300    22097225.2514   22097229.2484
       192.0004        192.0004
   1247597.14349    966851.22047  21188859.039    21188859.3784   21188867.1514
       198.0004        198.0004
   -378630.14449   -225849.86248  20910523.933    20910523.9254   20910530.6224
       213.0004        213.0004
 21  2  5  0 23 30.0000000  0  8G27G01G04G21G30G07G08G09
   2702199.25348   2092214.25346  24088297.957    24088298.5794   24088304.9184
       174.0004        175.0004
  -3672740.22148  -2848178.83046  22325224.480    22325224.4324   22325232.2004
       175.0004        176.0004
   1813265.16548   1407704.53646  21837060.191    21837060.6654   21837066.1444
       188.0004        187.0004
  -1937665.28248  -1496712.88146  21834953.128    21834953.2664   21834958.1824
       180.0004        181.0004
  -2610481.34347  -2007237.74346  24012798.823    24012798.6844   24012804.8824
       161.0004        163.0004
  -3666768.69548  -2841207.98647  22083095.121    22083095.7984   22083099.7204
       191.0004        191.0004
   1320316.07149   1023515.34047  21202697.918    21202697.8384   21202704.7264
       198.0004        198.0004
   -350271.99549   -203752.60648  20915919.638    20915920.1674   20915927.1574
       212.0004        213.0004
 21  2  5  0 24  0.0000000  0  8G27G01G04G21G30G07G08G09
   2810120.83548   2176309.00146  24108833.953    24108835.0554   24108843.3214
       174.0004        175.0004
  -3747579.85748  -2906495.40046  22310981.788    22310981.9784   22310990.7354
       175.0004        175.0004
   1898843.52648   1474388.96146  21853344.946    21853345.6714   21853351.6534
       187.0004        186.0004
  -1956206.77048  -1511160.78346  21831424.950    21831424.9544   21831430.3724
       180.0004        181.0004
  -2696298.48747  -2074108.22345  23996467.297    23996467.2514   23996474.1214
       158.0004        158.0004
  -3740946.47048  -2899008.85347  22068980.055    22068980.2724   22068983.7164
       192.0004        192.0004
   1393388.08349   1080454.56047  21216602.796    21216602.9214   21216610.0664
       197.0004        196.0004
   -321402.12749   -181256.60748  20921413.663    20921414.0824   20921420.8194
       213.0004        213.0004
 21  2  5  0 24 30.0000000  0  8G27G01G04G21G30G07G08G09
   2918102.11048   2260450.23646  24129383.502    24129384.3064   24129389.9354
       173.0004        174.0004
  -3822282.42948  -2964705.17146  22296765.491    22296766.4954   22296775.7154
       175.0004        176.0004
   1984694.81748   1541286.08046  21869682.504    21869682.7334   21869688.0364
       187.0004        186.0004
  -1974340.15948  -1525290.68646  21827975.262    21827974.5134   21827979.8764
       180.0004        181.0004
  -2782197.94047  -2141042.84345  23980122.624    23980122.3404   23980127.3054
       156.0004        158.0004
  -3815048.43748  -2956750.63047  22054878.373    22054879.3414   22054883.1324
       193.0004        193.0004
   1466810.71349   1137666.99547  21230573.968    21230574.5544   21230582.0784
       196.0004        196.0004
   -292021.73549   -158362.78448  20927004.643    20927005.2124   20927011.5954
       212.0004        213.0004
 21  2  5  0 25  0.0000000  0  8G27G01G04G21G30G07G08G09
   3026139.57348   2344635.25746  24149942.480    24149943.2364   24149950.2414
       175.0004        177.0004
  -3896845.54248  -3022806.27846  22282578.215    22282578.4714   22282585.6804
       175.0004        176.0004
   2070815.23448   1608392.89246  21886069.394    21886070.0884   21886077.4014
       186.0004        186.0004
  -1992064.22548  -1539101.62346  21824601.740    21824601.6594   21824606.6014
       181.0004        181.0004
  -2868179.03147  -2208041.08345  23963760.425    23963760.4034   23963766.9944
       156.0004        159.0004
  -3889072.86948  -3014432.00147  22040792.149    22040792.4524   22040795.6904
       193.0004        192.0004
   1540580.03549   1195149.59247  21244612.300    21244612.6544   21244619.2814
       196.0004        196.0004
   -262133.34649   -135073.13148  20932692.226    20932692.6594   20932698.9334
       212.0004        213.0004
 21  2  5  0 25 30.0000000  0  8G27G01G04G21G30G07G08G09
   3134230.41748   2428861.86046  24170511.523    24170512.0144   24170517.8554
       175.0004        176.0004
  -3971265.98348  -3080796.20546  22268416.173    22268416.3734   22268424.7474
       175.0004        175.0004
   2157201.75548   1675707.05046  21902509.083    21902510.0704   21902515.9024
       186.0004        186.0004
  -2009376.98348  -1552592.07946  21821307.379    21821306.9104   21821311.7574
       180.0004        181.0004
  -2954240.28447  -2275101.78045  23947382.055    23947382.8624   23947390.0424
       158.0004        160.0004
  -3963017.30948  -3072051.04647  22026720.233    22026720.5404   22026725.3544
       192.0004        192.0004
   1614693.31149   1252900.20247  21258715.822    21258715.6174   21258723.0564
       196.0004        197.0004
   -231738.83149   -111389.09947  20938475.995    20938476.6874   20938483.4714
       212.0004        212.0004
 21  2  5  0 26  0.0000000  0  8G27G01G04G21G30G07G08G09
   3242373.24748   2513128.97446  24191090.168    24191090.7684   24191097.6314
       175.0004        177.0004
  -4045539.38548  -3138671.55946  22254281.863    22254282.4774   22254290.9034
       175.0004        177.0004
   2243852.55148   1743227.15846  21918998.753    21918998.3254   21919004.6574
       186.0004        185.0004
  -2026275.46548  -1565759.69846  21818090.790    21818090.8484   21818096.4044
       180.0004        180.0004
  -3040379.12747  -2342222.89945  23930990.565    23930989.8264   23930997.7644
       156.0004        157.0004
  -4036878.54848  -3129605.24547  22012665.552    22012666.1134   22012670.1934
       192.0004        193.0004
   1689148.63749   1310917.34647  21272883.813    21272884.2664   21272891.4734
       196.0004        197.0004
   -200838.80749    -87311.14747  20944355.509    20944356.2034   20944363.3044
       212.0004        212.0004
 21  2  5  0 26 30.0000000  0  8G27G01G04G21G30G07G08G09
   3350564.80248   2597434.03246  24211678.985    24211679.5224   24211684.8014
       176.0004        177.0004
  -4119662.91048  -3196430.14046  22240176.252    22240177.3324   22240185.7954
       176.0004        177.0004
   2330764.17648   1810950.48446  21935537.370    21935537.6904   21935543.8084
       186.0004        186.0004
  -2042758.91448  -1578603.93846  21814955.125    21814954.6694   21814958.9884
       181.0004        181.0004
  -3126594.35047  -2409403.57145  23914583.901    23914584.1954   23914591.4574
       157.0004        160.0004
  -4110654.33648  -3187092.87047  21998626.458    21998626.9874   21998631.0064
       193.0004        194.0004
   1763942.76949   1369198.48947  21287116.171    21287116.6054   21287124.6734
       196.0004        197.0004
   -169435.53149    -62841.06548  20950332.024    20950332.7514   20950338.8364
       212.0004        213.0004
 21  2  5  0 27  0.0000000  0  8G27G01G04G21G30G07G08G09
   3458802.25848   2681774.90146  24232274.346    24232275.8964   24232282.4824
       177.0004        178.0004
  -4193633.56648  -3254069.59546  22226101.694    22226101.9564   22226109.2534
       177.0004        178.0004
   2417933.41048   1878874.55746  21952124.868    21952125.4404   21952131.0484
       186.0004        186.0004
  -2058825.50048  -1591123.34946  21811898.828    21811897.9504   21811901.7054
       181.0004        182.0004
  -3212884.72647  -2476642.80845  23898164.930    23898165.0484   23898171.3184
       158.0004        161.0004
  -4184342.70648  -3244512.37447  21984604.621    21984605.3214   21984608.4194
       194.0004        194.0004
   1839072.26949   1427740.96247  21301412.697    21301413.0274   21301421.1644
       196.0004        196.0004
   -137531.04849    -37980.43147  20956403.797    20956403.5294   20956410.4104
       212.0004        212.0004
 21  2  5  0 27 30.0000000  0  9G27G01G04G21G30G07G08G09G17
   3567082.15948   2766148.84946  24252880.323    24252880.9594   24252887.3214
       178.0004        179.0004
  -4267448.83348  -3311587.94446  22212054.539    22212054.8304   22212062.8954
       177.0004        178.0004
   2505356.57048   1946996.49146  21968761.202    21968761.4124   21968767.4194
       185.0004        184.0004
  -2074473.61748  -1603316.66346  21808919.158    21808919.2754   21808924.0974
       181.0004        182.0004
  -3299249.32647  -2543939.87945  23881730.667    23881729.9614   23881736.7714
       159.0004        161.0004
  -4257941.44848  -3301862.02647  21970598.143    21970598.8784   21970603.1094
       194.0004        194.0004
   1914533.81249   1486542.15447  21315773.824    21315773.7174   21315780.8434
       196.0004        196.0004
   -105127.94749    -12731.26148  20962569.635    20962569.9434   20962576.5724
       212.0004        213.0004
  -1304075.72154  -1000206.59245  24270469.590
        74.0004        142.0004
 21  2  5  0 28  0.0000000  0  9G27G01G04G21G30G07G08G09G17
   3675402.95548   2850554.62746  24273492.864    24273493.6504   24273501.2774
       180.0004        181.0004
  -4341104.39148  -3368981.86246  22198037.450    22198037.9484   22198047.1914
       177.0004        177.0004
   2593031.67948   2015314.74946  21985444.825    21985445.3324   21985451.0664
       184.0004        183.0004
  -2089700.68348  -1615181.90746  21806021.847    21806022.4964   21806027.3894
       181.0004        181.0004
  -3385685.69147  -2611292.86545  23865281.576    23865281.5604   23865287.2324
       158.0004        159.0004
  -4331447.68148  -3359139.61647  21956611.450    21956611.4914   21956614.8114
       193.0004        193.0004
   1990325.22349   1545600.39647  21330197.262    21330197.1024   21330203.8584
       196.0004        198.0004
    -72227.04249     12905.80248  20968830.827    20968830.8884   20968837.5534
       212.0004        213.0004
  -1401780.56246  -1076340.13545  24251875.284                    24251882.4334
       123.0004        140.0004
 21  2  5  0 28 30.0000000  0  9G27G01G04G21G30G07G08G09G17
   3783761.04448   2934989.48146  24294112.946    24294113.0794   24294119.8464
       178.0004        177.0004
  -4414597.91348  -3426249.54246  22184051.308    22184052.8044   22184061.4654
       177.0004        178.0004
   2680954.71048   2083826.20846  22002176.090    22002176.1644   22002182.6014
       185.0004        185.0004
  -2104506.09648  -1626718.59046  21803205.175    21803205.1954   21803210.3534
       182.0004        183.0004
  -3472193.18047  -2678701.28145  23848819.191    23848818.8594   23848826.5994
       155.0004        157.0004
  -4404859.21148  -3416343.39347  21942641.264    21942642.0644   21942645.6634
       193.0004        194.0004
   2066442.97849   1604912.93447  21344681.163    21344681.8064   21344688.6454
       197.0004        198.0004
    -38831.22949     38928.51847  20975185.284    20975185.5884   20975192.0264
       212.0004        212.0004
  -1499270.06946  -1152305.93745  24233324.450    24233323.5594   24233329.7884
       128.0004        136.0004
 21  2  5  0 29  0.0000000  0  9G27G01G04G21G30G07G08G09G17
   3892153.06748   3019450.79446  24314740.706    24314740.1034   24314745.7474
       175.0004        175.0004
  -4487926.84448  -3483388.93646  22170098.406    22170098.7444   22170106.6464
       178.0004        177.0004
   2769122.03848   2152528.01346  22018954.334    22018954.3934   22018960.3584
       185.0004        185.0004
  -2118888.81148  -1637925.87546  21800468.195    21800467.5524   21800472.9714
       182.0004        183.0004
  -3558770.81847  -2746164.34445  23832343.986    23832343.9244   23832350.9144
       153.0004        155.0004
  -4478175.29848  -3473472.80547  21928689.709    21928690.5164   21928694.4194
       194.0004        195.0004
   2142883.02449   1664476.61647  21359226.730    21359227.1534   21359234.1924
       196.0004        196.0004
     -4943.06049     65334.88848  20981633.731    20981634.5754   20981640.7494
       212.0004        213.0004
  -1596542.45946  -1228102.58045  24214813.100    24214813.6944   24214817.8934
       131.0004        139.0004
 21  2  5  0 29 30.0000000  0  9G27G01G04G21G30G07G08G09G17
   4000576.82648   3103936.83146  24335372.415    24335372.4724   24335378.9574
       173.0004        173.0004
  -4561087.55748  -3540397.27246  22156175.997    22156176.8594   22156184.8334
       178.0004        179.0004
   2857531.03848   2221418.12846  22035778.040    22035778.2934   22035784.1824
       184.0004        183.0004
  -2132846.49348  -1648801.97946  21797811.494    21797810.7804   21797816.7814
       182.0004        182.0004
  -3645416.71847  -2813680.61445  23815854.879    23815855.5634   23815862.7384
       153.0004        156.0004
  -4551392.60849  -3530525.25547  21914757.556    21914757.8154   21914761.0444
       195.0004        195.0004
   2219642.65149   1724289.30747  21373833.821    21373834.1864   21373841.1424
       195.0004        196.0004
     29435.87649     92123.66548  20988176.795    20988176.8714   20988182.8594
       212.0004        213.0004
  -1693595.36647  -1303728.14545  24196346.201    24196347.0454   24196351.5674
       138.0004        144.0004
 21  2  5  0 30  0.0000000  0  9G27G01G04G21G30G07G08G09G17
   4109031.55648   3188446.99346  24356010.943    24356011.0854   24356015.6564
       171.0004        171.0004
  -4634074.99548  -3597270.58146  22142286.359    22142287.8184   22142296.1684
       178.0004        178.0004
   2946180.44348   2290495.59046  22052647.447    22052647.4644   22052653.4304
       184.0004        184.0004
  -2146375.99848  -1659344.43146  21795236.291    21795236.5584   21795241.9854
       181.0004        182.0004
  -3732127.50447  -2881247.42145  23799354.380    23799355.4054   23799362.6324
       154.0004        158.0004
  -4624506.76349  -3587497.31347  21900842.436    21900843.2194   21900848.2774
       195.0004        194.0004
   2296721.37449   1784350.65747  21388501.331    21388501.7384   21388509.2614
       195.0004        196.0004
     64305.42649    119294.72847  20994811.845    20994811.9604   20994818.4224
       212.0004        212.0004
  -1790425.07547  -1379179.79045  24177921.330    24177920.4084   24177925.9484
       143.0004        148.0004
 21  2  5  0 30 30.0000000  0  9G27G01G04G21G30G07G08G09G17
   4217514.75848   3272979.38846  24376655.751    24376654.8974   24376660.2754
       172.0004        173.0004
  -4706885.71448  -3654006.17546  22128431.425    22128432.4224   22128441.5044
       177.0004        179.0004
   3035067.48848   2359758.23446  22069560.998    22069561.7284   22069568.3084
       184.0004        184.0004
  -2159475.30448  -1669551.66946  21792743.502    21792743.7114   21792749.8204
       181.0004        181.0004
  -3818901.27647  -2948863.33345  23782844.038    23782843.5714   23782849.9624
       158.0004        161.0004
  -4697515.24548  -3644387.02147  21886949.676    21886950.6014   21886955.0374
       194.0004        194.0004
   2374116.49849   1844658.55647  21403229.286    21403229.4734   21403236.4234
       195.0004        196.0004
     99663.77349    146846.70347  21001539.299    21001539.4714   21001547.5044
       211.0004        211.0004
  -1887028.98747  -1454455.49445  24159535.555    24159536.3024   24159541.7984
       144.0004        148.0004
 21  2  5  0 31  0.0000000  0  9G27G01G04G21G30G07G08G09G17
   4326023.47848   3357531.60246  24397303.436    24397302.9764   24397309.6044
       172.0004        173.0004
  -4779516.80948  -3710601.81346  22114610.982    22114611.1244   22114619.6694
       178.0004        179.0004
   3124188.72448   2429203.33846  22086519.843    22086520.7834   22086527.2104
       184.0004        183.0004
  -2172143.24548  -1679422.78446  21790333.916    21790333.7964   21790338.4214
       181.0004        182.0004
  -3905736.83247  -3016527.41345  23766319.640    23766318.8794   23766325.7284
       159.0004        162.0004
  -4770415.83748  -3701192.67247  21873077.949    21873078.0154   21873082.2384
       194.0004        194.0004
   2451823.61749   1905209.56347  21418016.562    21418017.1934   21418023.9844
       195.0004        196.0004
    135508.57149    174777.71147  21008361.197    21008361.5624   21008367.9254
       211.0004        211.0004
  -1983405.39447  -1529553.92745  24141196.751    24141197.2884   24141202.1554
       147.0004        151.0004
 21  2  5  0 31 30.0000000  0  9G27G01G04G21G30G07G08G09G17
   4434555.15948   3442101.68846  24417955.581    24417956.2504   24417961.7254
       172.0004        172.0004
  -4851964.96248  -3767054.91446  22100824.711    22100824.6554   22100832.4994
       178.0004        179.0004
   3213541.18548   2498828.61946  22103523.862    22103524.1934   22103530.7604
       184.0004        183.0004
  -2184378.10348  -1688956.43646  21788006.746    21788005.8904   21788010.8634
       182.0004        182.0004
  -3992632.57047  -3084238.34546  23749782.859    23749783.0564   23749792.1074
       160.0004        163.0004
  -4843206.15449  -3757912.39647  21859226.273    21859226.6834   21859230.6064
       195.0004        195.0004
   2529840.84549   1966002.20047  21432863.004    21432863.2734   21432870.1494
       195.0004        195.0004
    171837.83349    203086.21847  21015274.124    21015274.4344   21015281.3274
       211.0004        212.0004
  -2079552.05247  -1604473.31845  24122900.242    24122900.7164   24122906.4934
       148.0004        152.0004
 21  2  5  0 32  0.0000000  0  9G27G01G04G21G30G07G08G09G17
   4543107.45348   3526687.89346  24438613.117    24438613.4274   24438618.7514
       171.0004        172.0004
  -4924226.67648  -3823362.71446  22087072.885    22087073.6594   22087081.8374
       179.0004        180.0004
   3303122.10048   2568631.92946  22120570.758    22120571.2594   22120577.1764
       184.0004        184.0004
  -2196177.99448  -1698151.14346  21785760.596    21785760.7984   21785765.2774
       183.0004        183.0004
  -4079586.65847  -3151994.73845  23733236.259    23733235.7464   23733244.1264
       160.0004        162.0004
  -4915883.30249  -3814543.93847  21845397.352    21845397.2474   21845401.0874
       196.0004        197.0004
   2608165.06149   2027034.06947  21447766.706    21447767.3034   21447775.0464
       195.0004        195.0004
    208649.75349    231770.83747  21022279.006    21022279.4774   21022286.2204
       211.0004        211.0004
  -2175466.51147  -1679211.77145  24104647.344    24104648.2824   24104654.4934
       149.0004        152.0004
 21  2  5  0 32 30.0000000  0  9G27G01G04G21G30G07G08G09G17
   4651677.70148   3611288.02346  24459274.011    24459273.6354   24459279.1504
       169.0004        170.0004
  -4996298.83448  -3879522.82346  22073359.140    22073359.4514   22073368.1634
       179.0004        180.0004
   3392928.29848   2638610.77946  22137661.060    22137660.9494   22137666.9744
       185.0004        185.0004
  -2207541.76948  -1707006.02046  21783598.353    21783597.7014   21783603.0584
       183.0004        183.0004
  -4166597.36547  -3219795.28245  23716678.401    23716677.8314   23716685.4824
       159.0004        160.0004
  -4988445.09649  -3871085.59147  21831588.357    21831588.9714   21831592.9304
       196.0004        196.0004
   2686793.23048   2088302.75947  21462729.829    21462730.5994   21462737.3704
       194.0004        195.0004
    245942.11549    260829.82247  21029376.061    21029375.8684   21029382.8874
       211.0004        211.0004
  -2271146.77547  -1753767.71845  24086440.793    24086441.3574   24086446.8504
       151.0004        155.0004
 21  2  5  0 33  0.0000000  0  9G27G01G04G21G30G07G08G09G17
   4760262.78848   3695899.78546  24479936.058    24479936.4414   24479942.0504
       170.0004        172.0004
  -5068178.58548  -3935533.00846  22059679.633    22059680.4124   22059689.4244
       179.0004        180.0004
   3482956.32148   2708762.49046  22154791.933    22154792.2654   22154799.2324
       185.0004        183.0004
  -2218468.04848  -1715519.97846  21781519.126    21781518.2984   21781524.2874
       183.0004        183.0004
  -4253663.52847  -3287639.03345  23700110.189    23700110.2724   23700118.0894
       157.0004        159.0004
  -5060889.62549  -3927535.86747  21817803.059    21817803.0964   21817807.8914
       195.0004        195.0004
   2765721.88948   2149805.61347  21477750.449    21477750.3404   21477756.5204
       194.0004        195.0004
    283712.45049    290261.24647  21036562.671    21036563.1854   21036570.3954
       210.0004        211.0004
  -2366590.81847  -1828139.63145  24068279.021    24068279.7184   24068284.3474
       153.0004        157.0004
 21  2  5  0 33 30.0000000  0  9G27G01G04G21G30G07G08G09G17
   4868860.23748   3780521.12946  24500600.814    24500601.0834   24500607.6044
       169.0004        170.0004
  -5139862.65348  -3991390.71546  22046038.933    22046039.8964   22046047.6924
       179.0004        180.0004
   3573203.13948   2779084.69446  22171965.298    22171965.7084   22171971.7224
       183.0004        182.0004
  -2228955.21848  -1723691.78446  21779522.230    21779522.5144   21779528.5954
       183.0004        182.0004
  -4340783.53847  -3355524.72045  23683532.385    23683531.9314   23683538.6174
       157.0004        160.0004
  -5133214.14449  -3983892.61847  21804040.134    21804040.9184   21804044.2424
       195.0004        196.0004
   2844948.17948   2211540.40447  21492825.940    21492826.4884   21492833.1144
       194.0004        194.0004
    321958.59249    320063.44847  21043841.406    21043841.4874   21043848.2604
       210.0004        211.0004
  -2461796.81547  -1902326.06345  24050161.516    24050162.4234   24050165.9924
       154.0004        157.0004
 21  2  5  0 34  0.0000000  0  9G27G01G04G21G30G07G08G09G17
   4977467.71648   3865150.29146  24521268.154    24521268.6654   24521275.2074
       169.0004        170.0004
  -5211347.63848  -4047093.29246  22032435.285    22032435.6254   22032443.8734
       179.0004        180.0004
   3663665.82548   2849575.09946  22189179.903    22189180.4504   22189186.4154
       183.0004        183.0004
  -2239001.73048  -1731520.22946  21777611.561    21777611.1924   21777615.4934
       182.0004        182.0004
  -4427955.50647  -3423450.94645  23666943.776    23666943.7154   23666950.3034
       158.0004        161.0004
  -5205416.02149  -4040153.82947  21790300.753    21790301.1554   21790304.5704
       196.0004        196.0004
   2924469.04248   2273504.70947  21507957.160    21507957.8004   21507964.6064
       193.0004        192.0004
    360678.59749    350234.86847  21051209.374    21051209.8254   21051216.5274
       210.0004        211.0004
  -2556762.67847  -1976325.36445  24032091.666    24032091.6274   24032094.8624
       152.0004        153.0004
 21  2  5  0 34 30.0000000  0  9G27G01G04G21G30G07G08G09G17
   5086082.70048   3949785.37246  24541935.369    24541936.9734   24541944.4824
       170.0004        171.0004
