     2.11           OBSERVATION DATA    G (GPS)             RINEX VERSION / TYPE
teqc  2018Jun8                          20210202 03:10:44UTCPGM / RUN BY / DATE
Linux2.6.32-573.12.1.el6.x86_64|x86_64|gcc|Win64-MinGW64|=+ COMMENT
BIT 2 OF LLI FLAGS DATA COLLECTED UNDER A/S CONDITION       COMMENT
-Unknown-                                                   MARKER NAME
CRNO                                                        MARKER NUMBER
-Unknown-           -Unknown-                               OBSERVER / AGENCY
-Unknown-           ASHTECH             -Unknown-           REC # / TYPE / VERS
-Unknown-           -Unknown-                               ANT # / TYPE
   408080.6267 -6158376.8878  1605163.4279                  APPROX POSITION XYZ
        0.0000        0.0000        0.0000                  ANTENNA: DELTA H/E/N
     1     1                                                WAVELENGTH FACT L1/2
     7    L1    L2    C1    P1    P2    S1    S2            # / TYPES OF OBSERV
    30.0000                                                 INTERVAL
Forced Modulo Decimation to 30 seconds                      COMMENT
 SNR is mapped to RINEX snr flag value [1-9]                COMMENT
  L1: 1 -> 1;  90 -> 5; 210 -> 9                            COMMENT
  L2: 1 -> 1; 150 -> 5; 250 -> 9                            COMMENT
pseudorange smoothing corrections not applied               COMMENT
  2021     2     4     0     0   30.0000000     GPS         TIME OF FIRST OBS
                                                            END OF HEADER
 21  2  4  0  0 30.0000000  0  8G01G17G08G09G04G30G21G27
 -12940222.17148 -10062855.79746  22283802.097    22283802.6764   22283811.8844
       174.0004        174.0004
  -1075482.38557   -813080.91745  24321135.750    24321136.2395   24321145.3674
       142.0004        147.0004
 -16639145.00449 -12936947.64847  21227748.111    21227748.4334   21227755.2294
       195.0004        195.0004
 -18356701.50049 -14271462.16047  20933592.865    20933593.2154   20933600.5054
       211.0004        211.0004
 -13610352.65548 -10569212.37146  21899716.174    21899716.6634   21899722.9994
       185.0004        185.0004
  -2733617.54347  -2096774.20645  23984692.490    23984692.4544   23984698.4554
       154.0004        156.0004
 -13398592.39448 -10427947.50946  21815985.799    21815984.9984   21815990.6794
       179.0004        180.0004
  -3581965.47548  -2772903.06746  24150705.022    24150706.7804   24150713.8554
       174.0004        176.0004
 21  2  4  0  1  0.0000000  0  8G01G17G08G09G04G30G21G27
 -13014730.89348 -10120914.51346  22269624.328    22269624.3644   22269633.7984
       174.0004        175.0004
  -1174033.66847   -889873.49345  24302380.738    24302381.2264   24302391.0694
       143.0004        147.0004
 -16565394.49449 -12879479.70147  21241782.287    21241782.6344   21241788.8724
       195.0004        196.0004
 -18325847.76649 -14247420.29247  20939463.951    20939464.4134   20939471.6574
       211.0004        211.0004
 -13523713.31148 -10501701.22846  21916203.240    21916203.4754   21916209.6004
       185.0004        184.0004
  -2819768.31447  -2163904.65845  23968297.643    23968298.3434   23968305.3884
       154.0004        157.0004
 -13416213.20148 -10441677.97146  21812632.195    21812631.6464   21812636.2114
       180.0004        180.0004
  -3473860.09048  -2688665.10846  24171276.690    24171277.8764   24171284.4844
       174.0004        175.0004
 21  2  4  0  1 30.0000000  0  8G01G17G08G09G04G30G21G27
 -13089088.77348 -10178855.67646  22255474.281    22255475.6184   22255483.4874
       174.0004        175.0004
  -1272372.42647   -966500.44245  24283666.502    24283666.8854   24283676.4614
       143.0004        147.0004
 -16491295.63549 -12821740.31247  21255882.335    21255882.6004   21255889.7294
       195.0004        196.0004
 -18294485.59149 -14222982.23347  20945432.629    20945432.7894   20945440.1234
       211.0004        212.0004
 -13436807.65848 -10433982.56346  21932739.631    21932740.0184   21932748.0294
       184.0004        183.0004
  -2905993.81447  -2231093.32345  23951888.566    23951889.8534   23951897.1864
       155.0004        157.0004
 -13433415.63748 -10455082.43346  21809357.497    21809357.2394   21809362.5974
       180.0004        180.0004
  -3365698.80448  -2604383.59146  24191860.061    24191860.4324   24191867.5634
       175.0004        176.0004
 21  2  4  0  2  0.0000000  0  8G01G17G08G09G04G30G21G27
 -13163293.93548 -10236677.83546  22241353.461    22241354.9594   22241362.4794
       175.0004        176.0004
  -1370497.49447  -1042960.96445  24264992.959    24264994.1534   24265003.0314
       142.0004        147.0004
 -16416852.53649 -12763732.71447  21270048.642    21270049.3264   21270056.2514
       196.0004        197.0004
 -18262618.14349 -14198150.45847  20951496.476    20951497.1004   20951503.9284
       211.0004        211.0004
 -13349639.98848 -10366059.71346  21949327.982    21949327.9114   21949335.0004
       185.0004        185.0004
  -2992293.85247  -2298340.04645  23935467.147    23935466.6284   23935474.8664
       155.0004        157.0004
 -13450199.31448 -10468160.57946  21806163.553    21806163.0684   21806170.0944
       180.0004        181.0004
  -3257485.70648  -2520061.71046  24212452.498    24212453.0544   24212458.9524
       175.0004        176.0004
 21  2  4  0  2 30.0000000  0  8G01G17G08G09G04G30G21G27
 -13237344.49448 -10294379.56246  22227262.638    22227263.5754   22227270.6554
       176.0004        177.0004
  -1468408.18147  -1119254.41845  24246362.093    24246362.5144   24246372.6724
       141.0004        145.0004
 -16342069.66149 -12705460.36047  21284279.969    21284279.9264   21284287.3204
       196.0004        197.0004
 -18230248.56549 -14172927.39747  20957656.657    20957656.6184   20957664.1034
       211.0004        212.0004
 -13262214.62148 -10297936.04746  21965965.031    21965964.8274   21965971.3264
       184.0004        182.0004
  -3078668.20447  -2365644.69445  23919030.168    23919030.4614   23919037.7964
       155.0004        158.0004
 -13466563.86948 -10480912.14346  21803050.457    21803049.8384   21803054.7334
       181.0004        181.0004
  -3149224.74748  -2435702.50446  24233053.053    24233054.1364   24233060.5664
       176.0004        177.0004
 21  2  4  0  3  0.0000000  0  8G01G17G08G09G04G30G21G27
 -13311238.72448 -10351959.44446  22213200.685    22213201.0154   22213209.4224
       176.0004        177.0004
  -1566103.77147  -1195380.27945  24227770.220    24227769.3574   24227780.8934
       138.0004        141.0004
 -16266951.38949 -12646926.66147  21298572.948    21298573.6134   21298581.4314
       196.0004        196.0004
 -18197380.32849 -14147315.78847  20963910.549    20963911.1744   20963918.4444
       211.0004        211.0004
 -13174536.15948 -10229615.15846  21982649.328    21982649.1114   21982656.0064
       183.0004        182.0004
  -3165116.88147  -2433007.28845  23902580.353    23902580.6924   23902587.8634
       157.0004        161.0004
 -13482508.83648 -10493336.77246  21800016.149    21800016.0114   21800020.4434
       181.0004        181.0004
  -3040920.16548  -2351309.31246  24253663.135    24253664.1464   24253670.2384
       177.0004        178.0004
 21  2  4  0  3 30.0000000  0  8G01G17G08G09G04G30G21G27
 -13384973.77048 -10409415.27646  22199168.770    22199168.7774   22199178.4234
       176.0004        178.0004
  -1663582.16947  -1271336.93745  24209220.669    24209219.7374   24209229.1434
       135.0004        139.0004
 -16191501.08849 -12588134.24047  21312930.543    21312931.2034   21312938.8484
       195.0004        195.0004
 -18164015.80049 -14121317.45347  20970259.288    20970259.6814   20970267.5034
       211.0004        210.0004
 -13086608.15048 -10161099.82046  21999380.288    21999381.4874   21999388.0344
       183.0004        182.0004
  -3251638.87347  -2500427.00545  23886116.710    23886115.5354   23886123.1834
       158.0004        160.0004
 -13498033.19048 -10505433.64846  21797061.121    21797061.1494   21797066.5624
       181.0004        182.0004
  -2932575.13748  -2266884.61846  24274280.151    24274281.2364   24274288.3544
       179.0004        181.0004
 21  2  4  0  4  0.0000000  0  8G01G17G08G09G04G30G21G27
 -13458546.12948 -10466744.35546  22185168.051    22185169.2384   22185178.0074
       177.0004        177.0004
  -1760841.33946  -1347122.80145  24190711.966    24190711.7454   24190719.2264
       134.0004        140.0004
 -16115721.25449 -12529085.04347  21327352.595    21327353.1704   21327359.9314
       195.0004        196.0004
 -18130156.61949 -14094933.68547  20976703.199    20976704.0794   20976710.5764
       211.0004        212.0004
 -12998433.27548 -10092392.14446  22016160.174    22016160.2154   22016167.2704
       183.0004        182.0004
  -3338232.30047  -2567902.36645  23869637.294    23869637.4124   23869644.2184
       156.0004        157.0004
 -13513134.60948 -10517200.96446  21794188.755    21794187.8504   21794192.6234
       181.0004        182.0004
  -2824191.95248  -2182430.19546  24294904.846    24294905.4204   24294911.9454
       176.0004        175.0004
 21  2  4  0  4 30.0000000  0  8G01G17G08G09G04G30G21G27
 -13531951.63048 -10523943.38546  22171199.565    22171200.3194   22171209.0074
       177.0004        177.0004
  -1857877.77447  -1422735.05845  24172247.282    24172246.6524   24172255.8574
       139.0004        145.0004
 -16039614.29549 -12469780.90747  21341835.591    21341835.6694   21341842.7554
       197.0004        197.0004
 -18095803.73349 -14068165.20347  20983240.596    20983241.2434   20983247.6034
       211.0004        211.0004
 -12910013.53248 -10023493.65646  22032985.749    22032986.8004   22032992.8994
       183.0004        182.0004
  -3424894.64947  -2635431.45145  23853146.181    23853146.5094   23853152.9424
       154.0004        155.0004
 -13527810.39748 -10528636.61346  21791395.720    21791394.6744   21791401.0754
       181.0004        182.0004
  -2715772.25248  -2097947.27946  24315537.858    24315537.4944   24315542.9804
       173.0004        173.0004
 21  2  4  0  5  0.0000000  0  8G01G17G08G09G04G30G21G27
 -13605188.13048 -10581010.75746  22157263.803    22157264.1774   22157272.5384
       176.0004        178.0004
  -1954690.63847  -1498173.11845  24153823.310    24153823.6424   24153831.6484
       142.0004        147.0004
 -15963183.65749 -12410224.55647  21356379.036    21356379.3324   21356386.8544
       196.0004        195.0004
 -18060960.24149 -14041014.42347  20989870.737    20989871.0454   20989878.3114
       211.0004        211.0004
 -12821353.05648  -9954407.55646  22049856.892    22049857.7584   22049864.4214
       182.0004        182.0004
  -3511625.42147  -2703013.83945  23836641.886    23836640.9964   23836649.4054
       151.0004        153.0004
 -13542060.19748 -10539740.32246  21788684.494    21788683.6724   21788689.1924
       182.0004        182.0004
  -2607319.80048  -2013438.84846  24336176.575    24336175.5804   24336182.1024
       172.0004        171.0004
 21  2  4  0  5 30.0000000  0  8G01G17G08G09G04G30G21G27
 -13678252.84348 -10637944.25446  22143358.648    22143359.7664   22143368.4124
       177.0004        177.0004
  -2051278.27647  -1573435.70945  24135443.542    24135443.6524   24135451.9484
       144.0004        148.0004
 -15886433.59249 -12350419.30947  21370984.615    21370984.8324   21370991.6974
       195.0004        195.0004
 -18025628.58849 -14013483.26647  20996593.859    20996594.2684   20996602.0314
       211.0004        211.0004
 -12732455.37848  -9885136.62146  22066773.310    22066774.0694   22066781.3274
       182.0004        182.0004
  -3598423.54147  -2770648.72145  23820124.610    23820125.0704   23820131.0074
       151.0004        154.0004
 -13555882.46048 -10550510.88546  21786052.014    21786052.5874   21786057.5424
       181.0004        181.0004
  -2498837.81148  -1928907.40746  24356819.796    24356819.4024   24356823.8144
       169.0004        169.0004
 21  2  4  0  6  0.0000000  0  8G01G17G08G09G04G30G21G27
 -13751141.33448 -10694740.47346  22129488.835    22129489.3934   22129500.3344
       176.0004        176.0004
  -2147636.67747  -1648519.71445  24117105.280    24117106.0264   24117114.7124
       146.0004        149.0004
 -15809365.18249 -12290365.99247  21385650.211    21385650.4584   21385657.5274
       195.0004        195.0004
 -17989809.56449 -13985572.33347  21003410.397    21003410.5994   21003417.9524
       211.0004        211.0004
 -12643322.29348  -9815682.27446  22083735.076    22083736.0604   22083742.9424
       183.0004        182.0004
  -3685286.17747  -2838333.82145  23803593.872    23803594.4614   23803602.5834
       152.0004        155.0004
 -13569274.43948 -10560946.17546  21783503.090    21783503.5954   21783509.0094
       180.0004        180.0004
  -2390327.61148  -1844353.95246  24377468.256    24377468.0174   24377474.0584
       170.0004        171.0004
 21  2  4  0  6 30.0000000  0  8G01G17G08G09G04G30G21G27
 -13823850.57048 -10751397.01446  22115653.226    22115654.4084   22115662.3194
       177.0004        179.0004
  -2243764.58847  -1723424.09745  24098812.208    24098813.3394   24098821.9154
       146.0004        150.0004
 -15731982.11049 -12230067.49947  21400375.189    21400375.7484   21400382.6894
       195.0004        195.0004
 -17953505.47949 -13957283.44547  21010318.737    21010319.1144   21010326.4124
       211.0004        211.0004
 -12553957.17848  -9746047.13346  22100740.999    22100741.1594   22100748.5524
       183.0004        183.0004
  -3772212.02447  -2906068.22245  23787054.409    23787053.3204   23787060.9124
       155.0004        158.0004
 -13582234.99048 -10571045.27746  21781037.705    21781038.1584   21781043.3464
       180.0004        181.0004
  -2281792.03948  -1759780.80146  24398121.559    24398121.2664   24398128.0794
       170.0004        171.0004
 21  2  4  0  7  0.0000000  0  8G01G17G08G09G04G30G21G27
 -13896377.56048 -10807911.53846  22101852.448    22101852.7214   22101860.4254
       177.0004        179.0004
  -2339660.07947  -1798147.38345  24080564.238    24080564.6254   24080572.9804
       147.0004        151.0004
 -15654287.17649 -12169525.99347  21415160.372    21415161.0904   21415167.3134
       195.0004        195.0004
 -17916718.64549 -13928618.37447  21017318.983    21017319.0534   21017326.5234
       210.0004        210.0004
 -12464363.28248  -9676233.69446  22117790.606    22117791.1404   22117796.5584
       183.0004        182.0004
  -3859199.71347  -2973850.84845  23770501.830    23770501.2264   23770508.1324
       157.0004        160.0004
 -13594762.97548 -10580807.32446  21778654.705    21778654.3854   21778659.2034
       181.0004        181.0004
  -2173234.11948  -1675190.23146  24418777.771    24418779.0474   24418785.0074
       170.0004        171.0004
 21  2  4  0  7 30.0000000  0  8G01G17G08G09G04G30G21G27
 -13968719.03948 -10864281.45846  22088085.103    22088086.1654   22088095.1084
       178.0004        178.0004
  -2435320.82447  -1872687.78645  24062360.459    24062360.9594   24062369.0744
       151.0004        155.0004
 -15576283.67749 -12108744.04047  21430004.374    21430004.6164   21430011.2414
       195.0004        195.0004
 -17879451.15949 -13899578.77047  21024410.965    21024411.2754   21024418.4184
       209.0004        209.0004
 -12374543.67148  -9606244.37146  22134883.179    22134883.6214   22134889.3314
       183.0004        182.0004
  -3946247.69647  -3041680.40645  23753935.788    23753934.9184   23753943.7874
       159.0004        161.0004
 -13606856.66248 -10590230.95646  21776352.858    21776352.6454   21776357.9814
       181.0004        182.0004
  -2064656.32048  -1590584.11846  24439439.896    24439440.7054   24439446.6544
       168.0004        168.0004
 21  2  4  0  8  0.0000000  0  8G01G17G08G09G04G30G21G27
 -14040872.01148 -10920504.49746  22074356.050    22074356.3964   22074365.2424
       178.0004        179.0004
  -2530744.76247  -1947043.69645  24044202.268    24044202.4824   24044210.7564
       153.0004        156.0004
 -15497974.89648 -12047724.20547  21444905.161    21444905.5634   21444912.9664
       194.0004        194.0004
 -17841705.35649 -13870166.46147  21031592.962    21031593.5484   21031600.6424
       209.0004        209.0004
 -12284501.62648  -9536081.73246  22152017.046    22152017.1474   22152024.2094
       183.0004        182.0004
  -4033354.52047  -3109555.79445  23737360.311    23737359.5724   23737368.2124
       159.0004        161.0004
 -13618514.41948 -10599314.89846  21774135.602    21774135.2614   21774140.2604
       182.0004        183.0004
  -1956061.52748  -1505964.83446  24460106.158    24460105.7744   24460111.5664
       167.0004        168.0004
 21  2  4  0  8 30.0000000  0  8G01G17G08G09G04G30G21G27
 -14112833.13048 -10976578.03946  22060661.953    22060662.2374   22060671.6534
       179.0004        179.0004
  -2625930.00147  -2021213.61345  24026089.293    24026089.5374   24026096.2304
       152.0004        154.0004
 -15419363.68548 -11986468.71847  21459864.863    21459865.1464   21459872.1064
       194.0004        194.0004
 -17803483.22549 -13840382.98647  21038866.012    21038866.9374   21038874.2434
       208.0004        209.0004
 -12194240.07948  -9465748.03846  22169193.310    22169193.6144   22169200.3704
       182.0004        180.0004
  -4120518.44247  -3177475.72145  23720772.937    23720772.6374   23720780.7054
       158.0004        159.0004
 -13629734.92248 -10608058.11846  21771999.680    21771999.2184   21772005.6094
       183.0004        183.0004
  -1847452.22648  -1421334.18746  24480772.158    24480773.1524   24480779.4154
       168.0004        169.0004
 21  2  4  0  9  0.0000000  0  8G01G17G08G09G04G30G21G27
 -14184598.66448 -11032499.20946  22047004.793    22047006.0444   22047013.8884
       179.0004        178.0004
  -2720873.69647  -2095195.31645  24008021.531    24008021.6054   24008027.8424
       150.0004        151.0004
 -15340452.33348 -11924979.36047  21474882.700    21474882.3684   21474888.1124
       194.0004        193.0004
 -17764786.44849 -13810229.67147  21046230.620    21046230.8984   21046238.2104
       209.0004        209.0004
 -12103761.57748  -9395245.30146  22186410.097    22186411.1564   22186417.6724
       181.0004        181.0004
  -4207737.33247  -3245438.46245  23704175.667    23704176.6234   23704183.7284
       157.0004        158.0004
 -13640516.34748 -10616459.20746  21769946.918    21769947.3754   21769953.5244
       182.0004        182.0004
  -1738830.43848  -1336693.87446  24501442.324    24501442.0994   24501449.9664
       167.0004        167.0004
 21  2  4  0  9 30.0000000  0  8G01G17G08G09G04G30G21G27
 -14256164.68348 -11088264.90946  22033386.606    22033387.2614   22033394.5884
       178.0004        179.0004
  -2815573.16547  -2168986.78845  23990001.066    23990000.8554   23990006.6254
       150.0004        153.0004
 -15261243.21048 -11863257.95447  21489954.734    21489954.8044   21489961.2714
       193.0004        193.0004
 -17725616.49349 -13779707.63347  21053684.451    21053685.0814   21053692.0794
       209.0004        210.0004
 -12013068.52548  -9324575.38346  22203668.539    22203669.0454   22203674.9644
       181.0004        180.0004
  -4295008.86547  -3313442.21245  23687568.940    23687568.2574   23687576.4484
       156.0004        158.0004
 -13650855.75648 -10624515.86646  21767980.353    21767979.8494   21767985.7974
       182.0004        183.0004
  -1630198.15748  -1252045.37346  24522113.746    24522114.7174   24522121.3864
       165.0004        166.0004
 21  2  4  0 10  0.0000000  0  8G01G17G08G09G04G30G21G27
 -14327528.50248 -11143873.01346  22019806.202    22019807.3404   22019815.6494
       179.0004        180.0004
  -2910027.00447  -2242586.84945  23972026.607    23972026.8494   23972033.0994
       152.0004        155.0004
 -15181740.00848 -11801307.39747  21505082.516    21505083.0574   21505089.7914
       192.0004        192.0004
 -17685976.08049 -13748819.00647  21061228.283    21061228.3014   21061235.9504
       209.0004        210.0004
 -11922164.54248  -9253741.08846  22220967.759    22220968.3864   22220973.6374
       180.0004        180.0004
  -4382331.91447  -3381486.14445  23670952.354    23670952.1434   23670958.3074
       157.0004        158.0004
 -13660752.58348 -10632227.65546  21766097.615    21766096.5364   21766101.7454
       182.0004        182.0004
  -1521558.45048  -1167391.01646  24542785.098    24542787.5794   24542796.0144
       167.0004        169.0004
 21  2  4  0 10 30.0000000  0  8G01G17G08G09G04G30G21G27
 -14398687.00348 -11199321.15046  22006264.206    22006265.7444   22006274.2674
       178.0004        179.0004
  -3004232.98847  -2315993.79545  23954098.783    23954099.2844   23954105.6864
       152.0004        154.0004
 -15101945.77748 -11739130.07347  21520266.938    21520267.7124   21520274.2574
       192.0004        192.0004
 -17645867.52149 -13717565.57547  21068860.145    21068860.4304   21068868.1404
       209.0004        210.0004
 -11831052.77148  -9182744.87946  22238305.076    22238306.0494   22238312.4334
       181.0004        180.0004
  -4469704.95347  -3449569.01845  23654325.343    23654325.5874   23654332.5674
       157.0004        160.0004
 -13670205.59348 -10639593.60846  21764299.098    21764297.9194   21764302.6544
       182.0004        182.0004
  -1412913.93648  -1082733.01146  24563459.604    24563461.5024   24563469.8474
       165.0004        166.0004
 21  2  4  0 11  0.0000000  0  7G01G17G08G09G04G30G21
 -14469636.20048 -11254606.20446  21992763.655    21992765.1464   21992773.2534
       179.0004        180.0004
  -3098188.38347  -2389205.46545  23936219.172    23936219.2544   23936226.7194
       152.0004        155.0004
 -15021863.00648 -11676727.90047  21535506.550    21535506.9294   21535513.8904
       192.0004        192.0004
 -17605292.32749 -13685948.54447  21076581.314    21076581.6434   21076588.7724
       209.0004        209.0004
 -11739735.52248  -9111588.56846  22255682.872    22255682.9064   22255689.8924
       180.0004        180.0004
  -4557125.52447  -3517688.93045  23637688.965    23637689.4974   23637697.0014
       159.0004        162.0004
 -13679212.76848 -10646612.16646  21762584.755    21762584.1494   21762587.8074
       183.0004        183.0004
 21  2  4  0 11 30.0000000  0  7G01G17G08G09G04G30G21
 -14540374.71948 -11309727.10146  21979303.909    21979303.9774   21979310.9204
       179.0004        180.0004
  -3191893.17747  -2462221.86145  23918387.376    23918388.8424   23918395.2064
       154.0004        157.0004
 -14941495.69448 -11614104.01947  21550800.630    21550800.7144   21550807.2804
       192.0004        193.0004
 -17564254.55749 -13653971.05447  21084390.284    21084390.7454   21084398.1894
       209.0004        209.0004
 -11648217.76548  -9040276.01346  22273098.149    22273098.3154   22273104.5954
       180.0004        179.0004
  -4644593.81647  -3585846.00445  23621044.490    23621044.5284   23621051.5454
       159.0004        161.0004
 -13687774.13148 -10653283.33746  21760955.126    21760955.0834   21760958.3494
       182.0004        182.0004
 21  2  4  0 12  0.0000000  0  7G01G17G08G09G04G30G21
 -14610897.21648 -11364679.68046  21965883.854    21965884.1404   21965891.6764
       179.0004        180.0004
  -3285342.87947  -2535039.53945  23900605.507    23900605.2854   23900612.4194
       155.0004        158.0004
 -14860845.58248 -11551259.76547  21566147.604    21566147.9434   21566154.0484
       192.0004        192.0004
 -17522754.43349 -13621633.30047  21092287.916    21092288.4304   21092295.5814
       209.0004        210.0004
 -11556500.49148  -8968807.99746  22290550.508    22290551.4394   22290557.0234
       178.0004        177.0004
  -4732106.08747  -3654037.33545  23604390.957    23604392.0394   23604399.4604
       158.0004        161.0004
 -13695886.01248 -10659604.26046  21759410.503    21759410.7404   21759416.1794
       183.0004        183.0004
 21  2  4  0 12 30.0000000  0  7G01G17G08G09G04G30G21
 -14681200.73048 -11419461.61146  21952504.786    21952505.7754   21952513.1044
       179.0004        179.0004
  -3378535.84547  -2607657.16645  23882870.803    23882870.8104   23882877.8694
       155.0004        158.0004
 -14779915.99649 -11488197.74347  21581548.170    21581548.0544   21581554.4894
       206.0004        209.0004
 -17480794.49249 -13588937.25947  21100273.321    21100273.3954   21100280.4624
       209.0004        210.0004
 -11464587.03748  -8897187.10146  22308042.219    22308041.9124   22308047.6174
       176.0004        176.0004
  -4819660.75647  -3722261.71646  23587731.361    23587731.2344   23587738.9094
       160.0004        163.0004
 -13703547.82248 -10665574.47446  21757952.626    21757952.7324   21757957.5764
       182.0004        183.0004
 21  2  4  0 13  0.0000000  0  7G01G17G08G09G04G30G21
 -14751282.36748 -11474070.65246  21939168.982    21939169.5944   21939177.2104
       180.0004        180.0004
  -3471470.47647  -2680073.50345  23865186.087    23865186.4274   23865192.8104
       156.0004        159.0004
 -14698710.12749 -11424920.43547  21597000.994    21597001.0654   21597007.5914
       210.0004        208.0004
 -17438377.40949 -13555884.99047  21108343.827    21108344.3124   21108351.9824
       209.0004        209.0004
 -11372480.89048  -8825416.08246  22325568.772    22325569.2274   22325575.5834
       177.0004        177.0004
  -4907256.61247  -3790518.22345  23571062.279    23571062.2704   23571068.9234
       161.0004        162.0004
 -13710758.58048 -10671193.22646  21756581.354    21756580.8804   21756586.0484
       183.0004        184.0004
 21  2  4  0 13 30.0000000  0  7G01G17G08G09G04G30G21
 -14821139.59848 -11528504.82746  21925875.645    21925875.4594   21925884.3934
       180.0004        180.0004
  -3564144.78247  -2752286.98445  23847550.079    23847549.8444   23847556.5854
       156.0004        158.0004
 -14617231.53549 -11361430.60848  21612505.718    21612505.9954   21612512.7484
       219.0004        223.0004
 -17395506.20249 -13522478.86947  21116501.992    21116502.6064   21116510.2834
       208.0004        209.0004
 -11280185.84148  -8753497.89946  22343130.689    22343131.6984   22343138.5424
       177.0004        177.0004
  -4994892.57647  -3858805.96446  23554385.420    23554385.5274   23554392.3234
       162.0004        165.0004
 -13717517.65448 -10676460.01246  21755295.067    21755294.9614   21755299.8704
       184.0004        185.0004
 21  2  4  0 14  0.0000000  0  7G01G17G08G09G04G30G21
 -14890768.58448 -11582761.16446  21912625.079    21912625.3864   21912633.3884
       179.0004        180.0004
  -3656557.03447  -2824296.30645  23829962.682    23829963.6144   23829972.1354
       155.0004        157.0004
 -14535482.88649 -11297730.35548  21628062.048    21628062.3834   21628068.9684
       223.0004        224.0004
 -17352182.55749 -13488720.19847  21124747.651    21124747.4114   21124754.1414
       209.0004        208.0004
 -11187704.24948  -8681434.35946  22360728.466    22360730.0624   22360737.7924
       177.0004        177.0004
  -5082566.27847  -3927123.13446  23537701.236    23537701.5854   23537708.6444
       163.0004        166.0004
 -13723822.72848 -10681373.04146  21754095.534    21754094.7664   21754100.1764
       184.0004        184.0004
 21  2  4  0 14 30.0000000  0  7G01G17G08G09G04G30G21
 -14960163.43748 -11636835.04846  21899419.280    21899420.7484   21899428.7684
       180.0004        181.0004
  -3748702.37747  -2896097.66145  23812429.895    23812429.8134   23812436.8034
       155.0004        158.0004
 -14453464.23849 -11233819.71748  21643669.694    21643669.8334   21643676.9744
       225.0004        224.0004
 -17308406.17949 -13454608.73847  21133076.725    21133077.5154   21133084.5834
       208.0004        208.0004
 -11095036.52548  -8609225.77846  22378363.485    22378364.0744   22378371.4844
       175.0004        174.0004
  -5170273.32247  -3995466.25646  23521010.160    23521010.1654   23521018.9424
       164.0004        165.0004
 -13729669.88748 -10685929.23946  21752981.434    21752981.9814   21752987.2344
       184.0004        183.0004
 21  2  4  0 15  0.0000000  0  7G01G17G08G09G04G30G21
 -15029323.24848 -11690725.78146  21886259.589    21886259.7864   21886268.3984
       181.0004        182.0004
  -3840581.06447  -2967691.26445  23794945.137    23794945.6524   23794953.1154
       155.0004        157.0004
 -14371180.88149 -11169702.79448  21659326.931    21659327.2974   21659334.7654
       224.0004        222.0004
 -17264181.80849 -13420148.17947  21141493.032    21141493.4494   21141500.2794
       209.0004        209.0004
 -11002188.11748  -8536876.38946  22396033.353    22396033.6894   22396040.5094
       175.0004        176.0004
  -5258014.34847  -4063835.83146  23504313.958    23504314.4444   23504322.1424
       164.0004        166.0004
 -13735060.48348 -10690129.68646  21751955.918    21751955.7584   21751961.0804
       183.0004        183.0004
 21  2  4  0 15 30.0000000  0  8G01G17G08G09G14G04G30G21
 -15098244.88648 -11744430.92646  21873143.225    21873144.0264   21873152.6954
       181.0004        181.0004
  -3932190.95647  -3039075.41645  23777510.973    23777512.9644   23777520.1974
       153.0004        154.0004
 -14288636.52749 -11105382.50848  21675034.346    21675034.8954   21675042.4844
       223.0004        222.0004
 -17219511.86849 -13385340.41547  21149992.795    21149993.0114   21150000.8214
       209.0004        209.0004
   -866197.75757   -664917.15945  23570419.487    23570420.1345   23570426.1414
       152.0004        157.0004
 -10909162.16448  -8464388.64246  22413735.898    22413735.6984   22413741.9954
       176.0004        176.0004
  -5345787.53747  -4132230.50846  23487612.561    23487613.0454   23487619.3584
       164.0004        166.0004
 -13739993.42048 -10693973.52546  21751016.919    21751017.7874   21751022.3704
       183.0004        184.0004
 21  2  4  0 16  0.0000000  0  8G01G17G08G09G14G04G30G21
 -15166925.38348 -11797948.17246  21860073.916    21860075.1234   21860083.5504
       181.0004        182.0004
  -4023530.56647  -3110248.93845  23760130.479    23760130.0654   23760137.7114
       150.0004        153.0004
 -14205833.84249 -11040860.92048  21690791.437    21690791.9864   21690799.3154
       223.0004        223.0004
 -17174399.03549 -13350187.55247  21158577.891    21158578.1734   21158585.2184
       209.0004        209.0004
   -893110.94447   -685888.43445  23565298.756    23565297.9274   23565302.6314
       154.0004        156.0004
 -10815961.97048  -8391765.12746  22431470.502    22431471.1214   22431477.6024
       176.0004        175.0004
  -5433591.41548  -4200649.11246  23470904.151    23470903.8124   23470910.5364
       165.0004        167.0004
 -13744467.59648 -10697459.86746  21750167.234    21750165.9324   21750170.6034
       183.0004        184.0004
 21  2  4  0 16 30.0000000  0  8G01G17G08G09G14G04G30G21
 -15235362.17648 -11851275.52946  21847050.914    21847052.0064   21847059.7574
       181.0004        182.0004
  -4114598.73947  -3181210.98445  23742800.950    23742801.2604   23742808.1164
       154.0004        158.0004
 -14122776.94249 -10976141.25848  21706597.648    21706597.9304   21706604.3034
       223.0004        223.0004
 -17128846.41049 -13314692.00547  21167246.637    21167246.9904   21167253.8054
       209.0004        210.0004
   -919977.15047   -706823.09545  23560183.757    23560184.5754   23560189.5794
       153.0004        154.0004
 -10722591.37148  -8319008.82446  22449238.802    22449239.6384   22449245.5524
       175.0004        176.0004
  -5521424.88848  -4269090.76746  23454189.335    23454189.2714   23454196.4024
       165.0004        166.0004
 -13748482.44848 -10700588.30646  21749401.877    21749401.5304   21749406.3794
       183.0004        183.0004
 21  2  4  0 17  0.0000000  0  8G01G17G08G09G14G04G30G21
 -15303550.29248 -11904409.11746  21834075.575    21834076.0094   21834084.1664
       182.0004        182.0004
  -4205391.49347  -3251958.43145  23725524.947    23725524.3204   23725529.8364
       155.0004        158.0004
 -14039466.83649 -10911224.29148  21722451.514    21722451.4484   21722457.2584
       223.0004        222.0004
 -17082854.73849 -13278854.34147  21175998.122    21175998.3054   21176005.7274
       209.0004        209.0004
   -946795.94147   -727720.82245  23555081.178    23555081.5994   23555086.7974
       155.0004        158.0004
 -10629051.68448  -8246120.79346  22467039.610    22467039.9894   22467045.2874
       176.0004        176.0004
  -5609284.41647  -4337552.73646  23437469.471    23437469.3684   23437476.9504
       163.0004        163.0004
 -13752034.98948 -10703356.52146  21748726.321    21748725.5194   21748729.7554
       183.0004        183.0004
 21  2  4  0 17 30.0000000  0  8G01G17G08G09G14G04G30G21
 -15371487.62648 -11957347.26246  21821147.279    21821147.6954   21821156.2514
       182.0004        183.0004
  -4295908.02247  -3322490.62845  23708299.088    23708299.1794   23708305.1144
       156.0004        158.0004
 -13955907.65149 -10846113.20848  21738350.754    21738351.0984   21738358.0864
       222.0004        220.0004
 -17036427.50649 -13242677.26547  21184832.805    21184833.4694   21184840.3884
       209.0004        209.0004
   -973569.77547   -748583.49845  23549986.032    23549986.6464   23549992.0484
       156.0004        159.0004
 -10535346.97148  -8173104.15346  22484869.925    22484870.0514   22484876.8074
       176.0004        176.0004
  -5697169.26647  -4406034.42646  23420744.402    23420745.1504   23420753.5084
       162.0004        164.0004
 -13755125.28248 -10705764.51846  21748137.861    21748137.7064   21748141.8024
       183.0004        183.0004
 21  2  4  0 18  0.0000000  0  8G01G17G08G09G14G04G30G21
 -15439169.38648 -12010086.28946  21808267.903    21808268.1124   21808276.8214
       182.0004        185.0004
  -4386144.88247  -3392804.90445  23691127.203    23691127.4904   23691134.6594
       158.0004        161.0004
 -13872100.93449 -10780809.27648  21754298.450    21754298.7544   21754306.4864
       221.0004        220.0004
 -16989565.69349 -13206161.58747  21193750.429    21193751.2154   21193757.8324
       208.0004        208.0004
  -1000298.38347   -769410.96345  23544901.470    23544900.1774   23544905.6634
       155.0004        155.0004
 -10441478.79848  -8099960.13146  22502732.171    22502732.5364   22502740.2564
       175.0004        176.0004
  -5785076.07247  -4474533.22046  23404017.764    23404018.0504   23404025.5564
       163.0004        165.0004
 -13757750.50948 -10707810.15246  21747638.735    21747638.1074   21747643.7124
       184.0004        183.0004
 21  2  4  0 18 30.0000000  0  8G01G17G08G09G14G04G30G21
 -15506592.12048 -12062623.45746  21795437.137    21795438.1714   21795446.8334
       183.0004        184.0004
  -4476099.92947  -3462899.60945  23674011.013    23674010.9694   23674017.3764
       159.0004        161.0004
 -13788049.15749 -10715314.37548  21770293.876    21770293.7594   21770300.9404
       221.0004        221.0004
 -16942271.52149 -13169308.97847  21202750.894    21202750.8454   21202757.6694
       208.0004        209.0004
  -1026982.85347   -790204.01945  23539822.031    23539823.2244   23539828.3634
       155.0004        157.0004
 -10347449.97548  -8026690.89146  22520625.363    22520625.7034   22520633.3264
       176.0004        176.0004
  -5873002.76147  -4543047.48846  23387285.056    23387285.8974   23387293.6474
       163.0004        165.0004
 -13759909.24548 -10709492.24446  21747228.770    21747227.8454   21747233.2834
       185.0004        186.0004
 21  2  4  0 19  0.0000000  0  8G01G17G08G09G14G04G30G21
 -15573753.13648 -12114956.70546  21782657.512    21782657.8154   21782666.5134
       184.0004        184.0004
  -4565771.79347  -3532773.66545  23656946.690    23656946.3604   23656952.3434
       158.0004        160.0004
 -13703756.31449 -10649631.63248  21786334.526    21786334.7134   21786340.8454
       222.0004        221.0004
 -16894547.97749 -13132121.80647  21211831.921    21211832.4594   21211838.9984
       208.0004        208.0004
  -1053625.00647   -810964.09745  23534751.334    23534752.8234   23534758.8864
       158.0004        162.0004
 -10253264.07648  -7953299.25246  22538548.318    22538548.6934   22538555.9524
       176.0004        176.0004
  -5960947.94847  -4611576.22046  23370549.415    23370549.8584   23370557.0954
       162.0004        163.0004
 -13761600.91448 -10710810.40146  21746905.956    21746905.2134   21746911.7694
       186.0004        187.0004
 21  2  4  0 19 30.0000000  0  8G01G17G08G09G14G04G30G21
 -15640648.98548 -12167083.31346  21769927.399    21769928.6284   21769935.8664
       184.0004        184.0004
  -4655158.35447  -3602425.41745  23639935.874    23639936.7464   23639941.0024
       157.0004        159.0004
 -13619224.74749 -10583762.86548  21802420.970    21802420.7254   21802426.5164
       221.0004        220.0004
 -16846397.35549 -13094601.83747  21220994.784    21220994.7334   21221001.5864
       207.0004        207.0004
  -1080225.95647   -831692.07446  23529690.393    23529690.9394   23529696.2914
       163.0004        165.0004
 -10158923.99848  -7879787.47946  22556501.658    22556501.8504   22556507.4064
       176.0004        176.0004
  -6048909.62947  -4680117.78546  23353811.876    23353813.0064   23353819.6614
       162.0004        165.0004
 -13762824.27948 -10711763.65446  21746673.699    21746672.9764   21746679.0004
       187.0004        187.0004
 21  2  4  0 20  0.0000000  0  8G01G17G08G09G14G04G30G21
 -15707276.74248 -12219001.04146  21757248.059    21757249.0354   21757257.2944
       183.0004        184.0004
  -4744257.80247  -3671853.41745  23622978.869    23622980.7314   23622986.2824
       157.0004        159.0004
 -13534457.79049 -10517710.68748  21818550.514    21818550.6934   21818557.3154
       221.0004        219.0004
 -16797822.45849 -13056751.27847  21230238.326    21230238.3954   21230245.6034
       208.0004        208.0004
  -1106787.25048   -852389.15446  23524635.628    23524637.3164   23524642.0834
       166.0004        168.0004
 -10064433.11048  -7806158.20946  22574481.381    22574481.8824   22574488.5164
       176.0004        176.0004
  -6136886.14347  -4748670.88746  23337070.976    23337070.9664   23337078.3934
       164.0004        167.0004
 -13763578.76348 -10712351.54447  21746529.539    21746528.8304   21746535.6254
       187.0004        188.0004
 21  2  4  0 20 30.0000000  0  8G01G17G08G09G14G04G30G21
 -15773632.78248 -12270707.02346  21744623.054    21744623.1484   21744630.5894
       184.0004        186.0004
  -4833067.92547  -3741055.95645  23606079.731    23606079.7814   23606085.7464
       157.0004        158.0004
 -13449458.28549 -10451477.30348  21834725.220    21834725.2244   21834732.5324
       220.0004        219.0004
 -16748825.51449 -13018571.82447  21239561.478    21239562.0344   21239569.4934
       208.0004        208.0004
  -1133309.88248   -873056.10346  23519589.081    23519589.4784   23519594.6324
       166.0004        167.0004
  -9969794.07848  -7732413.52346  22592490.669    22592491.1494   22592497.8494
       176.0004        176.0004
  -6224875.19448  -4817233.75346  23320326.517    23320326.1704   23320334.6914
       165.0004        166.0004
 -13763862.80948 -10712572.84847  21746475.812    21746475.5914   21746482.5024
       188.0004        188.0004
 21  2  4  0 21  0.0000000  0  8G01G17G08G09G14G04G30G21
 -15839714.35048 -12322199.12946  21732046.523    21732047.1044   21732055.5174
       184.0004        185.0004
  -4921587.47847  -3810032.11045  23589235.501    23589235.0034   23589240.0564
       155.0004        156.0004
 -13364229.61049 -10385065.33548  21850943.775    21850943.9954   21850951.2094
       220.0004        219.0004
 -16699409.41249 -12980065.77147  21248965.362    21248965.6694   21248972.7324
       207.0004        207.0004
  -1159795.56348   -893694.27346  23514548.914    23514549.4894   23514555.3144
       165.0004        166.0004
  -9875010.29748  -7658556.01346  22610527.724    22610528.1724   22610534.9944
       175.0004        175.0004
  -6312875.48747  -4885805.38646  23303579.348    23303580.5254   23303588.7674
       164.0004        166.0004
 -13763675.66948 -10712426.99147  21746510.179    21746510.4124   21746517.7184
       188.0004        188.0004
 21  2  4  0 21 30.0000000  0  8G01G17G08G09G14G04G30G21
 -15905517.64648 -12373474.39046  21719522.435    21719524.3084   21719533.9064
       184.0004        184.0004
  -5009813.79247  -3878779.75445  23572444.862    23572445.5904   23572452.1044
       154.0004        156.0004
 -13278774.46349 -10318476.90748  21867205.672    21867205.8824   21867212.6684
       220.0004        219.0004
 -16649576.16549 -12941234.66747  21258448.118    21258448.3954   21258455.4704
       206.0004        207.0004
  -1186245.02647   -914304.20046  23509515.620    23509515.9404   23509521.5034
       163.0004        163.0004
  -9780084.24648  -7584587.65346  22628591.529    22628591.8594   22628599.2884
       174.0004        174.0004
  -6400884.37348  -4954383.70346  23286832.270    23286832.4384   23286840.9254
       165.0004        166.0004
 -13763016.07448 -10711912.99247  21746636.168    21746635.8704   21746643.5854
       188.0004        188.0004
 21  2  4  0 22  0.0000000  0  8G01G17G08G09G14G04G30G21
 -15971038.95948 -12424529.94046  21707056.480    21707056.7504   21707064.5894
       184.0004        185.0004
  -5097744.64647  -3947297.19145  23555714.127    23555714.9374   23555717.8244
       157.0004        161.0004
 -13193094.67649 -10251713.42648  21883510.336    21883510.2394   21883516.7384
       220.0004        219.0004
 -16599327.89549 -12902080.16047  21268010.091    21268010.2004   21268018.1644
       207.0004        207.0004
  -1212659.05947   -934886.53546  23504489.878    23504490.2454   23504495.7304
       164.0004        166.0004
  -9685018.57948  -7510510.51546  22646682.079    22646682.5474   22646689.0544
       173.0004        173.0004
  -6488899.56847  -5022966.94546  23270084.590    23270084.5234   23270092.0814
       164.0004        166.0004
 -13761882.38448 -10711029.56346  21746852.266    21746851.7194   21746857.8054
       187.0004        187.0004
 21  2  4  0 22 30.0000000  0  8G01G17G08G09G14G04G30G21
 -16036276.89148 -12475364.67446  21694642.770    21694643.1694   21694651.1964
       185.0004        186.0004
  -5185380.05547  -4015584.41845  23539037.030    23539037.5584   23539042.9324
       158.0004        160.0004
 -13107195.64849 -10184779.10748  21899855.673    21899856.1244   21899862.8544
       219.0004        218.0004
 -16548668.93749 -12862605.65447  21277650.069    21277650.9704   21277658.2694
       207.0004        207.0004
  -1239040.69448   -955443.62046  23499468.386    23499469.7144   23499475.3374
       165.0004        166.0004
  -9589818.06948  -7436328.30946  22664798.592    22664799.3734   22664805.4764
       174.0004        174.0004
  -6576920.80048  -5091554.91446  23253333.767    23253334.7614   23253342.3864
       166.0004        169.0004
 -13760275.35748 -10709777.32746  21747158.646    21747157.3614   21747163.6354
       186.0004        186.0004
 21  2  4  0 23  0.0000000  0  8G01G17G08G09G14G04G30G21
 -16101227.14448 -12525975.23046  21682283.059    21682283.1664   21682291.1224
       186.0004        186.0004
  -5272716.79347  -4083638.88645  23522418.178    23522418.2234   23522423.0644
       159.0004        162.0004
 -13021078.48749 -10117674.82148  21916242.937    21916243.5704   21916249.9584
       218.0004        217.0004
 -16497600.83749 -12822812.32447  21287368.021    21287368.4754   21287375.8314
       206.0004        206.0004
  -1265390.18748   -975975.65946  23494455.061    23494455.9194   23494461.0184
       165.0004        166.0004
  -9494484.67348  -7362042.58746  22682939.776    22682940.4894   22682946.7064
       173.0004        174.0004
  -6664945.06648  -5160145.20346  23236583.209    23236583.7224   23236592.1534
       168.0004        169.0004
 -13758192.86348 -10708154.58346  21747554.393    21747553.8454   21747559.6494
       185.0004        185.0004
 21  2  4  0 23 30.0000000  0  8G01G17G08G09G14G04G30G21
 -16165886.33048 -12576358.97546  21669977.441    21669978.5974   21669986.5454
       185.0004        186.0004
  -5359753.15647  -4151459.32245  23505855.479    23505854.9294   23505859.4454
       158.0004        158.0004
 -12934746.79249 -10050403.35648  21932672.207    21932672.0654   21932678.3414
       218.0004        218.0004
 -16446126.02349 -12782702.07347  21297162.827    21297163.3644   21297170.5074
       205.0004        205.0004
  -1291708.63348   -996483.49046  23489446.359    23489447.5504   23489451.9854
       165.0004        166.0004
  -9399021.17448  -7287655.44946  22701105.905    22701106.5884   22701111.6344
       172.0004        173.0004
  -6752970.30548  -5228736.27846  23219832.861    23219833.1794   23219840.5684
       166.0004        166.0004
 -13755633.84348 -10706160.51746  21748041.036    21748040.4784   21748045.7224
       184.0004        184.0004
 21  2  4  0 24  0.0000000  0  8G01G17G08G09G14G04G30G21
 -16230251.55548 -12626513.65746  21657729.450    21657729.9904   21657738.4984
       185.0004        185.0004
  -5446487.48547  -4219044.40145  23489348.195    23489349.1234   23489356.3254
       156.0004        157.0004
 -12848203.28649  -9982966.84748  21949140.883    21949141.0404   21949147.2124
       218.0004        217.0004
 -16394247.35349 -12742277.12547  21307035.185    21307035.8074   21307043.1194
       205.0004        205.0004
  -1317997.52848  -1016968.31246  23484444.631    23484444.6834   23484450.0254
       165.0004        167.0004
  -9303430.87848  -7213169.49246  22719296.922    22719296.8624   22719302.7064
       170.0004        170.0004
  -6840994.71648  -5297326.71946  23203082.666    23203083.3644   23203090.5904
       167.0004        169.0004
 -13752597.92248 -10703794.83646  21748618.804    21748618.8344   21748623.2414
       184.0004        184.0004
 21  2  4  0 24 30.0000000  0  8G01G17G08G09G14G04G30G21
 -16294318.33948 -12676435.80746  21645538.439    21645538.7664   21645547.1064
       185.0004        186.0004
  -5532916.82347  -4286391.81245  23472902.390    23472903.1474   23472909.0354
       158.0004        162.0004
 -12761449.83249  -9915366.73748  21965648.656    21965649.2294   21965656.3844
       218.0004        217.0004
 -16341966.24449 -12701538.59547  21316984.042    21316984.6264   21316992.0354
       205.0004        206.0004
  -1344256.89348  -1037430.12946  23479446.186    23479447.4044   23479453.0914
       165.0004        165.0004
  -9207715.55948  -7138586.10646  22737510.552    22737510.7284   22737516.4364
       170.0004        171.0004
  -6929015.09848  -5365913.97846  23186333.011    23186333.3544   23186340.8574
       169.0004        171.0004
 -13749082.97448 -10701055.90946  21749287.413    21749287.2704   21749291.2634
       183.0004        182.0004
 21  2  4  0 25  0.0000000  0  8G01G17G08G09G14G04G30G21
 -16358084.18848 -12726123.47646  21633403.553    21633404.6934   21633412.2834
       185.0004        185.0004
  -5619039.85347  -4353500.54845  23456512.844    23456512.7244   23456519.7784
       157.0004        157.0004
 -12674490.05449  -9847605.86948  21982196.748    21982196.8904   21982204.6214
       217.0004        217.0004
 -16289286.03449 -12660489.09247  21327008.618    21327009.2454   21327016.9784
       205.0004        206.0004
  -1370488.78147  -1057870.52346  23474453.997    23474455.0324   23474460.7044
       163.0004        163.0004
  -9111878.96548  -7063908.24846  22755746.832    22755747.1454   22755753.6034
       170.0004        171.0004
  -7017030.18848  -5434497.16146  23169585.894    23169585.2444   23169591.3344
       170.0004        171.0004
 -13745088.64548 -10697943.43246  21750047.824    21750047.9234   21750051.8214
       182.0004        183.0004
 21  2  4  0 25 30.0000000  0  8G01G17G08G09G14G04G30G21
 -16421545.90748 -12775574.13846  21621326.028    21621327.8024   21621336.3944
       185.0004        186.0004
  -5704854.79447  -4420369.20645  23440183.940    23440184.2944   23440189.4724
       157.0004        160.0004
 -12587326.78249  -9779686.44048  21998783.551    21998783.7554   21998790.7414
       217.0004        217.0004
 -16236209.38449 -12619130.66047  21337108.735    21337109.6104   21337117.5474
       206.0004        206.0004
  -1396694.31747  -1078290.41846  23469469.169    23469469.1604   23469475.0444
       163.0004        164.0004
  -9015924.08848  -6989138.20046  22774007.614    22774007.0194   22774013.5294
       170.0004        170.0004
  -7105037.93648  -5503074.60946  23152837.221    23152837.3054   23152845.0424
       171.0004        172.0004
 -13740614.02648 -10694456.69646  21750900.339    21750899.4244   21750903.0094
       183.0004        183.0004
 21  2  4  0 26  0.0000000  0  8G01G17G08G09G14G04G30G21
 -16484700.78348 -12824785.72846  21609309.989    21609310.1644   21609318.2884
       186.0004        186.0004
  -5790360.35247  -4486996.78945  23423912.429    23423912.8694   23423917.4404
       159.0004        162.0004
 -12499963.77949  -9711611.36948  22015407.014    22015408.2264   22015415.0454
       217.0004        217.0004
 -16182739.46349 -12577465.78147  21347284.297    21347284.8184   21347292.1634
       206.0004        206.0004
  -1422875.35147  -1098691.19046  23464486.290    23464486.7494   23464491.5524
       163.0004        164.0004
  -8919854.38648  -6914278.68146  22792286.659    22792288.0364   22792295.4794
       169.0004        168.0004
  -7193036.85248  -5571645.15946  23136090.190    23136091.0584   23136099.0354
       171.0004        171.0004
 -13735659.27248 -10690595.82446  21751842.079    21751841.9954   21751845.6664
       182.0004        182.0004
 21  2  4  0 26 30.0000000  0  8G01G17G08G09G14G04G30G21
 -16547544.53548 -12873754.86246  21597351.015    21597351.8354   21597359.6574
       186.0004        187.0004
  -5875553.80947  -4553381.22745  23407700.724    23407701.1324   23407704.7524
       159.0004        160.0004
 -12412403.03749  -9643382.21048  22032070.797    22032070.5424   22032077.1294
       217.0004        216.0004
 -16128877.74449 -12535495.60447  21357533.456    21357534.0744   21357540.9524
       205.0004        205.0004
  -1449031.90747  -1119072.88946  23459509.652    23459509.3034   23459515.0604
       163.0004        165.0004
  -8823671.75548  -6839331.18446  22810590.050    22810589.6074   22810598.2504
       167.0004        167.0004
  -7281023.72548  -5640206.33546  23119347.632    23119349.0224   23119355.1574
       170.0004        172.0004
 -13730221.77748 -10686358.79646  21752875.537    21752876.0284   21752879.7834
       182.0004        182.0004
 21  2  4  0 27  0.0000000  0  8G01G17G08G09G14G04G30G21
 -16610073.51748 -12922478.72047  21585452.344    21585453.1504   21585460.8254
       187.0004        189.0004
  -5960432.89747  -4619520.66346  23391549.462    23391549.5594   23391554.6774
       161.0004        165.0004
 -12324646.23249  -9575000.26848  22048769.385    22048770.0694   22048776.5244
       217.0004        216.0004
 -16074626.56649 -12493221.95347  21367857.581    21367857.6934   21367864.8354
       205.0004        205.0004
  -1475164.85047  -1139436.20146  23454535.943    23454536.1684   23454542.3764
       162.0004        163.0004
  -8727378.82248  -6764297.74346  22828914.674    22828914.6974   22828922.0254
       166.0004        167.0004
  -7368996.12648  -5708756.22346  23102607.299    23102607.3904   23102614.8594
       171.0004        171.0004
 -13724300.75748 -10681744.98746  21754003.239    21754003.6774   21754006.6884
       182.0004        182.0004
 21  2  4  0 27 30.0000000  0  8G01G17G08G09G14G04G30G21
 -16672285.75848 -12970955.77447  21573614.339    21573614.7524   21573621.8624
       189.0004        189.0004
  -6044997.15947  -4685414.79646  23375454.726    23375455.9344   23375462.0614
       163.0004        164.0004
 -12236697.63549  -9506468.90148  22065505.144    22065505.7594   22065512.9694
       216.0004        214.0004
 -16019989.76949 -12450647.82347  21378254.737    21378254.7694   21378262.2354
       204.0004        204.0004
  -1501276.62047  -1159783.03845  23449565.989    23449566.7784   23449572.7754
       161.0004        162.0004
  -8630979.75048  -6689181.60246  22847258.768    22847260.2154   22847265.7714
       168.0004        169.0004
  -7456953.13848  -5777294.16146  23085869.108    23085869.9104   23085876.4414
       169.0004        169.0004
 -13717896.67448 -10676754.78746  21755222.835    21755221.7904   21755225.4814
       182.0004        183.0004
 21  2  4  0 28  0.0000000  0  8G01G17G08G09G14G04G30G21
 -16734176.78348 -13019182.52446  21561835.426    21561836.4914   21561844.1334
       187.0004        187.0004
  -6129243.20147  -4751060.97246  23359425.627    23359425.6524   23359430.7664
       162.0004        165.0004
 -12148559.36549  -9437789.71648  22082277.465    22082277.7804   22082285.2724
       215.0004        214.0004
 -15964968.84749 -12407774.37747  21388725.083    21388725.3554   21388731.9394
       204.0004        204.0004
  -1527367.15447  -1180113.28745  23444601.874    23444602.7054   23444608.1514
       159.0004        159.0004
  -8534476.15348  -6613983.99546  22865624.494    22865624.5064   22865630.7524
       168.0004        170.0004
  -7544891.47148  -5845817.54346  23069135.448    23069135.9854   23069143.3424
       169.0004        171.0004
 -13711007.12548 -10671386.28446  21756532.247    21756533.0084   21756537.4024
       183.0004        183.0004
 21  2  4  0 28 30.0000000  0  8G01G17G08G09G14G04G30G21
 -16795744.63748 -13067157.43146  21550119.360    21550120.1154   21550127.8034
       186.0004        187.0004
  -6213170.60247  -4816458.85046  23343454.159    23343454.1844   23343460.1704
       163.0004        165.0004
 -12060235.16949  -9368965.66148  22099086.213    22099085.9564   22099092.8574
       215.0004        215.0004
 -15909567.61949 -12364604.58947  21399267.560    21399267.6744   21399274.6894
       203.0004        204.0004
  -1553438.87647  -1200428.86045  23439640.102    23439641.4824   23439646.0814
       158.0004        161.0004
  -8437872.22648  -6538708.22746  22884006.331    22884007.4804   22884013.3984
       168.0004        169.0004
  -7632810.23048  -5914325.62746  23052405.734    23052405.1224   23052413.1044
       171.0004        174.0004
 -13703633.02348 -10665640.20546  21757936.151    21757936.2474   21757940.6654
       182.0004        182.0004
 21  2  4  0 29  0.0000000  0  8G01G17G08G09G14G04G30G21
 -16856985.92548 -13114877.88346  21538466.851    21538466.8614   21538474.2994
       187.0004        187.0004
  -6296777.80147  -4881607.22346  23327543.333    23327544.2104   23327549.7134
       164.0004        165.0004
 -11971727.59249  -9299998.69548  22115927.865    22115928.6014   22115935.5054
       215.0004        215.0004
 -15853788.67849 -12321140.48247  21409880.800    21409881.6664   21409888.9174
       203.0004        203.0004
  -1579492.73947  -1220730.55645  23434681.240    23434682.6744   23434687.6434
       158.0004        159.0004
  -8341170.76948  -6463356.47146  22902408.070    22902408.1794   22902415.1514
       169.0004        169.0004
  -7720707.11048  -5982816.67546  23035678.471    23035678.8444   23035686.9314
       171.0004        172.0004
 -13695773.33748 -10659515.74346  21759432.217    21759432.0224   21759436.5594
       183.0004        183.0004
 21  2  4  0 29 30.0000000  0  8G01G17G08G09G14G04G30G21
 -16917897.33248 -13162341.29547  21526875.674    21526876.0554   21526883.0594
       187.0004        188.0004
  -6380062.60247  -4946504.37146  23311694.659    23311695.6954   23311701.4154
       164.0004        166.0004
 -11883039.79749  -9230891.30948  22132805.336    22132804.9224   22132811.8754
       214.0004        213.0004
 -15797634.57749 -12277384.05247  21420567.655    21420567.5644   21420574.3374
       203.0004        203.0004
  -1605529.84647  -1241019.17145  23429727.906    23429729.1754   23429733.7174
       158.0004        160.0004
  -8244374.58548  -6387930.90246  22920827.067    22920828.1064   22920834.2554
       168.0004        168.0004
  -7808579.81348  -6051288.90946  23018958.296    23018957.8104   23018964.4534
       172.0004        173.0004
 -13687427.02748 -10653012.11546  21761020.202    21761019.8544   21761024.5964
       183.0004        184.0004
 21  2  4  0 30  0.0000000  0  8G01G17G08G09G14G04G30G21
 -16978475.56448 -13209545.08847  21515348.466    21515348.5364   21515355.7064
       188.0004        188.0004
  -6463023.05148  -5011148.80146  23295908.104    23295909.0624   23295915.6294
       165.0004        168.0004
 -11794174.77749  -9161645.85047  22149714.198    22149714.5594   22149721.9634
       213.0004        211.0004
 -15741107.87549 -12233337.29647  21431323.798    21431324.3004   21431331.5964
       203.0004        203.0004
  -1631551.25047  -1261295.54445  23424775.952    23424777.4074   23424782.7864
       160.0004        162.0004
  -8147486.43748  -6312433.70546  22939265.447    22939265.9344   22939272.3514
       168.0004        168.0004
  -7896426.08548  -6119740.56046  23002241.031    23002241.0904   23002248.1464
       172.0004        173.0004
 -13678593.36548 -10646128.72146  21762701.583    21762701.2704   21762706.5804
       184.0004        185.0004
 21  2  4  0 30 30.0000000  0  8G01G17G08G09G14G04G30G21
 -17038717.72348 -13256486.99146  21503882.691    21503883.4294   21503891.6074
       187.0004        187.0004
  -6545657.90448  -5075539.48046  23280183.738    23280183.8514   23280190.2424
       167.0004        168.0004
 -11705135.20249  -9092264.36147  22166657.354    22166657.8144   22166665.2004
       211.0004        211.0004
 -15684211.59149 -12189002.53847  21442150.419    21442151.2014   21442159.0404
       202.0004        203.0004
  -1657558.36547  -1281560.75945  23419826.455    23419827.4784   23419832.9654
       160.0004        162.0004
  -8050509.52848  -6236867.30546  22957718.362    22957719.6934   22957725.8084
       168.0004        169.0004
  -7984244.04248  -6188170.14046  22985529.892    22985530.0414   22985536.0904
       171.0004        171.0004
 -13669272.16548 -10638865.43346  21764475.712    21764475.4494   21764479.4994
       185.0004        185.0004
 21  2  4  0 31  0.0000000  0  8G01G17G08G09G14G04G30G21
 -17098620.65348 -13303164.55447  21492483.861    21492484.7484   21492494.1194
       188.0004        190.0004
  -6627965.60748  -5139675.29346  23264520.527    23264521.1944   23264528.0104
       167.0004        168.0004
 -11615923.72949  -9022748.91247  22183634.000    22183634.4494   22183641.7934
       211.0004        211.0004
 -15626948.44249 -12144381.90047  21453047.496    21453047.7454   21453055.4944
       202.0004        202.0004
  -1683552.39047  -1301815.80245  23414881.368    23414881.3594   23414886.3984
       160.0004        162.0004
  -7953446.79248  -6161234.04046  22976190.768    22976190.8774   22976195.6034
       168.0004        169.0004
  -8072031.55948  -6256575.97346  22968824.533    22968824.6724   22968832.6834
       172.0004        174.0004
 -13659462.83748 -10631221.77146  21766341.726    21766341.4554   21766346.1974
       185.0004        185.0004
 21  2  4  0 31 30.0000000  0  8G01G17G08G09G14G04G30G21
 -17158181.55848 -13349575.66047  21481153.010    21481153.0394   21481159.4564
       192.0004        194.0004
  -6709944.75148  -5203555.04946  23248918.931    23248920.2384   23248927.4414
       165.0004        166.0004
 -11526543.83049  -8953102.22747  22200642.230    22200642.5684   22200650.3734
