     2.11           OBSERVATION DATA    G (GPS)             RINEX VERSION / TYPE
teqc  2018Jun8                          20210202 03:10:39UTCPGM / RUN BY / DATE
Linux2.6.32-573.12.1.el6.x86_64|x86_64|gcc|Win64-MinGW64|=+ COMMENT
BIT 2 OF LLI FLAGS DATA COLLECTED UNDER A/S CONDITION       COMMENT
-Unknown-                                                   MARKER NAME
CRNO                                                        MARKER NUMBER
-Unknown-           -Unknown-                               OBSERVER / AGENCY
-Unknown-           ASHTECH             -Unknown-           REC # / TYPE / VERS
-Unknown-           -Unknown-                               ANT # / TYPE
   408079.1196 -6158372.1719  1605162.9386                  APPROX POSITION XYZ
        0.0000        0.0000        0.0000                  ANTENNA: DELTA H/E/N
     1     1                                                WAVELENGTH FACT L1/2
     7    L1    L2    C1    P1    P2    S1    S2            # / TYPES OF OBSERV
    30.0000                                                 INTERVAL
Forced Modulo Decimation to 30 seconds                      COMMENT
 SNR is mapped to RINEX snr flag value [1-9]                COMMENT
  L1: 1 -> 1;  90 -> 5; 210 -> 9                            COMMENT
  L2: 1 -> 1; 150 -> 5; 250 -> 9                            COMMENT
pseudorange smoothing corrections not applied               COMMENT
  2021     1    31     0     0   30.0000000     GPS         TIME OF FIRST OBS
                                                            END OF HEADER
 21  1 31  0  0 30.0000000  0  8G07G01G08G27G21G04G09G03
  -8479792.29548  -6374350.37546  23327911.921    23327912.1774   23327916.7974
       172.0004        174.0004
  -5902850.59447  -4588870.46445  23591496.386    23591496.4244   23591503.1354
       154.0004        157.0004
 -23400989.80249 -18203775.05247  20314487.393    20314487.7684   20314494.9604
       212.0004        212.0004
 -12853159.77649 -10001647.46647  22407706.540    22407707.3904   22407713.8804
       209.0004        208.0004
  -9889484.89748  -7689926.92546  22393236.394    22393236.0904   22393241.2784
       165.0004        165.0004
 -19693688.11349 -15318927.50447  20673652.059    20673652.6164   20673657.7954
       204.0004        203.0004
 -17823981.70449 -13862968.69147  20841886.276    20841886.5714   20841893.3184
       212.0004        212.0004
   2087707.16148   1650339.68546  24601247.269    24601246.9094   24601255.8554
       170.0004        171.0004
 21  1 31  0  1  0.0000000  0  8G07G01G08G27G21G04G09G03
  -8552628.44248  -6431105.78746  23314050.058    23314051.5384   23314056.5874
       172.0004        173.0004
  -5977844.48647  -4647307.22145  23577223.291    23577224.0024   23577232.1114
       155.0004        157.0004
 -23367897.00249 -18177988.44747  20320785.010    20320785.1564   20320792.2574
       212.0004        212.0004
 -12761376.18149  -9930127.79247  22425172.329    22425173.1804   22425179.8064
       208.0004        208.0004
  -9934566.45648  -7725055.39746  22384658.624    22384657.1934   22384662.6944
       165.0004        166.0004
 -19642593.47549 -15279113.51447  20683374.491    20683375.0894   20683380.6384
       204.0004        203.0004
 -17843693.34749 -13878328.41448  20838135.636    20838136.0064   20838142.5414
       212.0004        213.0004
   2137009.01248   1688756.65746  24610627.298    24610628.1774   24610637.5034
       171.0004        173.0004
 21  1 31  0  1 30.0000000  0  8G07G01G08G27G21G04G09G03
  -8625556.37048  -6487932.71046  23300172.592    23300173.4094   23300177.3994
       171.0004        172.0004
  -6052956.95447  -4705836.34345  23562930.394    23562931.4284   23562938.8534
       155.0004        158.0004
 -23334245.49049 -18151766.47747  20327188.012    20327188.3424   20327195.8934
       211.0004        212.0004
 -12669278.36149  -9858363.26247  22442699.279    22442698.8674   22442704.9944
       208.0004        207.0004
  -9979449.27947  -7760028.98446  22376116.605    22376116.2504   22376121.4784
       164.0004        166.0004
 -19591002.63349 -15238912.86147  20693191.859    20693192.5714   20693198.0934
       204.0004        202.0004
 -17862840.42549 -13893248.21848  20834492.183    20834492.3964   20834498.3954
       212.0004        213.0004
   2186063.50448   1726980.87846  24619962.777    24619963.4664   24619972.5584
       172.0004        173.0004
 21  1 31  0  2  0.0000000  0  8G07G01G08G27G21G04G09G03
  -8698575.35548  -6544830.63446  23286278.296    23286278.8064   23286282.2964
       170.0004        171.0004
  -6128185.68247  -4764456.09345  23548613.405    23548614.0384   23548622.4784
       153.0004        154.0004
 -23300037.08149 -18125110.56047  20333697.318    20333698.1724   20333706.2024
       211.0004        211.0004
 -12576869.58249  -9786356.41947  22460283.915    22460283.9804   22460290.0644
       208.0004        208.0004
 -10024130.70048  -7794845.61946  22367614.208    22367613.9014   22367618.9374
       165.0004        167.0004
 -19538917.73349 -15198327.22647  20703103.335    20703103.7544   20703109.4504
       203.0004        201.0004
 -17881422.57149 -13907727.81748  20830955.342    20830955.8484   20830962.7834
       212.0004        213.0004
   2234868.86648   1765010.94846  24629249.877    24629250.5724   24629260.4934
       172.0004        173.0004
 21  1 31  0  2 30.0000000  0  8G07G01G08G27G21G04G09G03
  -8771683.61948  -6601798.08846  23272366.588    23272366.4194   23272370.9114
       171.0004        173.0004
  -6203527.91547  -4823164.26945  23534276.727    23534277.2454   23534285.3744
       151.0004        154.0004
 -23265273.65149 -18098022.16647  20340313.084    20340313.6224   20340319.8734
       211.0004        212.0004
 -12484152.64449  -9714109.45147  22477927.850    22477927.4444   22477933.9604
       208.0004        207.0004
 -10068607.74248  -7829503.00446  22359150.402    22359150.3524   22359155.2174
       165.0004        167.0004
 -19486340.53049 -15157357.97547  20713108.455    20713108.9574   20713114.9824
       203.0004        202.0004
 -17899439.16949 -13921766.72848  20827526.939    20827527.3954   20827534.3194
       212.0004        213.0004
   2283423.77348   1802845.87146  24638489.162    24638489.6444   24638499.5184
       171.0004        170.0004
 21  1 31  0  3  0.0000000  0  8G07G01G08G27G21G04G09G03
  -8844880.24348  -6658834.41846  23258438.362    23258438.6794   23258441.7834
       173.0004        174.0004
  -6278981.84647  -4881959.49145  23519918.085    23519918.5794   23519927.3984
       152.0004        156.0004
 -23229957.15049 -18070502.80347  20347033.697    20347033.8084   20347041.2054
       211.0004        211.0004
 -12391131.25949  -9641625.26447  22495628.974    22495628.7994   22495636.4524
       207.0004        208.0004
 -10112878.56048  -7863999.71946  22350724.282    22350724.9334   22350730.8184
       165.0004        165.0004
 -19433273.70949 -15116007.21447  20723206.855    20723207.3574   20723213.2834
       203.0004        202.0004
 -17916890.43249 -13935365.12348  20824206.414    20824206.6954   20824213.6114
       213.0004        213.0004
   2331726.04848   1840483.92446  24647680.210    24647681.2424   24647690.5404
       167.0004        167.0004
 21  1 31  0  3 30.0000000  0  8G07G01G08G27G21G04G09G03
  -8918162.41148  -6715937.37246  23244491.351    23244492.0944   23244496.5474
       170.0004        169.0004
  -6354543.49547  -4940838.63645  23505540.397    23505540.0384   23505548.8324
       155.0004        158.0004
 -23194088.17549 -18042552.94447  20353859.209    20353859.3424   20353867.2184
       211.0004        211.0004
 -12297807.07149  -9568905.11647  22513387.769    22513387.6794   22513394.9634
       208.0004        208.0004
 -10156939.07948  -7898332.59546  22342341.287    22342341.1584   22342346.3064
       165.0004        166.0004
 -19379717.83749 -15074275.36747  20733397.666    20733398.2084   20733404.6304
       203.0004        202.0004
 -17933774.52249 -13948521.55548  20820993.290    20820993.8324   20821000.6684
       213.0004        214.0004
   2379775.66348   1877925.12046  24656824.842    24656825.5994   24656835.7434
       168.0004        170.0004
 21  1 31  0  4  0.0000000  0  8G07G01G08G27G21G04G09G03
  -8991529.69548  -6773106.68046  23230531.176    23230532.2144   23230535.5874
       169.0004        171.0004
  -6430211.38547  -4999800.59845  23491139.770    23491140.9894   23491149.2724
       155.0004        157.0004
 -23157670.06849 -18014175.18347  20360789.394    20360789.6784   20360796.6854
       211.0004        211.0004
 -12204184.19249  -9495952.22847  22531202.276    22531203.1994   22531210.7484
       207.0004        206.0004
 -10200787.79747  -7932500.42346  22333996.604    22333996.6404   22334001.0334
       164.0004        165.0004
 -19325676.00849 -15032164.85647  20743682.354    20743682.5514   20743688.4664
       203.0004        202.0004
 -17950092.14949 -13961236.58448  20817887.756    20817888.4594   20817895.5404
       213.0004        213.0004
   2427569.94048   1915167.34346  24665919.601    24665920.7724   24665930.3474
       170.0004        172.0004
 21  1 31  0  4 30.0000000  0  8G07G01G08G27G21G04G09G03
  -9064979.95848  -6830340.64546  23216554.180    23216554.6624   23216557.8104
       170.0004        171.0004
  -6505982.16247  -5058842.71245  23476721.464    23476721.5534   23476730.2954
       154.0004        155.0004
 -23120703.36949 -17985369.95247  20367823.800    20367824.1224   20367831.2204
       211.0004        211.0004
 -12110264.81049  -9422768.30247  22549075.659    22549075.4184   22549082.5474
       206.0004        205.0004
 -10244420.67147  -7966500.02046  22325692.957    22325692.8104   22325698.6584
       164.0004        166.0004
 -19271149.46949 -14989676.65147  20754058.222    20754058.5744   20754064.6984
       203.0004        203.0004
 -17965842.12449 -13973509.29348  20814891.234    20814891.5514   20814897.9704
       213.0004        213.0004
   2475108.28648   1952210.12546  24674966.731    24674966.9194   24674976.3234
       170.0004        172.0004
 21  1 31  0  5  0.0000000  0  8G07G01G08G27G21G04G09G03
  -9138512.37048  -6887638.64546  23202560.112    23202561.2514   23202564.9254
       169.0004        170.0004
  -6581853.90147  -5117963.50245  23462281.927    23462283.6324   23462292.7954
       152.0004        155.0004
 -23083190.47649 -17956139.12847  20374961.663    20374962.4144   20374969.9734
       211.0004        211.0004
 -12016052.69949  -9349356.29647  22567002.668    22567003.5834   22567010.7684
       205.0004        205.0004
 -10287836.11148  -8000330.20746  22317432.908    22317432.8944   22317436.4514
       166.0004        168.0004
 -19216140.93549 -14946812.88047  20764525.778    20764526.3124   20764532.5554
       203.0004        202.0004
 -17981024.75449 -13985339.92848  20812002.425    20812002.6184   20812008.7774
       213.0004        214.0004
   2522388.54648   1989051.82946  24683962.785    24683963.1034   24683973.6854
       169.0004        170.0004
 21  1 31  0  5 30.0000000  0  8G07G01G08G27G21G04G09G03
  -9212124.98448  -6944999.09346  23188552.826    23188553.9104   23188558.4874
       171.0004        174.0004
  -6657823.40447  -5177160.48045  23447826.745    23447827.2184   23447836.4074
       154.0004        158.0004
 -23045133.05949 -17926483.98847  20382204.096    20382204.5684   20382212.1764
       210.0004        211.0004
 -11921550.38449  -9275718.12747  22584985.521    22584986.4474   22584993.8564
       204.0004        204.0004
 -10331031.01748  -8033988.55146  22309213.726    22309212.0204   22309217.3684
       166.0004        166.0004
 -19160651.94049 -14903574.70947  20775085.074    20775085.5774   20775091.6264
       203.0004        201.0004
 -17995639.23249 -13996727.83248  20809221.453    20809221.8894   20809228.0644
       214.0004        214.0004
   2569409.84648   2025691.76746  24692911.014    24692911.1714   24692921.0444
       168.0004        169.0004
 21  1 31  0  6  0.0000000  0  8G07G01G08G27G21G04G09G03
  -9285816.56248  -7002421.09046  23174529.395    23174530.1144   23174534.7144
       171.0004        171.0004
  -6733888.50147  -5236431.93645  23433352.007    23433351.9224   23433361.5564
       154.0004        156.0004
 -23006532.97849 -17896406.00847  20389549.250    20389549.7074   20389557.7744
       210.0004        211.0004
 -11826761.22449  -9201856.45147  22603022.281    22603023.2824   22603032.1044
       203.0004        203.0004
 -10374002.70348  -8067472.93846  22301034.298    22301034.5404   22301040.7754
       165.0004        165.0004
 -19104684.97849 -14859964.10647  20785735.105    20785735.5464   20785741.8664
       202.0004        201.0004
 -18009685.59449 -14007673.05848  20806548.268    20806548.6914   20806555.1134
       214.0004        214.0004
   2616170.31248   2062128.45646  24701809.563    24701810.5034   24701820.9654
       171.0004        173.0004
 21  1 31  0  6 30.0000000  0  8G07G01G08G27G21G04G09G03
  -9359585.80848  -7059903.60346  23160492.394    23160492.3644   23160496.0014
       171.0004        172.0004
  -6810047.04447  -5295776.20645  23418857.188    23418860.4684   23418868.9644
       153.0004        156.0004
 -22967392.71549 -17865907.08747  20396997.945    20396998.2444   20397005.5724
       210.0004        211.0004
 -11731688.71349  -9127773.98247  22621114.807    22621115.8704   22621122.9954
       203.0004        203.0004
 -10416748.96947  -8100781.65746  22292900.298    22292900.2354   22292906.3034
       164.0004        165.0004
 -19048242.60049 -14815983.03547  20796476.200    20796476.6464   20796482.1374
       202.0004        201.0004
 -18023164.05549 -14018175.74648  20803983.496    20803983.6074   20803990.2004
       213.0004        214.0004
   2662668.13148   2098360.45746  24710657.811    24710658.5604   24710669.1574
       169.0004        170.0004
 21  1 31  0  7  0.0000000  0  8G07G01G08G27G21G04G09G03
  -9433430.38948  -7117444.83346  23146440.460    23146440.8354   23146445.3224
       172.0004        173.0004
  -6886295.36547  -5355190.44745  23404350.268    23404350.2064   23404359.1214
       154.0004        157.0004
 -22927712.98749 -17834987.81047  20404548.570    20404548.8464   20404556.2634
       210.0004        211.0004
 -11636334.91349  -9053472.32747  22639262.303    22639261.3084   22639268.6334
       203.0004        203.0004
 -10459266.32048  -8133912.03846  22284811.123    22284810.1994   22284815.9114
       165.0004        167.0004
 -18991325.90149 -14771632.37047  20807307.344    20807307.3244   20807313.4934
       203.0004        201.0004
 -18036073.32149 -14028234.91748  20801526.896    20801527.2824   20801533.6174
       214.0004        214.0004
   2708902.97248   2134387.56946  24719454.503    24719455.1454   24719466.2324
       167.0004        167.0004
 21  1 31  0  7 30.0000000  0  8G07G01G08G27G21G04G09G03
  -9507350.80548  -7175045.11746  23132372.695    23132373.8674   23132378.5244
       171.0004        172.0004
  -6962632.33847  -5414673.77745  23389823.881    23389823.5134   23389833.0824
       154.0004        156.0004
 -22887497.44749 -17803651.01947  20412201.172    20412201.4104   20412209.1644
       210.0004        210.0004
 -11540704.42049  -8978955.07747  22657458.178    22657458.7474   22657466.5314
       203.0004        203.0004
 -10501553.32447  -8166862.91746  22276759.913    22276760.0084   22276767.6524
       163.0004        163.0004
 -18933938.56049 -14726914.96347  20818226.905    20818227.7544   20818234.0324
       203.0004        201.0004
 -18048414.77849 -14037851.64248  20799178.066    20799178.6724   20799185.4734
       214.0004        215.0004
   2754871.76148   2170207.37246  24728204.679    24728204.8054   24728214.2324
       169.0004        172.0004
 21  1 31  0  8  0.0000000  0  8G07G01G08G27G21G04G09G03
  -9581343.46548  -7232701.71746  23118293.534    23118292.7824   23118297.6564
       171.0004        173.0004
  -7039053.54247  -5474222.71145  23375281.308    23375281.5414   23375291.2414
       152.0004        155.0004
 -22846746.62049 -17771897.12447  20419956.384    20419956.7264   20419963.7794
       210.0004        211.0004
 -11444798.49849  -8904223.20247  22675710.396    22675709.3454   22675716.6554
       203.0004        202.0004
 -10543605.99647  -8199631.17146  22268757.306    22268759.0824   22268765.8594
       162.0004        164.0004
 -18876081.03449 -14681831.18647  20829237.376    20829237.9144   20829243.7384
       203.0004        202.0004
 -18060186.50549 -14047024.42548  20796937.408    20796938.1544   20796945.3124
       214.0004        214.0004
   2800574.93148   2205820.16246  24736902.515    24736902.9724   24736911.1564
       172.0004        174.0004
 21  1 31  0  8 30.0000000  0  8G07G01G08G27G21G04G09G03
  -9655407.70348  -7290414.11046  23104199.106    23104199.6714   23104203.4944
       173.0004        175.0004
  -7115557.92547  -5533836.48245  23360722.607    23360722.5924   23360732.2624
       152.0004        155.0004
 -22805463.60749 -17739728.53847  20427811.332    20427812.0994   20427819.9684
       210.0004        211.0004
 -11348621.71249  -8829280.27647  22694010.405    22694011.4484   22694018.7874
       202.0004        201.0004
 -10585422.74548  -8232215.66146  22260806.127    22260804.9644   22260807.4454
       166.0004        170.0004
 -18817757.00649 -14636383.89747  20840336.299    20840336.4814   20840342.1604
       203.0004        201.0004
 -18071389.81949 -14055754.28948  20794806.214    20794806.3044   20794813.2044
       213.0004        214.0004
   2846009.60148   2241223.72146  24745546.584    24745547.3644   24745556.2404
       170.0004        169.0004
 21  1 31  0  9  0.0000000  0  8G07G01G08G27G21G04G09G03
  -9729542.01348  -7348181.08646  23090090.554    23090091.4794   23090096.4274
       173.0004        174.0004
  -7192141.94147  -5593512.28945  23346148.964    23346150.4944   23346159.0814
       152.0004        156.0004
 -22763649.91749 -17707146.43847  20435768.845    20435769.1894   20435776.5824
       210.0004        211.0004
 -11252176.35849  -8754128.04147  22712363.378    22712364.9964   22712371.1814
       202.0004        202.0004
 -10627000.43748  -8264613.87846  22252893.526    22252892.7114   22252895.3684
       170.0004        171.0004
 -18758967.86649 -14590574.19947  20851523.182    20851523.4074   20851529.6864
       202.0004        201.0004
 -18082023.78449 -14064040.50448  20792782.707    20792783.1254   20792789.8464
       213.0004        214.0004
   2891175.22148   2276417.65346  24754140.238    24754140.7784   24754151.6734
       165.0004        165.0004
 21  1 31  0  9 30.0000000  0  8G07G01G08G27G21G04G09G03
  -9803743.50748  -7406000.44046  23075971.125    23075972.0144   23075976.1134
       173.0004        175.0004
  -7268801.99747  -5653247.36545  23331561.493    23331562.1364   23331570.2514
       152.0004        154.0004
 -22721306.54549 -17674151.59047  20443826.085    20443826.7934   20443833.9664
       210.0004        210.0004
 -11155464.56749  -8678768.19747  22730768.628    22730768.7674   22730775.4314
       203.0004        203.0004
 -10668335.21548  -8296822.77046  22245025.265    22245025.1844   22245030.7524
       168.0004        167.0004
 -18699714.96749 -14544403.11247  20862798.239    20862798.8284   20862804.9874
       202.0004        201.0004
 -18092087.43249 -14071882.29748  20790867.859    20790867.9694   20790874.8554
       214.0004        214.0004
   2936071.29048   2311401.54046  24762685.726    24762685.3944   24762695.5994
       167.0004        170.0004
 21  1 31  0 10  0.0000000  0  8G07G01G08G27G21G04G09G03
  -9878012.33148  -7463872.20546  23061838.003    23061838.4874   23061843.5794
       175.0004        177.0004
  -7345537.16047  -5713040.97145  23316960.240    23316959.5714   23316967.8114
       152.0004        155.0004
 -22678436.83149 -17640746.62447  20451984.564    20451984.7104   20451991.9274
       210.0004        210.0004
 -11058491.00649  -8603204.39747  22749221.528    22749221.9494   22749228.6374
       202.0004        202.0004
 -10709426.05047  -8328841.53046  22237203.181    22237203.0544   22237210.9604
       164.0004        163.0004
 -18640002.14349 -14497873.65047  20874161.549    20874162.0424   20874167.8084
       202.0004        200.0004
 -18101582.33849 -14079280.93748  20789060.321    20789061.0554   20789067.8514
       214.0004        214.0004
   2980694.80748   2346173.04946  24771174.787    24771176.1484   24771187.7224
       169.0004        171.0004
 21  1 31  0 10 30.0000000  0  8G07G01G08G27G21G04G09G03
  -9952344.87848  -7521793.65846  23047694.776    23047694.9524   23047698.5254
       177.0004        180.0004
  -7422342.60747  -5772889.33845  23302344.629    23302344.5544   23302352.5484
       153.0004        155.0004
 -22635041.29249 -17606931.89447  20460242.041    20460242.3754   20460250.0444
       210.0004        210.0004
 -10961256.76449  -8527437.46047  22767724.005    22767724.3434   22767731.5754
       201.0004        200.0004
 -10750268.44147  -8360666.73046  22229432.583    22229433.1524   22229438.4484
       163.0004        165.0004
 -18579829.70449 -14450986.03647  20885611.606    20885612.4624   20885618.0884
       202.0004        200.0004
 -18110506.44749 -14086234.78548  20787362.511    20787362.7184   20787369.6124
       214.0004        214.0004
   3025046.48748   2380732.76446  24779616.175    24779616.7714   24779627.1834
       169.0004        170.0004
 21  1 31  0 11  0.0000000  0  8G07G01G08G27G21G04G09G03
 -10026741.99048  -7579765.41746  23033536.730    23033537.0444   23033541.8254
       178.0004        178.0004
  -7499218.14547  -5832792.32445  23287714.922    23287714.7074   23287723.7324
       154.0004        157.0004
 -22591124.43049 -17572710.96147  20468599.155    20468599.5934   20468606.9504
       210.0004        210.0004
 -10863767.36049  -8451471.69747  22786276.465    22786276.2084   22786282.4944
       200.0004        200.0004
 -10790862.43448  -8392298.38446  22221708.780    22221708.6314   22221713.9954
       165.0004        168.0004
 -18519202.39649 -14403743.97547  20897148.650    20897149.3324   20897155.0974
       202.0004        200.0004
 -18118862.23249 -14092745.79348  20785771.755    20785772.3724   20785779.4424
       213.0004        214.0004
   3069122.53848   2415077.66846  24788004.137    24788004.6084   24788013.8634
       169.0004        170.0004
 21  1 31  0 11 30.0000000  0  7G07G01G08G27G21G04G09
 -10101195.86948  -7637781.42746  23019369.252    23019369.2204   23019372.7234
       177.0004        179.0004
  -7576154.80947  -5892742.96745  23273074.190    23273074.7154   23273083.0394
       154.0004        156.0004
 -22546682.03949 -17538080.52147  20477056.395    20477056.7664   20477064.2064
       209.0004        210.0004
 -10766019.62349  -8375304.64147  22804877.057    22804877.0994   22804884.2804
       201.0004        202.0004
 -10831199.07648  -8423729.50946  22214034.457    22214033.7124   22214038.6124
       168.0004        171.0004
 -18458116.21049 -14356144.35847  20908773.344    20908773.9904   20908779.5624
       202.0004        200.0004
 -18126643.44349 -14098809.08448  20784291.769    20784292.2954   20784298.7644
       214.0004        214.0004
 21  1 31  0 12  0.0000000  0  7G07G01G08G27G21G04G09
 -10175709.09748  -7695843.68346  23005188.662    23005188.6354   23005193.9484
       178.0004        179.0004
  -7653154.39447  -5952742.61945  23258419.696    23258420.6364   23258429.2814
       153.0004        155.0004
 -22501720.92249 -17503045.87347  20485612.131    20485612.4944   20485619.9024
       209.0004        210.0004
 -10668021.03649  -8298942.11247  22823525.097    22823525.7794   22823531.8224
       201.0004        201.0004
 -10871280.12748  -8454961.48346  22206407.232    22206406.0334   22206410.7504
       171.0004        172.0004
 -18396578.01649 -14308192.52747  20920483.025    20920483.8644   20920489.7704
       201.0004        200.0004
 -18133854.60249 -14104428.16948  20782919.644    20782919.8704   20782926.3334
       214.0004        214.0004
 21  1 31  0 12 30.0000000  0  7G07G01G08G27G21G04G09
 -10250282.85648  -7753953.08546  22990998.679    22990999.0604   22991002.8984
       180.0004        181.0004
  -7730216.32347  -6012790.86145  23243757.084    23243757.6284   23243766.2254
       154.0004        157.0004
 -22456244.79549 -17467609.91647  20494266.556    20494266.5444   20494273.6684
       210.0004        210.0004
 -10569776.88749  -8222388.22347  22842220.756    22842221.4364   22842227.4034
       201.0004        201.0004
 -10911105.17748  -8485993.96546  22198827.845    22198827.0614   22198832.2724
       170.0004        171.0004
 -18334592.29249 -14259891.96447  20932279.034    20932279.6284   20932284.8164
       201.0004        199.0004
 -18140497.98349 -14109604.83348  20781654.986    20781655.6134   20781662.3814
       214.0004        214.0004
 21  1 31  0 13  0.0000000  0  7G07G01G08G27G21G04G09
 -10324914.08648  -7812107.27546  22976795.207    22976796.6104   22976800.4384
       179.0004        179.0004
  -7807336.63147  -6072884.59745  23229082.195    23229083.0164   23229091.1794
       156.0004        158.0004
 -22410255.24449 -17431773.89647  20503017.526    20503017.9984   20503025.6324
       209.0004        210.0004
 -10471289.04649  -8145644.46047  22860963.226    22860962.6314   22860969.7384
       202.0004        202.0004
 -10950670.39148  -8516823.97746  22191298.687    22191298.5164   22191304.1174
       170.0004        170.0004
 -18272160.23149 -14211243.60847  20944159.513    20944160.1284   20944165.8094
       201.0004        200.0004
 -18146572.51249 -14114338.23248  20780498.742    20780499.6704   20780506.6624
       214.0004        215.0004
 21  1 31  0 13 30.0000000  0  7G07G01G08G27G21G04G09
 -10399601.20148  -7870305.03046  22962583.462    22962583.8994   22962588.6654
       179.0004        180.0004
  -7884512.97047  -6133021.99345  23214394.700    23214395.4024   23214404.5634
       157.0004        159.0004
 -22363754.67249 -17395539.69047  20511866.330    20511866.7154   20511874.0554
       209.0004        209.0004
 -10372560.88649  -8068713.43647  22879749.738    22879750.3364   22879757.0964
       202.0004        203.0004
 -10989973.79148  -8547449.99246  22183818.871    22183819.1204   22183824.8444
       169.0004        168.0004
 -18209284.49249 -14162249.54047  20956124.172    20956124.9614   20956131.0424
       201.0004        200.0004
 -18152078.60049 -14118628.69748  20779451.931    20779452.1004   20779458.5574
       214.0004        215.0004
 21  1 31  0 14  0.0000000  0  7G07G01G08G27G21G04G09
 -10474340.91948  -7928543.75446  22948360.895    22948361.0184   22948367.1384
       180.0004        181.0004
  -7961740.97847  -6193199.66145  23199699.765    23199700.0634   23199709.3104
       158.0004        161.0004
 -22316743.33649 -17358907.47547  20520811.774    20520812.7094   20520819.9934
       209.0004        209.0004
 -10273593.95449  -7991596.34547  22898582.245    22898582.3714   22898589.0254
       201.0004        200.0004
 -11029010.98748  -8577868.56046  22176390.027    22176388.8294   22176395.4844
       168.0004        169.0004
 -18145965.96549 -14112910.43147  20968173.612    20968173.7984   20968179.5504
       201.0004        199.0004
 -18157014.89549 -14122475.17148  20778512.381    20778512.7044   20778519.2594
       214.0004        214.0004
 21  1 31  0 14 30.0000000  0  7G07G01G08G27G21G04G09
 -10549132.81148  -7986823.14746  22934129.408    22934129.4074   22934133.5514
       180.0004        182.0004
  -8039018.79747  -6253416.15045  23184994.288    23184994.5154   23185002.7174
       158.0004        160.0004
 -22269224.90749 -17321880.12747  20529855.179    20529855.5694   20529862.5774
       209.0004        210.0004
 -10174392.22049  -7914296.29947  22917458.716    22917459.7224   22917466.6184
       201.0004        200.0004
 -11067779.82648  -8608078.02946  22169012.162    22169011.7234   22169017.9124
       167.0004        169.0004
 -18082207.92049 -14063228.85047  20980306.893    20980307.1894   20980312.8794
       201.0004        200.0004
 -18161382.49949 -14125878.50148  20777681.215    20777681.3524   20777688.2274
       214.0004        214.0004
 21  1 31  0 15  0.0000000  0  7G07G01G08G27G21G04G09
 -10623974.60248  -8045141.39246  22919887.151    22919887.4354   22919891.1894
       181.0004        181.0004
  -8116343.48347  -6313669.15345  23170280.865    23170280.7884   23170288.9754
       159.0004        162.0004
 -22221201.07249 -17284458.94447  20538993.192    20538993.7434   20539001.1894
       209.0004        209.0004
 -10074958.49449  -7836815.47047  22936380.713    22936381.2704   22936388.3544
       199.0004        199.0004
 -11106278.57148  -8638077.02446  22161686.904    22161686.7744   22161692.7504
       167.0004        168.0004
 -18018012.56849 -14013206.50947  20992522.158    20992522.6094   20992528.2224
       201.0004        199.0004
 -18165181.39449 -14128838.67848  20776958.300    20776958.9714   20776965.3434
       214.0004        215.0004
 21  1 31  0 15 30.0000000  0  7G07G01G08G27G21G04G09
 -10698864.22548  -8103496.94846  22905635.670    22905635.6744   22905640.4204
       180.0004        181.0004
  -8193711.60147  -6373955.99146  23155556.890    23155557.9164   23155565.5824
       161.0004        164.0004
 -22172673.82049 -17246645.50247  20548227.553    20548228.0314   20548235.6814
       209.0004        209.0004
  -9975295.28549  -7759155.83247  22955345.203    22955346.4034   22955353.1964
       199.0004        199.0004
 -11144503.56848  -8667862.72146  22154412.656    22154412.2634   22154418.2084
       168.0004        169.0004
 -17953381.73749 -13962844.84247  21004821.028    21004821.5074   21004827.8094
       200.0004        199.0004
 -18168411.24949 -14131355.46648  20776343.347    20776344.2094   20776350.9754
       215.0004        216.0004
 21  1 31  0 16  0.0000000  0  7G07G01G08G27G21G04G09
 -10773800.78348  -8161889.05346  22891376.009    22891376.8504   22891380.2624
       181.0004        183.0004
  -8271121.30747  -6434275.24146  23140827.044    23140827.5674   23140836.1004
       162.0004        164.0004
 -22123646.42449 -17208442.32647  20557557.924    20557558.0904   20557565.4664
       209.0004        209.0004
  -9875406.49349  -7681320.41247  22974355.376    22974354.8414   22974361.4834
       199.0004        199.0004
 -11182452.89448  -8697433.60446  22147192.536    22147191.2894   22147196.8144
       170.0004        172.0004
 -17888318.81949 -13912146.45847  21017201.939    21017202.6244   21017208.7944
       200.0004        198.0004
 -18171073.20649 -14133429.71748  20775837.515    20775837.5944   20775844.4814
       215.0004        216.0004
 21  1 31  0 16 30.0000000  0  7G07G01G08G27G21G04G09
 -10848782.33248  -8220316.23246  22877107.037    22877107.5964   22877111.4314
       181.0004        180.0004
  -8348569.30947  -6494624.30746  23126089.073    23126089.3594   23126097.3864
       163.0004        164.0004
 -22074120.66849 -17169850.81647  20566982.424    20566982.7394   20566989.5534
       209.0004        209.0004
  -9775294.80549  -7603311.31247  22993405.517    22993405.7704   22993412.6384
       200.0004        200.0004
 -11220123.61048  -8726787.39446  22140023.260    22140023.1504   22140028.6934
       171.0004        173.0004
 -17822825.79549 -13861112.93947  21029664.980    21029665.4734   21029671.3544
       199.0004        198.0004
 -18173167.13749 -14135061.35448  20775438.431    20775438.9404   20775445.8434
       215.0004        215.0004
 21  1 31  0 17  0.0000000  0  7G07G01G08G27G21G04G09
 -10923806.18948  -8278776.37446  22862830.342    22862831.2684   22862835.9334
       179.0004        180.0004
  -8426051.95947  -6555000.38645  23111343.679    23111344.6954   23111353.7534
       161.0004        162.0004
 -22024097.94849 -17130872.08047  20576501.664    20576501.7384   20576508.5664
       209.0004        210.0004
  -9674962.38149  -7525130.20347  23012498.081    23012498.4934   23012505.4324
       199.0004        198.0004
 -11257512.36348  -8755921.48946  22132909.621    22132908.9234   22132912.7554
       172.0004        174.0004
 -17756904.30749 -13809745.56847  21042209.359    21042210.0274   21042215.4584
       199.0004        197.0004
 -18174692.52549 -14136249.98048  20775147.943    20775148.4494   20775155.4154
       214.0004        214.0004
 21  1 31  0 17 30.0000000  0  7G07G01G08G27G21G04G09
 -10998870.46548  -8337267.99146  22848547.752    22848547.2274   22848551.8774
       179.0004        180.0004
  -8503566.58347  -6615401.38345  23096593.211    23096593.8914   23096601.4714
       160.0004        161.0004
 -21973580.46849 -17091507.79347  20586114.193    20586114.7324   20586121.6784
       209.0004        209.0004
  -9574412.40649  -7446779.57147  23031631.850    23031632.5944   23031639.1944
       197.0004        196.0004
 -11294617.29648  -8784834.38946  22125847.353    22125847.1504   22125852.7794
       173.0004        173.0004
 -17690557.01249 -13758046.37547  21054835.021    21054835.2844   21054840.9534
       199.0004        198.0004
 -18175649.87049 -14136995.95748  20774965.844    20774966.4004   20774973.1564
       214.0004        214.0004
 21  1 31  0 18  0.0000000  0  7G07G01G08G27G21G04G09
 -11073974.41648  -8395790.54946  22834255.710    22834255.9654   22834259.8464
       181.0004        181.0004
  -8581111.04247  -6675825.65945  23081836.629    23081837.3984   23081845.1344
       160.0004        161.0004
 -21922571.82849 -17051760.80947  20595820.573    20595821.0614   20595828.2464
       209.0004        208.0004
  -9473648.64349  -7368262.35047  23050808.125    23050808.0094   23050814.0244
       197.0004        197.0004
 -11331436.25148  -8813524.47546  22118840.848    22118840.6274   22118845.3034
       173.0004        172.0004
 -17623787.12149 -13706017.90847  21067541.084    21067541.3234   21067546.5594
       198.0004        197.0004
 -18176040.23449 -14137300.15248  20774892.387    20774892.6074   20774899.1764
       215.0004        216.0004
 21  1 31  0 18 30.0000000  0  7G07G01G08G27G21G04G09
 -11149116.94348  -8454343.16046  22819955.551    22819956.6014   22819959.6134
       180.0004        181.0004
  -8658683.08447  -6736271.42546  23067076.828    23067077.3294   23067084.0844
       162.0004        164.0004
 -21871074.40949 -17011632.94547  20605620.038    20605620.3204   20605627.9174
       208.0004        208.0004
  -9372674.74949  -7289581.39247  23070022.425    23070021.9984   23070028.7804
       196.0004        196.0004
 -11367966.81748  -8841989.83346  22111888.997    22111888.3674   22111894.4074
       172.0004        174.0004
 -17556597.71349 -13653662.52947  21080326.317    21080327.0664   21080332.5244
       198.0004        197.0004
 -18175864.61249 -14137163.30548  20774925.555    20774925.6804   20774932.2554
       215.0004        216.0004
 21  1 31  0 19  0.0000000  0  7G07G01G08G27G21G04G09
 -11224294.99048  -8512923.45946  22805650.960    22805650.5364   22805653.2204
       180.0004        181.0004
  -8736278.89147  -6796735.68746  23052310.584    23052310.8054   23052319.1544
       163.0004        165.0004
 -21819089.86749 -16971125.51447  20615511.695    20615512.4834   20615520.3634
       207.0004        208.0004
  -9271492.76749  -7210738.30047  23089274.813    23089275.4924   23089283.4554
       196.0004        195.0004
 -11404206.01248  -8870228.17646  22104993.819    22104993.3324   22104999.0564
       172.0004        172.0004
 -17488990.38349 -13600981.50047  21093191.999    21093192.4974   21093198.2204
       199.0004        198.0004
 -18175122.48049 -14136585.02948  20775066.413    20775066.9584   20775073.6824
       215.0004        216.0004
 21  1 31  0 19 30.0000000  0  7G07G01G08G27G21G04G09
 -11299507.60548  -8571530.69346  22791337.513    22791337.4914   22791341.1694
       180.0004        179.0004
  -8813896.21547  -6857216.70646  23037540.098    23037539.7814   23037548.0964
       163.0004        164.0004
 -21766621.58949 -16930241.13747  20625497.455    20625497.6504   20625504.8924
       208.0004        209.0004
  -9170106.40849  -7131735.95647  23108568.697    23108568.8784   23108576.5544
       195.0004        196.0004
 -11440152.22048  -8898238.18746  22098152.944    22098153.1494   22098157.4714
       171.0004        171.0004
 -17420968.33249 -13547977.30247  21106136.156    21106136.4474   21106142.7724
       199.0004        197.0004
 -18173814.93349 -14135566.16748  20775315.711    20775316.0424   20775322.5334
       215.0004        216.0004
 21  1 31  0 20  0.0000000  0  7G07G01G08G27G21G04G09
 -11374750.06248  -8630161.15746  22777017.331    22777019.1824   22777023.5574
       178.0004        178.0004
  -8891529.34847  -6917710.03245  23022766.727    23022767.5344   23022775.5794
       161.0004        162.0004
 -21713668.73449 -16888979.16447  20635574.068    20635574.3514   20635581.5784
       208.0004        209.0004
  -9068515.85448  -7052574.48847  23127898.255    23127900.4114   23127908.0304
       193.0004        193.0004
 -11475799.75248  -8926015.46246  22091369.481    22091369.0924   22091374.2204
       170.0004        171.0004
 -17352531.26649 -13494649.72647  21119158.699    21119159.1194   21119166.0894
       198.0004        197.0004
 -18171939.61049 -14134104.88448  20775672.344    20775672.5614   20775679.5064
       215.0004        216.0004
 21  1 31  0 20 30.0000000  0  7G07G01G08G27G21G04G09
 -11450021.15348  -8688813.95146  22762696.236    22762696.1584   22762700.5404
       179.0004        180.0004
  -8969175.94347  -6978213.86546  23007990.492    23007991.4594   23007999.0484
       162.0004        163.0004
 -21660234.59949 -16847342.17647  20645742.393    20645742.7524   20645749.2404
       209.0004        209.0004
  -8966724.67848  -6973256.69447  23147269.758    23147270.4124   23147278.3494
       192.0004        191.0004
 -11511146.37148  -8953558.26546  22084643.348    22084642.2184   22084648.6574
       172.0004        173.0004
 -17283682.28049 -13441001.18247  21132260.299    21132260.7804   21132266.7804
       198.0004        196.0004
 -18169497.55549 -14132201.99348  20776136.803    20776137.2754   20776144.3554
       215.0004        216.0004
 21  1 31  0 21  0.0000000  0  7G07G01G08G27G21G04G09
 -11525320.52148  -8747488.77646  22748367.185    22748367.4444   22748371.7904
       179.0004        180.0004
  -9046834.80347  -7038727.23646  22993212.406    22993213.5604   22993221.7834
       162.0004        164.0004
 -21606322.90949 -16805333.05147  20656001.399    20656001.6094   20656008.1284
       208.0004        208.0004
  -8864737.60748  -6893786.24547  23166677.574    23166678.1524   23166686.5204
       192.0004        192.0004
 -11546191.68748  -8980866.27346  22077974.140    22077973.2614   22077979.8584
       171.0004        172.0004
 -17214425.66849 -13387035.00347  21145439.463    21145439.8304   21145446.2404
       198.0004        196.0004
 -18166491.02149 -14129859.24348  20776708.812    20776709.4904   20776716.2914
       215.0004        216.0004
 21  1 31  0 21 30.0000000  0  7G07G01G08G27G21G04G09
 -11600646.73748  -8806184.49746  22734032.505    22734032.4794   22734036.5594
       179.0004        179.0004
  -9124503.19147  -7099248.02546  22978433.302    22978434.5554   22978442.2164
       162.0004        164.0004
 -21551936.47549 -16762953.99547  20666350.154    20666350.4984   20666357.5614
       207.0004        207.0004
  -8762557.82248  -6814165.62547  23186121.971    23186122.7314   23186130.0814
       191.0004        191.0004
 -11580933.25448  -9007937.60146  22071363.310    22071363.0574   22071368.4404
       171.0004        172.0004
 -17144764.18949 -13332753.33047  21158696.059    21158696.9314   21158702.7314
       198.0004        197.0004
 -18162920.72449 -14127077.19348  20777388.804    20777389.0484   20777395.4224
       215.0004        215.0004
 21  1 31  0 22  0.0000000  0  7G07G01G08G27G21G04G09
 -11675998.53648  -8864900.19446  22719693.079    22719693.5554   22719696.7864
       178.0004        179.0004
  -9202178.71747  -7159774.38546  22963651.839    22963652.3944   22963661.6734
       162.0004        163.0004
 -21497078.44149 -16720207.49947  20676788.693    20676789.1424   20676797.1204
       206.0004        207.0004
  -8660188.83248  -6734397.60647  23205602.400    23205602.7124   23205611.0214
       191.0004        190.0004
 -11615369.16748  -9034770.77346  22064810.577    22064809.6564   22064814.8924
       171.0004        173.0004
 -17074701.00149 -13278158.66147  21172028.667    21172028.8324   21172034.7074
       198.0004        196.0004
 -18158787.77249 -14123856.72948  20778174.909    20778175.3464   20778182.2704
       215.0004        215.0004
 21  1 31  0 22 30.0000000  0  7G07G01G08G27G21G04G09
 -11751373.04748  -8923633.56646  22705350.122    22705350.4614   22705354.6744
       179.0004        181.0004
  -9279857.55247  -7220303.30946  22948871.124    22948870.2364   22948878.9444
       161.0004        163.0004
 -21441750.40049 -16677094.73147  20687317.652    20687318.2204   20687325.7104
       207.0004        207.0004
  -8557632.79148  -6654483.80847  23225119.315    23225119.6214   23225127.0464
       190.0004        191.0004
 -11649496.39648  -9061363.38146  22058315.490    22058315.7344   22058320.4024
       172.0004        174.0004
 -17004237.79949 -13223252.27047  21185437.392    21185437.8754   21185443.8984
       198.0004        196.0004
 -18154091.87349 -14120197.57948  20779068.521    20779069.1734   20779075.8874
       215.0004        215.0004
 21  1 31  0 23  0.0000000  0  7G07G01G08G27G21G04G09
 -11826768.31348  -8982383.12146  22691001.961    22691002.5834   22691007.6234
       180.0004        181.0004
  -9357537.09947  -7280832.79645  22934087.299    22934088.2664   22934097.0714
       160.0004        162.0004
 -21385955.10149 -16633617.86947  20697935.786    20697935.8624   20697942.9944
       207.0004        207.0004
  -8454892.98448  -6574426.81247  23244669.617    23244670.0154   23244677.3724
       190.0004        190.0004
 -11683312.30548  -9087713.40846  22051880.541    22051880.3954   22051886.5494
       172.0004        173.0004
 -16933377.54649 -13168036.52147  21198921.475    21198921.9144   21198928.0484
       198.0004        196.0004
 -18148833.95449 -14116100.50448  20780069.504    20780069.6774   20780076.1584
       215.0004        215.0004
 21  1 31  0 23 30.0000000  0  7G07G01G08G27G21G04G09
 -11902181.20448  -9041146.40946  22676651.795    22676652.2354   22676655.6614
       180.0004        180.0004
  -9435212.83847  -7341359.34546  22919306.148    22919307.6114   22919315.6424
       161.0004        163.0004
 -21329693.31349 -16589777.49747  20708641.867    20708642.2724   20708649.1484
       207.0004        208.0004
  -8351970.86948  -6494227.77747  23264254.376    23264254.7154   23264262.8634
       190.0004        189.0004
 -11716812.75748  -9113817.64646  22045507.551    22045506.5134   22045510.2804
       174.0004        175.0004
 -16862121.27949 -13112512.18847  21212481.236    21212481.5604   21212487.6054
       197.0004        196.0004
 -18143013.12449 -14111564.80648  20781177.396    20781177.7214   20781183.9314
       215.0004        216.0004
 21  1 31  0 24  0.0000000  0  7G07G01G08G27G21G04G09
 -11977610.20148  -9099922.23646  22662298.016    22662298.8864   22662303.0054
       179.0004        180.0004
  -9512882.09147  -7401880.81646  22904527.866    22904527.9504   22904535.5264
       162.0004        164.0004
 -21272968.10849 -16545576.03247  20719436.929    20719436.8574   20719443.7354
       207.0004        207.0004
  -8248869.81548  -6413889.28647  23283873.527    23283874.0514   23283881.4234
       189.0004        189.0004
 -11749995.96148  -9139674.67146  22039192.190    22039191.2174   22039196.5904
       174.0004        174.0004
 -16790471.98649 -13056681.58247  21226115.406    21226115.8904   21226122.3154
       197.0004        196.0004
 -18136630.43049 -14106591.28348  20782391.150    20782391.5094   20782398.8584
       215.0004        215.0004
 21  1 31  0 24 30.0000000  0  7G07G01G08G27G21G04G09
 -12053054.41048  -9158709.93046  22647941.346    22647942.5824   22647946.2744
       180.0004        181.0004
  -9590543.03547  -7462395.81446  22889749.259    22889749.3394   22889757.3264
       162.0004        163.0004
 -21215783.21349 -16501016.36247  20730318.178    20730318.4184   20730325.3514
       206.0004        206.0004
  -8145593.83248  -6333414.50847  23303525.651    23303526.6634   23303535.0134
       190.0004        190.0004
 -11782860.89048  -9165283.69046  22032937.670    22032937.3084   22032943.0124
       174.0004        175.0004
 -16718433.39249 -13000547.62647  21239824.010    21239824.5894   21239830.4274
       197.0004        196.0004
 -18129687.58849 -14101181.28448  20783712.280    20783712.7834   20783719.6074
       215.0004        215.0004
 21  1 31  0 25  0.0000000  0  7G07G01G08G27G21G04G09
 -12128511.54248  -9217507.68346  22633582.034    22633582.3304   22633588.5854
       181.0004        183.0004
  -9668192.25847  -7522901.68345  22874972.744    22874973.1724   22874980.4824
       161.0004        162.0004
 -21158140.21149 -16456099.72747  20741287.053    20741287.4344   20741294.6524
       206.0004        206.0004
  -8042145.49248  -6252805.43847  23323212.935    23323212.9174   23323219.9814
       190.0004        191.0004
 -11815404.84148  -9190642.60346  22026745.445    22026745.1734   22026749.6254
       175.0004        175.0004
 -16646007.80249 -12944112.10347  21253606.342    21253606.8434   21253612.2104
       196.0004        194.0004
 -18122185.01249 -14095335.12548  20785139.899    20785140.5374   20785147.3934
       215.0004        215.0004
 21  1 31  0 25 30.0000000  0  7G07G01G08G27G21G04G09
 -12203980.05648  -9276314.31046  22619221.403    22619222.3814   22619225.1214
       182.0004        182.0004
  -9745827.26147  -7583396.46646  22860198.518    22860199.0504   22860207.7414
       161.0004        163.0004
 -21100042.85349 -16410829.06647  20752342.261    20752342.5334   20752350.0164
       205.0004        205.0004
  -7938528.37348  -6172064.83147  23342930.009    23342930.3014   23342937.4754
       189.0004        189.0004
 -11847625.70548  -9215749.76346  22020613.210    22020612.9074   22020617.9154
       174.0004        175.0004
 -16573198.44049 -12887377.54247  21267461.047    21267461.9424   21267467.6674
       196.0004        195.0004
 -18114123.96849 -14089053.80548  20786674.699    20786674.8894   20786681.2464
       215.0004        216.0004
 21  1 31  0 26  0.0000000  0  7G07G01G08G27G21G04G09
 -12279457.50948  -9335127.91846  22604859.230    22604859.8224   22604862.5684
       183.0004        184.0004
  -9823444.84947  -7643877.66046  22845429.728    22845429.5914   22845436.8884
       162.0004        164.0004
 -21041493.07549 -16365205.86747  20763484.813    20763484.7444   20763491.5794
       205.0004        205.0004
  -7834745.11848  -6091194.76047  23362680.101    23362679.9334   23362687.9054
       190.0004        191.0004
 -11879520.36048  -9240602.74246  22014544.414    22014543.4144   22014549.2014
       175.0004        175.0004
 -16500007.66349 -12830345.79047  21281388.982    21281389.7674   21281395.3854
       196.0004        194.0004
 -18105504.97749 -14082337.70548  20788314.380    20788314.9364   20788321.3194
       215.0004        215.0004
 21  1 31  0 26 30.0000000  0  7G07G01G08G27G21G04G09
 -12354942.68348  -9393947.54146  22590494.727    22590495.1204   22590499.1614
       183.0004        184.0004
  -9901042.43347  -7704343.26446  22830663.317    22830663.2374   22830671.5974
       163.0004        164.0004
 -20982494.10649 -16319232.63747  20774711.675    20774712.1504   20774718.8884
       205.0004        206.0004
  -7730799.12148  -6010197.89447  23382460.976    23382461.2744   23382467.1834
       192.0004        193.0004
 -11911087.10548  -9265200.19446  22008537.837    22008537.3414   22008541.6004
       175.0004        175.0004
 -16426438.69849 -12773019.33247  21295389.133    21295389.9974   21295395.0564
       196.0004        195.0004
 -18096329.26749 -14075187.80448  20790060.426    20790060.7744   20790067.6034
       215.0004        215.0004
 21  1 31  0 27  0.0000000  0  7G07G01G08G27G21G04G09
 -12430433.47748  -9452771.51746  22576129.072    22576129.5264   22576134.1264
       185.0004        186.0004
  -9978616.93447  -7764790.91546  22815901.019    22815901.0764   22815908.9184
       163.0004        164.0004
 -20923048.81349 -16272911.61147  20786023.766    20786024.1694   20786031.2044
       206.0004        206.0004
  -7626693.26848  -5929076.46247  23402272.166    23402271.8764   23402278.6404
       192.0004        192.0004
 -11942323.39448  -9289540.15446  22002593.569    22002593.2454   22002597.6544
       174.0004        175.0004
 -16352494.09149 -12715400.17547  21309460.428    21309460.9424   21309466.5884
       196.0004        195.0004
 -18086597.60549 -14067604.69048  20791912.163    20791912.4614   20791919.7564
       214.0004        214.0004
 21  1 31  0 27 30.0000000  0  7G07G01G08G27G21G04G09
 -12505926.54348  -9511597.27046  22561763.808    22561763.4024   22561768.2304
       185.0004        186.0004
 -10056163.97447  -7825217.15446  22801144.225    22801143.3584   22801152.6234
       163.0004        166.0004
 -20863157.81549 -16226243.30047  20797420.149    20797420.4824   20797427.7564
       206.0004        206.0004
  -7522429.18148  -5847831.72247  23422111.818    23422111.9444   23422119.1554
       192.0004        192.0004
 -11973225.86148  -9313619.98746  21996712.513    21996711.9284   21996716.9884
       174.0004        174.0004
 -16278175.25949 -12657489.41647  21323601.769    21323602.7714   21323608.5244
       196.0004        195.0004
 -18076309.48049 -14059587.97748  20793869.675    20793870.0764   20793877.0224
       214.0004        214.0004
 21  1 31  0 28  0.0000000  0  7G07G01G08G27G21G04G09
 -12581420.93748  -9570424.07646  22547397.157    22547397.4504   22547401.6014
       185.0004        186.0004
 -10133681.63447  -7885620.51646  22786392.161    22786393.2774   22786401.6644
       164.0004        165.0004
 -20802825.13949 -16179230.83747  20808900.885    20808901.0994   20808909.1604
       205.0004        204.0004
  -7418010.92648  -5766466.86047  23441982.587    23441982.4664   23441989.1314
       192.0004        192.0004
 -12003792.94948  -9337438.50546  21990896.873    21990896.1684   21990900.2584
       174.0004        174.0004
 -16203486.05949 -12599290.05947  21337815.527    21337816.2464   21337821.2144
       196.0004        194.0004
 -18065466.94449 -14051139.26148  20795933.474    20795933.7104   20795940.5684
       214.0004        214.0004
 21  1 31  0 28 30.0000000  0  7G07G01G08G27G21G04G09
 -12656913.56848  -9629249.49446  22533031.373    22533031.2794   22533035.1644
       185.0004        184.0004
 -10211165.63748  -7945997.65146  22771648.529    22771649.1904   22771657.1094
       166.0004        168.0004
 -20742052.01349 -16131875.15747  20820466.169    20820466.2104   20820473.8474
       205.0004        205.0004
  -7313440.21348  -5684983.17547  23461880.237    23461880.6634   23461888.3294
       191.0004        191.0004
 -12034021.25848  -9360993.03246  21985142.526    21985142.4694   21985148.6464
       173.0004        174.0004
 -16128427.98849 -12540803.25447  21352098.265    21352098.9034   21352105.2544
       195.0004        194.0004
 -18054069.67249 -14042258.27448  20798102.087    20798102.5004   20798109.1744
       214.0004        214.0004
 21  1 31  0 29  0.0000000  0  7G07G01G08G27G21G04G09
 -12732402.60148  -9688072.12346  22518666.760    22518666.7274   22518670.8474
       186.0004        187.0004
 -10288613.55048  -8006346.65746  22756910.688    22756911.3914   22756919.4344
       168.0004        170.0004
 -20680841.62149 -16084178.75347  20832113.328    20832113.8734   20832121.3094
       204.0004        204.0004
  -7208720.60548  -5603383.48547  23481808.413    23481808.4424   23481815.3104
       190.0004        189.0004
 -12063909.17948  -9384282.31346  21979454.736    21979454.6594   21979461.1294
       173.0004        173.0004
 -16053004.37549 -12482031.63047  21366451.490    21366452.0634   21366457.3654
       195.0004        194.0004
 -18042119.19449 -14032946.22048  20800376.136    20800376.5534   20800383.6044
       214.0004        215.0004
 21  1 31  0 29 30.0000000  0  7G07G01G08G27G21G04G09
 -12807886.33948  -9746890.60746  22504302.339    22504302.5634   22504305.9494
       186.0004        186.0004
 -10366022.34248  -8066665.19446  22742180.967    22742180.3254   22742188.0624
       168.0004        169.0004
 -20619196.41849 -16036143.51747  20843844.323    20843844.8914   20843851.7594
       204.0004        204.0004
  -7103855.10448  -5521670.09047  23501763.267    23501763.7744   23501770.7234
       191.0004        191.0004
 -12093454.26448  -9407304.46946  21973832.822    21973832.7934   21973838.6064
       173.0004        173.0004
 -15977218.08449 -12422977.36947  21380872.316    21380872.9364   21380879.1564
       195.0004        193.0004
 -18029616.56649 -14023203.90748  20802755.297    20802755.8364   20802762.5404
       214.0004        215.0004
 21  1 31  0 30  0.0000000  0  7G07G01G08G27G21G04G09
 -12883362.23548  -9805702.98946  22489939.843    22489940.4104   22489943.4854
       186.0004        186.0004
 -10443388.57448  -8126950.55646  22727458.688    22727458.7464   22727466.6044
       168.0004        170.0004
 -20557119.72249 -15987772.05347  20855658.095    20855658.3394   20855664.9184
       204.0004        205.0004
  -6998846.11448  -5439844.91047  23521747.128    23521746.5164   23521752.3184
       189.0004        188.0004
 -12122653.75848  -9430057.30046  21968276.896    21968275.8824   21968281.3094
       173.0004        173.0004
 -15901071.44248 -12363642.32947  21395362.533    21395363.5644   21395369.2534
       194.0004        193.0004
 -18016562.28749 -14013031.74448  20805239.619    20805240.2424   20805246.8204
       215.0004        215.0004
 21  1 31  0 30 30.0000000  0  7G07G01G08G27G21G04G09
 -12958828.91248  -9864508.18246  22475578.742    22475579.1864   22475583.5864
       186.0004        187.0004
 -10520709.50348  -8187200.63746  22712744.473    22712744.6394   22712752.4334
       169.0004        169.0004
 -20494613.82349 -15939066.16047  20867552.609    20867552.7284   20867559.8984
       205.0004        205.0004
  -6893696.98048  -5357910.53947  23541756.557    23541755.4364   23541762.2114
       188.0004        189.0004
 -12151506.16248  -9452539.69346  21962786.713    21962786.1344   21962792.3924
       172.0004        173.0004
 -15824567.57648 -12304028.94247  21409921.546    21409921.9394   21409928.0014
       194.0004        193.0004
 -18002957.78349 -14002430.84148  20807828.677    20807828.9444   20807835.6334
       215.0004        215.0004
 21  1 31  0 31  0.0000000  0  7G07G01G08G27G21G04G09
 -13034283.12448  -9923303.65146  22461220.270    22461221.0094   22461224.6764
       187.0004        187.0004
 -10597981.49348  -8247412.55446  22698039.624    22698039.8844   22698048.5624
       168.0004        170.0004
 -20431681.06849 -15890027.63547  20879527.812    20879527.8054   20879535.1874
       204.0004        204.0004
  -6788410.09448  -5275868.81847  23561792.179    23561791.5244   23561797.8184
       190.0004        189.0004
 -12180007.72748  -9474748.66246  21957363.950    21957362.0204   21957368.3794
       173.0004        174.0004
 -15747708.67948 -12244138.88147  21424546.824    21424547.4464   21424553.5344
       194.0004        192.0004
 -17988803.50949 -13991401.52248  20810522.111    20810522.3474   20810529.0534
       214.0004        215.0004
 21  1 31  0 31 30.0000000  0  7G07G01G08G27G21G04G09
 -13109723.85048  -9982088.66047  22446864.251    22446864.9764   22446868.6054
       188.0004        188.0004
 -10675202.28448  -8307584.58746  22683344.047    22683345.2274   22683353.4304
       169.0004        170.0004
 -20368325.20249 -15840659.45147  20891583.634    20891584.2284   20891591.3464
       203.0004        204.0004
  -6682989.14348  -5193722.63547  23581852.600    23581852.4634   23581859.0824
       190.0004        192.0004
 -12208157.70448  -9496683.71546  21952005.495    21952005.4974   21952011.6334
       173.0004        175.0004
 -15670498.42148 -12183975.06947  21439239.399    21439240.6244   21439246.4264
       194.0004        192.0004
 -17974101.36149 -13979945.32748  20813320.325    20813320.1964   20813326.8744
       215.0004        215.0004
 21  1 31  0 32  0.0000000  0  7G07G01G08G27G21G04G09
 -13185148.38948 -10040861.01547  22432511.316    22432512.0914   22432516.2014
       188.0004        188.0004
 -10752368.05048  -8367713.76546  22668660.277    22668661.3004   22668667.9334
       169.0004        171.0004
 -20304547.64449 -15790962.64447  20903719.608    20903720.1934   20903728.0734
       203.0004        203.0004
  -6577436.31648  -5111473.68846  23601936.976    23601937.8534   23601944.7244
       189.0004        187.0004
 -12235952.92148  -9518342.31746  21946716.658    21946715.9534   21946721.8224
       174.0004        175.0004
 -15592938.85848 -12123539.04647  21453998.732    21453999.0624   21454004.8484
       193.0004        192.0004
 -17958851.69549 -13968062.47448  20816221.266    20816221.8584   20816228.5884
       214.0004        215.0004
 21  1 31  0 32 30.0000000  0  7G07G01G08G27G21G04G09
 -13260554.79048 -10099619.23147  22418163.014    22418162.7134   22418166.6254
       188.0004        188.0004
 -10829476.02848  -8427797.90146  22653986.411    22653988.0534   22653995.2374
       169.0004        170.0004
 -20240351.70049 -15740939.82847  20915936.251    20915936.6514   20915943.8024
       203.0004        203.0004
  -6471754.82048  -5029124.46846  23622047.228    23622048.3734   23622056.3184
       187.0004        187.0004
 -12263391.62448  -9539723.11746  21941495.329    21941494.9804   21941500.7464
       175.0004        177.0004
 -15515033.16848 -12062833.32847  21468823.397    21468824.4514   21468829.9954
       193.0004        192.0004
 -17943055.96949 -13955754.12348  20819227.675    20819227.8794   20819234.3674
       214.0004        214.0004
 21  1 31  0 33  0.0000000  0  7G07G01G08G27G21G04G09
 -13335940.76948 -10158361.53646  22403816.107    22403817.1464   22403822.0404
       188.0004        187.0004
 -10906522.88548  -8487834.39446  22639324.260    22639326.1224   22639334.3524
       170.0004        171.0004
 -20175739.89949 -15690592.94847  20928231.069    20928231.4344   20928239.0954
       203.0004        202.0004
  -6365947.30748  -4946677.07346  23642183.989    23642183.9824   23642189.8784
       185.0004        185.0004
 -12290471.25948  -9560824.11546  21936342.858    21936342.0034   21936348.3414
       176.0004        177.0004
 -15436783.91548 -12001859.88347  21483713.976    21483714.1254   21483720.4874
       193.0004        192.0004
 -17926715.07949 -13943020.97148  20822336.803    20822337.3954   20822343.9934
       214.0004        215.0004
 21  1 31  0 33 30.0000000  0  7G07G01G08G27G21G04G09
 -13411304.90648 -10217086.83146  22389474.959    22389475.9564   22389479.5354
       186.0004        186.0004
 -10983506.16348  -8547821.34846  22624676.743    22624677.1664   22624686.0384
       171.0004        172.0004
 -20110715.61349 -15639924.67347  20940604.278    20940604.9334   20940612.5344
       202.0004        201.0004
  -6260017.36148  -4864134.26546  23662342.709    23662341.8084   23662347.6814
       184.0004        184.0004
 -12317190.19248  -9581644.05246  21931258.574    21931257.7204   21931263.6624
