     2.11           OBSERVATION DATA    G (GPS)             RINEX VERSION / TYPE
teqc  2018Jun8                          20210202 03:10:40UTCPGM / RUN BY / DATE
Linux2.6.32-573.12.1.el6.x86_64|x86_64|gcc|Win64-MinGW64|=+ COMMENT
BIT 2 OF LLI FLAGS DATA COLLECTED UNDER A/S CONDITION       COMMENT
-Unknown-                                                   MARKER NAME
CRNO                                                        MARKER NUMBER
-Unknown-           -Unknown-                               OBSERVER / AGENCY
-Unknown-           ASHTECH             -Unknown-           REC # / TYPE / VERS
-Unknown-           -Unknown-                               ANT # / TYPE
   408080.2453 -6158373.6030  1605163.4689                  APPROX POSITION XYZ
        0.0000        0.0000        0.0000                  ANTENNA: DELTA H/E/N
     1     1                                                WAVELENGTH FACT L1/2
     7    L1    L2    C1    P1    P2    S1    S2            # / TYPES OF OBSERV
    30.0000                                                 INTERVAL
Forced Modulo Decimation to 30 seconds                      COMMENT
 SNR is mapped to RINEX snr flag value [1-9]                COMMENT
  L1: 1 -> 1;  90 -> 5; 210 -> 9                            COMMENT
  L2: 1 -> 1; 150 -> 5; 250 -> 9                            COMMENT
pseudorange smoothing corrections not applied               COMMENT
  2021     2     1     0     0   30.0000000     GPS         TIME OF FIRST OBS
                                                            END OF HEADER
 21  2  1  0  0 30.0000000  0  8G21G08G07G04G09G03G01G27
 -13774899.16347 -10727100.20146  22323921.823    22323922.4554   22323926.7884
       164.0004        166.0004
 -22580284.67149 -17579510.29347  20367526.995    20367527.4544   20367534.7214
       210.0004        211.0004
  -8906107.31348  -6920144.41446  23212550.610    23212552.0824   23212554.9744
       170.0004        169.0004
 -19234626.41449 -14970995.93047  20757394.628    20757395.1194   20757401.4394
       203.0004        202.0004
 -19396744.46749 -15095528.66848  20812945.769    20812946.0134   20812952.6494
       212.0004        213.0004
   1855200.34448   1473021.40846  24676872.792    24676873.2344   24676881.0474
       171.0004        173.0004
  -7010687.57947  -5447680.10045  23475095.247    23475094.8104   23475104.6934
       153.0004        155.0004
 -11991160.89149  -9332454.41747  22552376.980    22552377.1444   22552384.4324
       205.0004        204.0004
 21  2  1  0  1  0.0000000  0  8G21G08G07G04G09G03G01G27
 -13818321.14648 -10760935.49946  22315660.151    22315659.5574   22315663.6524
       166.0004        167.0004
 -22542754.18649 -17550265.74447  20374668.609    20374669.2604   20374676.5934
       210.0004        211.0004
  -8979641.84248  -6977444.02046  23198557.690    23198557.6904   23198562.7044
       169.0004        171.0004
 -19179451.16049 -14928002.22647  20767894.525    20767894.8974   20767900.4664
       203.0004        201.0004
 -19411732.56949 -15107207.70448  20810093.805    20810094.1404   20810100.6214
       213.0004        213.0004
   1902442.31948   1509833.33946  24685860.981    24685861.9614   24685870.6664
       169.0004        169.0004
  -7086578.01647  -5506815.47245  23460654.061    23460655.0404   23460663.9064
       154.0004        157.0004
 -11896895.38949  -9259000.78147  22570314.844    22570315.4034   22570322.8694
       204.0004        205.0004
 21  2  1  0  1 30.0000000  0  8G21G08G07G04G09G03G01G27
 -13861521.87848 -10794598.39346  22307440.011    22307438.9514   22307443.8054
       167.0004        166.0004
 -22504679.15249 -17520596.86947  20381914.419    20381914.5464   20381922.1884
       211.0004        211.0004
  -9053256.17548  -7034805.80146  23184549.907    23184551.2704   23184554.5694
       171.0004        173.0004
 -19123796.13949 -14884634.68147  20778484.677    20778485.2914   20778491.7274
       202.0004        201.0004
 -19426152.32749 -15118443.86848  20807350.036    20807350.1084   20807356.6884
       214.0004        214.0004
   1949425.01748   1546443.23746  24694802.925    24694802.9654   24694811.1524
       167.0004        168.0004
  -7162565.90647  -5566026.78745  23446194.003    23446195.2144   23446204.4164
       156.0004        158.0004
 -11802340.24949  -9185321.45147  22588307.824    22588308.6594   22588315.8744
       204.0004        204.0004
 21  2  1  0  2  0.0000000  0  8G21G08G07G04G09G03G01G27
 -13904500.49148 -10828088.19246  22299258.702    22299258.9154   22299265.2744
       165.0004        165.0004
 -22466062.85949 -17490506.23547  20389262.314    20389262.7604   20389270.5624
       210.0004        211.0004
  -9126950.11348  -7092229.61646  23170525.105    23170525.7284   23170530.8374
       171.0004        171.0004
 -19067664.85649 -14840896.02247  20789166.219    20789166.6764   20789173.0204
       202.0004        201.0004
 -19440004.90449 -15129238.08148  20804713.484    20804713.7714   20804720.2964
       213.0004        213.0004
   1996145.76948   1582849.02046  24703693.001    24703694.1174   24703703.2144
       169.0004        171.0004
  -7238650.14147  -5625313.17745  23431715.503    23431715.4964   23431725.2364
       154.0004        156.0004
 -11707499.84549  -9111419.84547  22606355.337    22606355.8344   22606363.5784
       204.0004        203.0004
 21  2  1  0  2 30.0000000  0  8G21G08G07G04G09G03G01G27
 -13947252.30947 -10861401.26546  22291123.683    22291124.3584   22291130.2494
       164.0004        166.0004
 -22426905.46649 -17459993.97247  20396714.525    20396714.4574   20396721.9604
       210.0004        210.0004
  -9200720.25648  -7149712.83546  23156488.767    23156489.0424   23156493.2344
       170.0004        172.0004
 -19011057.73249 -14796786.58647  20799939.096    20799939.0614   20799944.9544
       202.0004        201.0004
 -19453288.34349 -15139588.81148  20802185.885    20802186.2114   20802192.7054
       213.0004        214.0004
   2042604.67448   1619050.74346  24712533.355    24712534.5294   24712543.7964
       168.0004        168.0004
  -7314826.38947  -5684671.26845  23417218.766    23417220.4544   23417229.8964
       154.0004        156.0004
 -11612375.59849  -9037297.05347  22624457.350    22624457.6164   22624465.1084
       203.0004        203.0004
 21  2  1  0  3  0.0000000  0  8G21G08G07G04G09G03G01G27
 -13989775.92548 -10894536.57046  22283033.627    22283033.5614   22283037.8254
       165.0004        166.0004
 -22387210.08149 -17429062.49447  20404267.798    20404268.0444   20404275.8534
       210.0004        210.0004
  -9274566.73848  -7207255.53146  23142435.902    23142435.8654   23142441.2374
       172.0004        173.0004
 -18953978.06549 -14752308.92947  20810800.053    20810800.7584   20810807.2164
       202.0004        201.0004
 -19466003.59749 -15149496.80848  20799766.383    20799766.7764   20799773.1854
       213.0004        213.0004
   2088799.23148   1655046.51446  24721323.778    24721323.9264   24721333.7454
       167.0004        167.0004
  -7391093.22547  -5744099.92345  23402708.009    23402708.3124   23402716.7714
       154.0004        157.0004
 -11516971.65349  -8962956.32647  22642613.651    22642613.3054   22642620.0744
       204.0004        204.0004
 21  2  1  0  3 30.0000000  0  8G21G08G07G04G09G03G01G27
 -14032068.83547 -10927492.04046  22274981.382    22274981.5944   22274989.4894
       163.0004        163.0004
 -22346978.40649 -17397713.12647  20411923.406    20411923.7914   20411931.5604
       210.0004        210.0004
  -9348487.78448  -7264856.31046  23128368.603    23128370.4014   23128374.6544
       172.0004        173.0004
 -18896427.90049 -14707464.64247  20821751.543    20821752.3664   20821758.4834
       202.0004        201.0004
 -19478150.34649 -15158961.80048  20797454.728    20797454.9034   20797461.9944
       213.0004        214.0004
   2134728.09348   1690835.24946  24730065.778    24730066.0004   24730074.1304
       171.0004        174.0004
  -7467447.80547  -5803596.98345  23388176.810    23388177.6554   23388187.3294
       153.0004        156.0004
 -11421290.97949  -8888399.96147  22660819.319    22660819.9594   22660827.2974
       202.0004        202.0004
 21  2  1  0  4  0.0000000  0  8G21G08G07G04G09G03G01G27
 -14074127.66047 -10960265.11446  22266977.576    22266978.8484   22266985.4994
       161.0004        163.0004
 -22306212.18249 -17365947.22947  20419681.763    20419681.8934   20419689.0934
       210.0004        210.0004
  -9422481.25848  -7322513.55746  23114288.865    23114289.0764   23114293.3524
       172.0004        173.0004
 -18838409.04449 -14662255.15547  20832792.740    20832793.0684   20832799.3434
       202.0004        201.0004
 -19489728.02849 -15167983.37548  20795250.928    20795251.6004   20795258.5494
       213.0004        213.0004
   2180390.23548   1726416.11746  24738755.692    24738756.1354   24738762.9764
       171.0004        172.0004
  -7543887.15847  -5863160.09545  23373631.795    23373631.8324   23373641.8124
       152.0004        155.0004
 -11325336.32149  -8813630.11347  22679080.521    22679079.6574   22679086.2214
       202.0004        201.0004
 21  2  1  0  4 30.0000000  0  8G21G08G07G04G09G03G01G27
 -14115950.19448 -10992854.11046  22259025.759    22259024.7614   22259027.1114
       166.0004        170.0004
 -22264914.10449 -17333766.89547  20427539.657    20427540.3044   20427548.0264
       210.0004        210.0004
  -9496546.17448  -7380226.46546  23100194.701    23100194.8294   23100199.6174
       173.0004        174.0004
 -18779924.21749 -14616682.56047  20843921.875    20843922.2104   20843928.0404
       202.0004        200.0004
 -19500737.05749 -15176561.83948  20793156.244    20793156.7334   20793163.6394
       213.0004        214.0004
   2225783.72348   1761787.62346  24747390.740    24747391.7804   24747399.9394
       167.0004        166.0004
  -7620409.20147  -5922787.63845  23359069.110    23359070.1994   23359078.3984
       153.0004        156.0004
 -11229111.18049  -8738649.47947  22697389.178    22697391.0214   22697397.5554
       201.0004        201.0004
 21  2  1  0  5  0.0000000  0  8G21G08G07G04G09G03G01G27
 -14157532.70248 -11025256.08046  22251112.330    22251111.6524   22251114.8554
       170.0004        172.0004
 -22223084.49149 -17301172.38347  20435499.837    20435500.3374   20435507.6254
       210.0004        210.0004
  -9570679.89948  -7437992.97646  23086085.558    23086087.2484   23086091.2944
       172.0004        174.0004
 -18720974.47149 -14570747.70447  20855139.495    20855140.0754   20855146.2144
       202.0004        200.0004
 -19511176.17549 -15184696.21348  20791170.151    20791170.4394   20791177.2614
       213.0004        214.0004
   2270908.49448   1796949.75146  24755979.044    24755978.7914   24755987.4374
       165.0004        166.0004
  -7697010.06047  -5982476.56645  23344493.501    23344494.4514   23344502.4064
       153.0004        156.0004
 -11132617.52749  -8663459.60447  22715752.408    22715753.6944   22715759.3624
       201.0004        202.0004
 21  2  1  0  5 30.0000000  0  8G21G08G07G04G09G03G01G27
 -14198873.02448 -11057469.29946  22243243.432    22243241.9804   22243247.8664
       169.0004        167.0004
 -22180726.04249 -17268165.79447  20443560.282    20443560.8214   20443568.0444
       209.0004        210.0004
  -9644881.38548  -7495812.29846  23071966.250    23071967.0844   23071971.5584
       173.0004        176.0004
 -18661562.50049 -14524452.66847  20866445.010    20866445.5764   20866451.5814
       202.0004        200.0004
 -19521045.75549 -15192386.78348  20789291.747    20789291.9264   20789299.2214
       214.0004        214.0004
   2315762.62948   1831901.00846  24764514.693    24764515.3634   24764523.8544
       167.0004        169.0004
  -7773687.48947  -6042225.18945  23329901.613    23329901.6584   23329909.8744
       153.0004        155.0004
 -11035858.82649  -8588063.21447  22734165.819    22734166.2044   22734172.6054
       202.0004        202.0004
 21  2  1  0  6  0.0000000  0  8G21G08G07G04G09G03G01G27
 -14239967.69847 -11089491.04746  22235419.599    22235419.9554   22235426.5684
       164.0004        163.0004
 -22137840.15849 -17234748.20747  20451721.795    20451721.8374   20451729.1524
       209.0004        210.0004
  -9719147.91648  -7553682.28446  23057833.772    23057834.9554   23057839.2054
       174.0004        177.0004
 -18601689.52749 -14477798.39547  20877838.640    20877839.1014   20877844.9854
       201.0004        200.0004
 -19530344.64949 -15199632.66748  20787522.336    20787522.8744   20787529.3524
       213.0004        214.0004
   2360345.80848   1866641.14546  24772997.115    24772998.1304   24773007.6984
       167.0004        168.0004
  -7850437.84647  -6102030.63945  23315297.007    23315296.6614   23315305.0484
       152.0004        155.0004
 -10938837.07949  -8512461.85847  22752628.395    22752628.2894   22752634.9714
       202.0004        201.0004
 21  2  1  0  6 30.0000000  0  8G21G08G07G04G09G03G01G27
 -14280815.10247 -11121320.19646  22227648.256    22227649.0704   22227654.8254
       163.0004        165.0004
 -22094429.72549 -17200921.88547  20459981.781    20459982.3024   20459989.9844
       209.0004        210.0004
  -9793478.97348  -7611602.59346  23043690.657    23043690.8674   23043694.9554
       177.0004        178.0004
 -18541358.97549 -14430787.57847  20889318.832    20889319.4824   20889325.4284
       201.0004        199.0004
 -19539074.07149 -15206434.81448  20785860.863    20785861.0674   20785868.0634
       213.0004        213.0004
   2404655.54548   1901168.21246  24781430.274    24781430.5414   24781439.4184
       168.0004        169.0004
  -7927259.58847  -6161891.71445  23300679.174    23300678.7894   23300687.0954
       152.0004        155.0004
 -10841556.54549  -8436658.86047  22771139.675    22771140.0984   22771146.7324
       201.0004        200.0004
 21  2  1  0  7  0.0000000  0  8G21G08G07G04G09G03G01G27
 -14321413.13248 -11152954.98546  22219923.879    22219923.9934   22219929.9544
       166.0004        169.0004
 -22050497.41249 -17166688.90347  20468342.033    20468342.4174   20468349.6144
       209.0004        210.0004
  -9867873.57848  -7669572.39346  23029533.113    23029533.0384   23029538.1734
       177.0004        178.0004
 -18480573.61649 -14383422.35847  20900886.038    20900886.5324   20900892.4154
       201.0004        200.0004
 -19547234.44249 -15212793.53448  20784307.957    20784308.4234   20784315.1624
       213.0004        213.0004
   2448690.18348   1935480.87246  24789809.736    24789810.3204   24789818.8354
       170.0004        171.0004
  -8004150.37747  -6221806.58345  23286046.752    23286046.8224   23286055.2004
       153.0004        156.0004
 -10744020.76549  -8360656.94947  22789700.011    22789700.2464   22789707.0234
       201.0004        200.0004
 21  2  1  0  7 30.0000000  0  7G21G08G07G04G09G01G27
 -14361755.00748 -11184390.18846  22212248.172    22212247.7424   22212253.0074
       169.0004        172.0004
 -22006041.46949 -17132047.90347  20476801.756    20476802.0284   20476809.6714
       209.0004        209.0004
  -9942326.11548  -7727587.36046  23015366.444    23015365.5674   23015369.2514
       177.0004        178.0004
 -18419331.82649 -14335701.49347  20912540.207    20912540.5094   20912546.7384
       201.0004        199.0004
 -19554821.82449 -15218705.78348  20782865.047    20782865.0414   20782871.3304
       213.0004        214.0004
  -8081103.63247  -6281770.14545  23271402.310    23271403.4104   23271410.8914
       153.0004        155.0004
 -10646228.80049  -8284455.42147  22808309.127    22808309.9004   22808316.5304
       201.0004        201.0004
 21  2  1  0  8  0.0000000  0  7G21G08G07G04G09G01G27
 -14401842.50848 -11215627.20346  22204620.581    22204619.1674   22204623.7524
       171.0004        171.0004
 -21961067.79749 -17097003.48447  20485359.674    20485360.2684   20485367.5034
       209.0004        209.0004
 -10016839.18048  -7785649.47146  23001185.633    23001186.2844   23001191.1864
       178.0004        180.0004
 -18357640.13149 -14287630.05047  20924279.470    20924280.1864   20924285.4174
       201.0004        199.0004
 -19561840.53649 -15224174.91448  20781528.920    20781529.2764   20781535.8114
       214.0004        214.0004
  -8158120.84247  -6341783.53145  23256745.583    23256747.0094   23256754.5394
       152.0004        155.0004
 -10548187.98649  -8208059.98247  22826965.742    22826966.2924   22826972.1694
       201.0004        200.0004
 21  2  1  0  8 30.0000000  0  7G21G08G07G04G09G01G27
 -14441672.36248 -11246663.43546  22197039.623    22197039.3784   22197045.0314
       170.0004        170.0004
 -21915578.60549 -17061557.34747  20494016.753    20494017.0064   20494024.1234
       209.0004        210.0004
 -10091410.91348  -7843757.31146  22986995.987    22986996.4774   22987000.1964
       180.0004        180.0004
 -18295500.30949 -14239209.41047  20936104.286    20936105.0004   20936110.7004
       201.0004        199.0004
 -19568290.14149 -15229200.57548  20780301.772    20780301.9394   20780308.6964
       214.0004        215.0004
  -8235198.80747  -6401844.27245  23242078.051    23242078.8394   23242088.1684
       153.0004        157.0004
 -10449900.84449  -8131472.59347  22845669.794    22845670.1354   22845675.9354
       200.0004        201.0004
 21  2  1  0  9  0.0000000  0  7G21G08G07G04G09G01G27
 -14481241.69248 -11277496.64246  22189509.607    22189508.6444   22189513.8744
       169.0004        170.0004
 -21869575.69149 -17025710.91147  20502770.513    20502770.5304   20502778.5284
       209.0004        209.0004
 -10166039.16748  -7901909.17946  22972793.574    22972794.6064   22972798.0114
       179.0004        180.0004
 -18232914.44649 -14190441.20747  20948014.219    20948014.4874   20948020.6494
       201.0004        199.0004
 -19574170.38449 -15233782.57848  20779182.788    20779183.1614   20779189.9404
       214.0004        215.0004
  -8312334.36147  -6461949.88345  23227400.706    23227401.3064   23227409.7434
       156.0004        159.0004
 -10351370.10849  -8054695.39547  22864420.315    22864420.2544   22864426.0854
       201.0004        201.0004
 21  2  1  0  9 30.0000000  0  7G21G08G07G04G09G01G27
 -14520548.12348 -11308125.01446  22182029.853    22182029.8054   22182034.1044
       168.0004        169.0004
 -21823060.88449 -16989465.60047  20511621.590    20511622.2874   20511629.5704
       209.0004        209.0004
 -10240722.00848  -7960103.59646  22958582.287    22958582.5524   22958587.5734
       179.0004        180.0004
 -18169884.80149 -14141327.19647  20960008.359    20960008.9244   20960014.9854
       201.0004        199.0004
 -19579481.34949 -15237920.99248  20778172.084    20778172.3754   20778179.0214
       214.0004        214.0004
  -8389524.74947  -6522098.20145  23212710.265    23212711.7954   23212721.5564
       157.0004        160.0004
 -10252598.75349  -7977730.70747  22883215.526    22883215.4804   22883221.7954
       202.0004        202.0004
 21  2  1  0 10  0.0000000  0  7G21G08G07G04G09G01G27
 -14559588.77148 -11338546.27746  22174600.265    22174599.4484   22174604.5654
       167.0004        168.0004
 -21776036.78049 -16952823.44147  20520570.033    20520570.7314   20520577.7494
       209.0004        209.0004
 -10315458.13148  -8018339.53646  22944360.623    22944361.2834   22944365.7684
       180.0004        181.0004
 -18106414.12249 -14091869.53947  20972086.775    20972087.0724   20972092.6464
       200.0004        199.0004
 -19584223.54549 -15241616.22148  20777269.050    20777269.5944   20777276.6794
       213.0004        214.0004
  -8466767.50647  -6582287.36345  23198014.468    23198014.5264   23198022.2054
       160.0004        162.0004
 -10153590.23949  -7900581.21947  22902055.214    22902055.5684   22902062.7194
       201.0004        201.0004
 21  2  1  0 10 30.0000000  0  7G21G08G07G04G09G01G27
 -14598361.22448 -11368758.55546  22167221.576    22167221.6104   22167227.0304
       168.0004        170.0004
 -21728505.17849 -16915785.81247  20529615.714    20529616.0514   20529622.8864
       209.0004        210.0004
 -10390245.48148  -8076615.37946  22930130.117    22930130.2944   22930134.0654
       181.0004        182.0004
 -18042504.40749 -14042069.75547  20984248.503    20984248.9014   20984254.8174
       201.0004        200.0004
 -19588396.77949 -15244868.07948  20776475.477    20776475.7284   20776482.0654
       213.0004        214.0004
  -8544059.51347  -6642514.89645  23183304.461    23183305.6894   23183313.4364
       158.0004        160.0004
 -10054347.15249  -7823248.94647  22920939.610    22920940.5954   22920947.2124
       200.0004        199.0004
 21  2  1  0 11  0.0000000  0  7G21G08G07G04G09G01G27
 -14636862.41448 -11398759.45346  22159896.010    22159895.1784   22159900.6754
       168.0004        170.0004
 -21680468.21449 -16878354.40447  20538756.265    20538756.6264   20538764.2494
       209.0004        209.0004
 -10465082.02148  -8134929.56446  22915887.841    22915888.5124   22915892.2564
       180.0004        180.0004
 -17978157.75649 -13991929.51047  20996492.993    20996493.3204   20996499.0674
       200.0004        199.0004
 -19592000.93849 -15247676.51748  20775790.192    20775790.1874   20775796.6734
       214.0004        215.0004
  -8621397.62047  -6702778.34646  23168589.077    23168589.1584   23168597.3154
       160.0004        163.0004
  -9954872.21349  -7745735.99947  22939870.065    22939870.0254   22939876.9094
       199.0004        199.0004
 21  2  1  0 11 30.0000000  0  7G21G08G07G04G09G01G27
 -14675089.93048 -11428547.08046  22152621.644    22152620.6504   22152626.4864
       168.0004        170.0004
 -21631928.05449 -16840530.89947  20547993.016    20547993.4624   20548001.1634
       208.0004        208.0004
 -10539966.55348  -8193281.13046  22901637.914    22901638.8774   22901643.3174
       180.0004        182.0004
 -17913376.83349 -13941450.87947  21008820.764    21008820.9794   21008826.8084
       200.0004        199.0004
 -19595036.45549 -15250041.86148  20775211.873    20775212.2724   20775219.1344
       214.0004        215.0004
  -8698779.21447  -6763075.64346  23153862.642    23153863.9954   23153871.5854
       161.0004        163.0004
  -9855168.74349  -7668044.98547  22958843.230    22958843.4724   22958849.4414
       199.0004        199.0004
 21  2  1  0 12  0.0000000  0  7G21G08G07G04G09G01G27
 -14713040.93348 -11458119.26446  22145400.274    22145399.9424   22145404.4354
       170.0004        173.0004
 -21582887.11149 -16802317.17447  20557325.526    20557325.9234   20557333.3004
       208.0004        209.0004
 -10614896.86948  -8251668.38946  22887379.515    22887379.9774   22887383.8644
       182.0004        183.0004
 -17848163.85149 -13890635.57347  21021229.590    21021229.9074   21021236.4004
       200.0004        199.0004
 -19597503.40949 -15251964.16648  20774742.377    20774742.8974   20774749.7034
       215.0004        215.0004
  -8776201.34047  -6823404.54546  23139129.929    23139130.9194   23139139.2444
       162.0004        164.0004
  -9755239.56349  -7590178.08847  22977859.868    22977859.7714   22977865.8744
       199.0004        199.0004
 21  2  1  0 12 30.0000000  0  7G21G08G07G04G09G01G27
 -14750713.74348 -11487474.68146  22138231.204    22138230.5834   22138236.1014
       172.0004        174.0004
 -21533348.16349 -16763715.38347  20566753.014    20566753.3764   20566760.0204
       209.0004        209.0004
 -10689871.69648  -8310090.32146  22873111.407    22873111.4564   22873116.0424
       180.0004        179.0004
 -17782521.76249 -13839485.89947  21033721.059    21033721.2214   21033727.0534
       199.0004        197.0004
 -19599402.60649 -15253444.05748  20774380.763    20774381.2774   20774388.3014
       214.0004        214.0004
  -8853661.65847  -6883763.20946  23124390.379    23124390.6004   23124399.0294
       162.0004        163.0004
  -9655088.23549  -7512138.10047  22996917.081    22996917.8604   22996924.2914
       200.0004        200.0004
 21  2  1  0 13  0.0000000  0  7G21G08G07G04G09G01G27
 -14788103.37848 -11516609.43746  22131116.358    22131115.7404   22131119.9944
       173.0004        173.0004
 -21483311.58049 -16724725.82347  20576274.968    20576275.1314   20576281.7974
       209.0004        209.0004
 -10764887.64448  -8368544.30046  22858836.946    22858837.3894   22858841.9294
       179.0004        178.0004
 -17716451.24549 -13788002.38247  21046293.640    21046294.5074   21046299.9744
       199.0004        198.0004
 -19600732.55049 -15254480.38048  20774127.809    20774128.2524   20774134.7864
       214.0004        214.0004
  -8931155.53147  -6944148.02145  23109642.929    23109642.5194   23109651.9814
       161.0004        162.0004
  -9554715.96449  -7433925.94047  23016017.381    23016017.8714   23016024.5254
       198.0004        198.0004
 21  2  1  0 13 30.0000000  0  7G21G08G07G04G09G01G27
 -14825209.29948 -11545523.12546  22124055.060    22124054.6104   22124059.2054
       173.0004        174.0004
 -21432781.20449 -16685351.50447  20585889.866    20585890.6034   20585897.5174
       209.0004        209.0004
 -10839944.52748  -8427030.18046  22844555.595    22844555.7624   22844558.8524
       179.0004        180.0004
 -17649956.29749 -13736188.14947  21058947.698    21058947.9674   21058953.4794
       198.0004        197.0004
 -19601495.11049 -15255074.59248  20773982.674    20773983.1034   20773989.8974
       214.0004        214.0004
  -9008681.65047  -7004557.96845  23094890.147    23094890.8284   23094898.0694
       159.0004        160.0004
  -9454127.32549  -7355545.19147  23035158.505    23035159.2194   23035165.9434
       197.0004        195.0004
 21  2  1  0 14  0.0000000  0  7G21G08G07G04G09G01G27
 -14862028.64848 -11574213.49946  22117047.402    22117047.0114   22117053.1554
       173.0004        173.0004
 -21381758.85049 -16645593.82047  20595598.739    20595599.2034   20595606.7324
       208.0004        208.0004
 -10915039.96848  -8485546.09246  22830264.043    22830264.4234   22830268.6194
       180.0004        181.0004
 -17583039.15149 -13684044.92847  21071681.372    21071682.0914   21071686.9984
       198.0004        196.0004
 -19601690.36849 -15255226.75048  20773945.750    20773946.3294   20773953.0144
       214.0004        215.0004
  -9086236.87347  -7064990.61045  23080131.558    23080131.9494   23080140.2024
       159.0004        160.0004
  -9353325.07149  -7276997.97747  23054341.699    23054341.8774   23054347.7884
       196.0004        196.0004
 21  2  1  0 14 30.0000000  0  7G21G08G07G04G09G01G27
 -14898558.99348 -11602678.69146  22110096.285    22110096.3434   22110102.0434
       172.0004        173.0004
 -21330247.79549 -16605455.33247  20605400.654    20605401.1084   20605408.8184
       208.0004        207.0004
 -10990172.67648  -8544091.08546  22815967.544    22815967.3324   22815970.3994
       180.0004        181.0004
 -17515702.57049 -13631574.85947  21084494.739    21084495.6444   21084501.0524
       198.0004        197.0004
 -19601318.98949 -15254937.36848  20774015.893    20774016.5034   20774023.3324
       214.0004        214.0004
  -9163818.57947  -7125443.86846  23065369.736    23065369.7594   23065376.7834
       162.0004        165.0004
  -9252312.45049  -7198286.85047  23073562.763    23073562.5844   23073570.7154
       196.0004        195.0004
 21  2  1  0 15  0.0000000  0  7G21G08G07G04G09G01G27
 -14934798.36448 -11630917.14546  22103201.236    22103200.9364   22103205.1624
       172.0004        172.0004
 -21278250.81049 -16564938.20047  20615295.030    20615295.7034   20615303.6914
       207.0004        207.0004
 -11065341.52948  -8602664.20946  22801663.489    22801662.9264   22801666.5464
       180.0004        180.0004
 -17447949.85549 -13578780.53447  21097388.391    21097388.9094   21097394.8734
       199.0004        198.0004
 -19600382.17849 -15254207.38448  20774194.251    20774194.8854   20774201.6034
       214.0004        215.0004
  -9241424.69247  -7185916.12046  23050600.740    23050601.2694   23050609.2034
       163.0004        164.0004
  -9151093.31649  -7119414.81247  23092824.123    23092824.3034   23092831.8934
       196.0004        196.0004
 21  2  1  0 15 30.0000000  0  7G21G08G07G04G09G01G27
 -14970744.00748 -11658926.70246  22096360.206    22096360.1044   22096365.0864
       171.0004        172.0004
 -21225769.52049 -16524043.67647  20625283.060    20625283.1914   20625290.7484
       207.0004        208.0004
 -11140543.84448  -8661263.39246  22787351.114    22787351.8624   22787356.0564
       179.0004        180.0004
 -17379782.71149 -13525663.27347  21110359.580    21110360.0424   21110367.0144
       199.0004        198.0004
 -19598879.51849 -15253036.47948  20774480.945    20774481.0674   20774487.8214
       215.0004        215.0004
  -9319051.55047  -7246404.54246  23035828.497    23035828.1904   23035838.3554
       163.0004        164.0004
  -9049669.86349  -7040383.55247  23112124.260    23112124.5734   23112132.0414
       196.0004        196.0004
 21  2  1  0 16  0.0000000  0  7G21G08G07G04G09G01G27
 -15006390.89348 -11686703.48646  22089576.819    22089576.2004   22089581.3614
       171.0004        171.0004
 -21172803.91949 -16482771.77347  20635362.302    20635362.2714   20635369.7354
       208.0004        209.0004
 -11215775.85048  -8719885.71046  22773035.031    22773035.5154   22773041.3254
       178.0004        178.0004
 -17311201.45749 -13472223.34747  21123410.411    21123410.6164   21123417.1454
       198.0004        197.0004
 -19596809.34149 -15251423.35748  20774874.425    20774875.0064   20774881.9234
       215.0004        216.0004
  -9396694.03047  -7306905.14746  23021053.702    23021054.0864   23021062.4834
       161.0004        163.0004
  -8948042.87448  -6961193.70847  23131462.010    23131463.4034   23131470.6554
       194.0004        194.0004
 21  2  1  0 16 30.0000000  0  7G21G08G07G04G09G01G27
 -15041736.68448 -11714245.63846  22082851.419    22082850.7744   22082855.6804
       172.0004        174.0004
 -21119357.03649 -16441124.84947  20645532.926    20645533.1674   20645539.8944
       208.0004        208.0004
 -11291036.03148  -8778529.99846  22758715.069    22758714.3224   22758719.2434
       179.0004        179.0004
 -17242209.16849 -13418463.12547  21136538.838    21136539.5234   21136545.5414
       198.0004        196.0004
 -19594172.58649 -15249368.74548  20775376.474    20775376.7274   20775383.6534
       215.0004        216.0004
  -9474349.67447  -7367416.02546  23006275.719    23006276.7324   23006285.1234
       162.0004        163.0004
  -8846215.87648  -6881848.00447  23150838.332    23150840.0924   23150848.1754
       192.0004        191.0004
 21  2  1  0 17  0.0000000  0  7G21G08G07G04G09G01G27
 -15076781.37348 -11741553.16946  22076181.361    22076179.9954   22076187.8264
       171.0004        171.0004
 -21065433.55049 -16399106.54047  20655794.023    20655794.1664   20655800.9604
       207.0004        207.0004
 -11366324.38048  -8837196.24446  22744388.661    22744388.3474   22744391.9254
       179.0004        181.0004
 -17172810.45849 -13364386.22547  21149745.100    21149745.7154   21149751.8414
       197.0004        196.0004
 -19590971.84349 -15246874.66748  20775985.570    20775985.7354   20775992.6374
       215.0004        215.0004
  -9552017.60047  -7427936.47446  22991496.755    22991497.7604   22991505.0124
       162.0004        164.0004
  -8744193.88848  -6802350.36847  23170253.619    23170253.9664   23170262.5354
       191.0004        192.0004
 21  2  1  0 17 30.0000000  0  7G21G08G07G04G09G01G27
 -15111522.63248 -11768624.27146  22069570.090    22069569.7084   22069575.9254
       171.0004        172.0004
 -21011035.78849 -16356718.66247  20666144.988    20666145.0904   20666152.5764
       207.0004        207.0004
 -11441639.22548  -8895883.11146  22730055.082    22730054.9594   22730060.3174
       179.0004        179.0004
 -17103007.94449 -13309994.65447  21163029.178    21163029.3324   21163035.3794
       198.0004        197.0004
 -19587207.71349 -15243941.58148  20776701.935    20776702.1594   20776708.7954
       215.0004        215.0004
  -9629694.99147  -7488464.28546  22976716.065    22976715.6434   22976724.2824
       162.0004        164.0004
  -8641980.01148  -6722703.18147  23189704.865    23189705.2114   23189713.1554
       191.0004        192.0004
 21  2  1  0 18  0.0000000  0  7G21G08G07G04G09G01G27
 -15145957.52948 -11795456.63846  22063018.424    22063017.8844   22063022.8824
       172.0004        173.0004
 -20956165.78049 -16313962.82947  20676586.189    20676586.5784   20676593.9074
       206.0004        206.0004
 -11516978.57548  -8954589.09846  22715717.999    22715718.3004   22715723.4744
       178.0004        180.0004
 -17032804.03349 -13255290.31947  21176387.785    21176388.2414   21176394.0574
       197.0004        196.0004
 -19582880.55149 -15240569.77248  20777524.951    20777525.2914   20777532.3304
       215.0004        215.0004
  -9707378.69247  -7548997.01746  22961932.734    22961933.2434   22961942.1114
       162.0004        163.0004
  -8539576.99948  -6642908.66347  23209192.275    23209191.9834   23209199.5124
       190.0004        189.0004
 21  2  1  0 18 30.0000000  0  7G21G08G07G04G09G01G27
 -15180083.53448 -11822048.30846  22056524.545    22056524.1154   22056528.4514
       172.0004        173.0004
 -20900826.37149 -16270841.21047  20687117.294    20687117.6864   20687124.9764
       206.0004        207.0004
 -11592340.54948  -9013312.69846  22701377.646    22701378.2034   22701382.3984
       179.0004        181.0004
 -16962201.47449 -13200275.33647  21189823.124    21189823.1084   21189829.5014
       197.0004        196.0004
 -19577991.16849 -15236759.85848  20778455.434    20778455.9094   20778462.5084
       214.0004        214.0004
  -9785065.95947  -7609532.51845  22947148.380    22947148.8114   22947157.8224
       161.0004        162.0004
  -8436987.98548  -6562969.19147  23228714.600    23228714.5064   23228722.2014
       190.0004        191.0004
 21  2  1  0 19  0.0000000  0  7G21G08G07G04G09G01G27
 -15213896.99948 -11848396.42546  22050089.866    22050089.6364   22050094.5114
       173.0004        174.0004
 -20845018.61449 -16227354.64347  20697737.711    20697737.9334   20697744.8654
       206.0004        206.0004
 -11667721.98548  -9072051.47346  22687032.629    22687033.0114   22687037.4744
       180.0004        180.0004
 -16891201.41949 -13144950.63147  21203333.819    21203334.5764   21203340.4224
       197.0004        195.0004
 -19572538.63949 -15232511.13948  20779493.220    20779493.8514   20779500.1804
       214.0004        215.0004
  -9862752.23147  -7670067.24845  22932364.360    22932365.4424   22932375.4314
       161.0004        162.0004
  -8334214.51148  -6482885.96847  23248270.542    23248271.4804   23248279.1424
       190.0004        191.0004
 21  2  1  0 19 30.0000000  0  7G21G08G07G04G09G01G27
 -15247395.23948 -11874498.93546  22043716.824    22043715.4514   22043719.7544
       174.0004        176.0004
 -20788744.70049 -16183504.82047  20708446.079    20708446.5314   20708453.4744
       206.0004        207.0004
 -11743120.38348  -9130803.45846  22672685.255    22672685.9944   22672689.8344
       179.0004        180.0004
 -16819806.26349 -13089318.03347  21216920.026    21216920.2494   21216927.0624
       197.0004        196.0004
 -19566523.45149 -15227823.97348  20780638.009    20780638.2884   20780645.0724
       215.0004        215.0004
  -9940434.47047  -7730598.83145  22917582.243    22917583.2434   22917591.1344
       161.0004        162.0004
  -8231259.34148  -6402661.17947  23267861.446    23267862.3174   23267870.7564
       189.0004        188.0004
 21  2  1  0 20  0.0000000  0  7G21G08G07G04G09G01G27
 -15280576.33448 -11900354.31946  22037401.919    22037401.4404   22037406.4624
       174.0004        175.0004
 -20732007.93849 -16139294.35247  20719243.401    20719243.3724   20719250.1074
       207.0004        207.0004
 -11818534.81648  -9189567.93046  22658334.079    22658334.8824   22658338.9154
       179.0004        180.0004
 -16748019.21649 -13033380.08347  21230580.280    21230580.9484   21230587.1524
       197.0004        196.0004
 -19559946.85849 -15222699.35348  20781888.718    20781889.3374   20781896.4454
       214.0004        215.0004
 -10018110.14147  -7791125.29246  22902802.972    22902802.6004   22902811.6224
       162.0004        164.0004
  -8128126.00248  -6322297.53847  23287486.344    23287488.0704   23287496.0854
       189.0004        190.0004
 21  2  1  0 20 30.0000000  0  7G21G08G07G04G09G01G27
 -15313438.32548 -11925961.04446  22031147.528    22031147.4854   22031152.6614
       175.0004        174.0004
 -20674811.08249 -16094725.37347  20730126.789    20730127.3084   20730134.0704
       206.0004        206.0004
 -11893963.62348  -9248343.61546  22643979.846    22643980.8314   22643984.6814
       180.0004        180.0004
 -16675843.54449 -12977139.31447  21244315.297    21244315.8024   21244321.3344
       197.0004        196.0004
 -19552810.14949 -15217138.28948  20783247.379    20783247.4484   20783254.2974
       214.0004        215.0004
 -10095776.99347  -7851644.87546  22888022.841    22888023.0034   22888031.0934
       162.0004        163.0004
  -8024818.12248  -6241797.90347  23307146.512    23307146.8774   23307155.3364
       190.0004        190.0004
 21  2  1  0 21  0.0000000  0  7G21G08G07G04G09G01G27
 -15345979.18448 -11951317.55846  22024955.602    22024955.5174   22024959.2714
       175.0004        176.0004
 -20617157.32049 -16049800.36247  20741097.387    20741097.9114   20741105.4874
       206.0004        206.0004
 -11969405.05448  -9307129.12646  22629623.660    22629624.5974   22629629.1104
       181.0004        180.0004
 -16603281.93949 -12920597.80047  21258122.577    21258123.3044   21258129.4014
       196.0004        194.0004
 -19545114.05549 -15211141.33848  20784711.586    20784712.2344   20784718.7554
       214.0004        215.0004
 -10173431.96847  -7912155.22545  22873245.372    22873246.0484   22873253.2024
       161.0004        161.0004
  -7921338.61948  -6161164.54447  23326838.470    23326838.9124   23326846.5004
       190.0004        190.0004
 21  2  1  0 21 30.0000000  0  7G21G08G07G04G09G01G27
 -15378196.69448 -11976422.10746  22018824.409    22018823.7034   22018829.3064
       175.0004        175.0004
 -20559049.60249 -16004521.63047  20752154.636    20752155.2154   20752162.8084
       205.0004        205.0004
 -12044857.60948  -9365923.34046  22615267.255    22615267.4014   22615270.2204
       181.0004        183.0004
 -16530337.78849 -12863758.21447  21272003.819    21272004.0944   21272009.9764
       196.0004        194.0004
 -19536860.08949 -15204709.68448  20786282.484    20786282.7824   20786289.5154
       214.0004        214.0004
 -10251072.82847  -7972654.58646  22858470.858    22858471.4744   22858479.0684
       160.0004        163.0004
  -7817691.26748  -6080400.37547  23346561.665    23346561.9874   23346569.7674
       189.0004        189.0004
 21  2  1  0 22  0.0000000  0  7G21G08G07G04G09G01G27
 -15410089.54848 -12001273.65446  22012756.009    22012754.9724   22012759.8254
       174.0004        175.0004
 -20500490.84249 -15958891.42947  20763298.797    20763298.8154   20763305.8844
       205.0004        204.0004
 -12120320.18448  -9424725.34846  22600907.272    22600907.3024   22600910.6424
       183.0004        184.0004
 -16457014.40649 -12806623.11447  21285957.214    21285957.7114   21285963.1214
       195.0004        194.0004
 -19528049.71949 -15197844.45348  20787959.213    20787959.3364   20787966.2514
       214.0004        214.0004
 -10328697.23647  -8033141.10146  22843700.448    22843699.5294   22843708.0754
       162.0004        164.0004
  -7713879.63848  -5999508.20947  23366316.567    23366316.5544   23366325.4964
       190.0004        191.0004
 21  2  1  0 22 30.0000000  0  7G21G08G07G04G09G01G27
 -15441653.45848 -12025868.89346  22006749.613    22006748.7754   22006753.8634
       175.0004        176.0004
 -20441482.30149 -15912910.73547  20774527.874    20774528.3174   20774535.0814
       205.0004        206.0004
 -12195789.25848  -9483532.40846  22586545.692    22586545.6554   22586550.3954
       183.0004        185.0004
 -16383312.93849 -12749193.39247  21299982.399    21299982.1974   21299988.3924
       196.0004        195.0004
 -19518682.10449 -15190545.00948  20789741.592    20789742.0324   20789748.8874
       214.0004        215.0004
 -10406300.54447  -8093611.18846  22828933.039    22828932.9764   22828940.7694
       163.0004        165.0004
  -7609905.12348  -5918489.11247  23386102.568    23386103.0684   23386110.8214
       191.0004        192.0004
 21  2  1  0 23  0.0000000  0  7G21G08G07G04G09G01G27
 -15472886.10048 -12050205.98846  22000806.398    22000805.2694   22000810.1714
       174.0004        175.0004
 -20382026.26649 -15866581.34747  20785842.146    20785842.2704   20785849.2884
       205.0004        206.0004
 -12271262.71248  -9542342.86946  22572182.819    22572183.4534   22572188.2104
       184.0004        185.0004
 -16309236.06149 -12691471.15147  21314077.755    21314078.5494   21314084.7264
       196.0004        195.0004
 -19508758.08549 -15182812.00948  20791629.948    20791630.2764   20791637.1094
       214.0004        214.0004
 -10483879.73347  -8154062.47646  22814167.704    22814169.0494   22814178.1594
       163.0004        164.0004
  -7505770.57548  -5837345.34647  23405920.106    23405919.7434   23405927.2194
       192.0004        193.0004
 21  2  1  0 23 30.0000000  0  7G21G08G07G04G09G01G27
 -15503783.82348 -12074282.12146  21994926.022    21994925.4704   21994930.7254
       174.0004        175.0004
 -20322124.42849 -15819904.57447  20797241.026    20797240.9194   20797248.4714
       205.0004        206.0004
 -12346737.24648  -9601154.17546  22557820.952    22557820.5534   22557825.2454
       184.0004        184.0004
 -16234785.03349 -12633457.36747  21328245.029    21328245.8804   21328252.0134
       196.0004        194.0004
 -19498277.10949 -15174645.01248  20793624.100    20793624.6364   20793631.4674
       213.0004        214.0004
 -10561430.27447  -8214491.40146  22799411.590    22799411.0274   22799420.5744
       163.0004        165.0004
  -7401477.60248  -5756078.08547  23425764.288    23425764.9004   23425773.3214
       192.0004        191.0004
 21  2  1  0 24  0.0000000  0  7G21G08G07G04G09G01G27
 -15534345.19448 -12098096.15546  21989110.603    21989109.5184   21989115.3834
       174.0004        175.0004
 -20261779.91749 -15772882.88247  20808723.828    20808724.1184   20808731.2814
       205.0004        205.0004
 -12422211.66848  -9659965.40946  22543459.415    22543459.2434   22543463.5704
       185.0004        185.0004
 -16159963.55949 -12575154.92747  21342484.105    21342484.9234   21342489.9834
       195.0004        194.0004
 -19487240.99349 -15166045.45448  20795724.708    20795725.1354   20795731.7324
       214.0004        214.0004
 -10638950.22547  -8274896.51346  22784658.627    22784659.9174   22784668.2544
       164.0004        166.0004
  -7297030.03348  -5674690.39147  23445641.131    23445641.4084   23445648.0494
       192.0004        191.0004
 21  2  1  0 24 30.0000000  0  7G21G08G07G04G09G01G27
 -15564568.24048 -12121646.57646  21983357.604    21983358.0554   21983364.5124
       174.0004        175.0004
 -20200995.98249 -15725518.78047  20820290.750    20820291.0984   20820298.3894
       205.0004        205.0004
 -12497684.21848  -9718775.17746  22529096.760    22529096.6764   22529101.2634
       184.0004        185.0004
 -16084774.83749 -12516566.32647  21356791.873    21356792.8784   21356797.9984
       196.0004        195.0004
 -19475651.18349 -15157014.43748  20797930.028    20797930.4704   20797937.2094
       214.0004        215.0004
 -10716436.91548  -8335275.72946  22769916.082    22769915.9764   22769924.1664
       167.0004        170.0004
  -7192431.30448  -5593184.88047  23465544.764    23465545.3614   23465553.0994
       191.0004        191.0004
 21  2  1  0 25  0.0000000  0  7G21G08G07G04G09G01G27
 -15594451.44348 -12144932.15746  21977670.766    21977671.8334   21977677.8164
       174.0004        174.0004
 -20139776.09049 -15677814.96747  20831939.551    20831940.0324   20831947.7994
       204.0004        204.0004
 -12573153.68048  -9777582.54846  22514735.502    22514735.6264   22514739.5614
       185.0004        186.0004
 -16009222.30049 -12457694.23147  21371168.835    21371169.1484   21371175.2054
       195.0004        194.0004
 -19463509.21449 -15147553.16048  20800240.633    20800240.8684   20800247.6244
       214.0004        214.0004
 -10793887.95548  -8395627.15446  22755176.519    22755177.1044   22755184.9374
       168.0004        170.0004
  -7087684.98248  -5511564.38947  23485477.968    23485478.2534   23485484.7674
       190.0004        189.0004
 21  2  1  0 25 30.0000000  0  7G21G08G07G04G09G01G27
 -15623992.49148 -12167951.14246  21972050.220    21972050.0954   21972055.3864
       173.0004        174.0004
 -20078123.05649 -15629773.63047  20843672.037    20843672.6354   20843679.5354
       203.0004        204.0004
 -12648618.43748  -9836386.24046  22500374.981    22500375.4164   22500379.2014
       186.0004        186.0004
 -15933308.90649 -12398540.93347  21385614.459    21385615.2134   21385620.9344
       195.0004        193.0004
 -19450816.29749 -15137662.57848  20802656.327    20802656.6104   20802662.9594
       214.0004        214.0004
 -10871300.49848  -8455948.58646  22740446.558    22740445.8134   22740454.2104
       168.0004        170.0004
  -6982794.31848  -5429831.39447  23505437.398    23505437.9424   23505445.1614
       191.0004        191.0004
 21  2  1  0 26  0.0000000  0  7G21G08G07G04G09G01G27
 -15653187.41748 -12190700.40946  21966494.806    21966494.9154   21966499.7094
       173.0004        173.0004
 -20016037.35149 -15581395.14447  20855487.589    20855487.7114   20855494.0944
       204.0004        205.0004
 -12724074.59448  -9895183.23346  22486016.244    22486016.1044   22486020.1734
       186.0004        187.0004
 -15857035.62848 -12339107.20747  21400129.200    21400129.8234   21400135.5394
       194.0004        193.0004
 -19437571.61149 -15127342.04648  20805176.457    20805177.1124   20805183.7824
       214.0004        215.0004
 -10948669.71348  -8516236.24446  22725723.177    22725723.2464   22725731.0794
       168.0004        171.0004
  -6877760.25348  -5347986.68547  23525426.240    23525425.7904   23525431.6364
       189.0004        189.0004
 21  2  1  0 26 30.0000000  0  7G21G08G07G04G09G01G27
 -15682034.34448 -12213178.53146  21961005.936    21961005.7594   21961010.1314
       173.0004        174.0004
 -19953522.79949 -15532682.50047  20867383.579    20867383.8154   20867390.9064
       204.0004        205.0004
 -12799520.30848  -9953972.09646  22471658.689    22471659.4444   22471663.6154
       186.0004        187.0004
 -15780405.69749 -12279395.59447  21414711.715    21414711.9124   21414717.7514
       195.0004        193.0004
 -19423776.68549 -15116592.75448  20807801.776    20807801.9224   20807808.8104
       214.0004        215.0004
 -11025992.96548  -8576488.11046  22711008.478    22711008.4304   22711016.7194
       168.0004        168.0004
  -6772586.30248  -5266032.97647  23545439.856    23545439.5104   23545446.6984
       189.0004        190.0004
 21  2  1  0 27  0.0000000  0  7G21G08G07G04G09G01G27
 -15710531.01648 -12235383.70246  21955583.443    21955582.5614   21955587.6124
       173.0004        174.0004
 -19890581.64549 -15483637.44147  20879360.523    20879360.5764   20879368.1144
       204.0004        204.0004
 -12874953.62748 -10012751.29447  22457304.539    22457305.1694   22457309.0074
       187.0004        188.0004
 -15703421.77248 -12219408.11147  21429360.771    21429361.5514   21429367.2694
       194.0004        193.0004
 -19409432.41849 -15105415.39748  20810531.385    20810531.7014   20810538.0824
       215.0004        215.0004
 -11103267.03148  -8636701.61446  22696303.654    22696303.9384   22696313.0124
       168.0004        170.0004
  -6667275.25948  -5183972.43147  23565480.046    23565479.5464   23565486.3564
       190.0004        189.0004
 21  2  1  0 27 30.0000000  0  7G21G08G07G04G09G01G27
 -15738675.29948 -12257314.29846  21950226.839    21950226.8634   21950233.4114
       174.0004        175.0004
 -19827216.22449 -15434261.79747  20891418.350    20891418.7104   20891426.2024
       203.0004        203.0004
 -12950372.23748 -10071519.06047  22442952.245    22442953.2854   22442957.5104
       187.0004        188.0004
 -15626086.76948 -12159147.09347  21444076.980    21444077.8424   21444083.6924
       194.0004        193.0004
 -19394539.94549 -15093810.88548  20813365.206    20813365.4364   20813371.9954
       215.0004        215.0004
 -11180488.92448  -8696874.48346  22681608.017    22681609.2804   22681616.5074
       169.0004        171.0004
  -6561830.08148  -5101807.36847  23585544.843    23585545.2504   23585552.4214
       190.0004        192.0004
 21  2  1  0 28  0.0000000  0  7G21G08G07G04G09G01G27
 -15766463.93648 -12278967.77146  21944939.214    21944939.4084   21944944.6184
       175.0004        176.0004
 -19763429.62049 -15384557.94847  20903556.509    20903556.6924   20903564.2954
       203.0004        203.0004
 -13025773.40348 -10130273.22347  22428605.031    22428605.1434   22428609.5324
       188.0004        188.0004
 -15548403.12748 -12098614.39047  21458860.039    21458860.5544   21458866.2744
       194.0004        192.0004
 -19379100.06049 -15081779.80748  20816303.168    20816303.5614   20816310.2794
       214.0004        215.0004
 -11257655.22648  -8757004.05546  22666923.647    22666925.1144   22666932.8394
       170.0004        172.0004
  -6456253.32448  -5019539.78646  23605634.389    23605635.4914   23605642.2034
       187.0004        186.0004
 21  2  1  0 28 30.0000000  0  7G21G08G07G04G09G01G27
 -15793895.49448 -12300343.00646  21939719.219    21939718.9684   21939724.2334
       175.0004        176.0004
 -19699224.96349 -15334528.34447  20915774.264    20915774.7474   20915781.7734
       203.0004        203.0004
 -13101156.19748 -10189013.03947  22414260.626    22414260.4014   22414264.8384
       188.0004        188.0004
 -15470374.20548 -12037812.64647  21473708.471    21473708.7744   21473714.7704
       193.0004        192.0004
 -19363114.40749 -15069323.46248  20819345.307    20819345.5914   20819352.3834
       214.0004        215.0004
 -11334763.39848  -8817088.32446  22652249.678    22652251.3314   22652259.2594
       170.0004        172.0004
  -6350548.31048  -4937172.24646  23625748.923    23625750.2714   23625758.3784
       186.0004        186.0004
 21  2  1  0 29  0.0000000  0  8G21G08G07G04G09G01G30G27
 -15820968.38548 -12321438.72846  21934567.685    21934567.4544   21934572.5304
       176.0004        178.0004
 -19634605.03349 -15284175.12547  20928071.063    20928071.2054   20928078.6754
       202.0004        203.0004
 -13176518.57048 -10247736.92646  22399918.162    22399918.8964   22399923.0404
       187.0004        186.0004
 -15392003.01048 -11976744.17847  21488621.581    21488622.3354   21488628.5124
       193.0004        192.0004
 -19346584.33149 -15056442.87748  20822490.787    20822491.0624   20822497.7414
       214.0004        215.0004
 -11411810.46248  -8877124.95546  22637588.398    22637589.6284   22637598.4134
       171.0004        172.0004
  -1727863.14356  -1317876.28645  24349524.499                    24349535.8994
       131.0004        145.0004
  -6244718.29848  -4854707.30846  23645891.174    23645890.1524   23645896.4694
       185.0004        186.0004
 21  2  1  0 29 30.0000000  0  8G21G08G07G04G09G01G30G27
 -15847680.51048 -12342253.37246  21929484.640    21929484.2574   21929489.4134
       177.0004        177.0004
 -19569572.59349 -15233500.49447  20940445.902    20940446.2424   20940453.8694
       202.0004        202.0004
 -13251858.72948 -10306443.54546  22385581.746    22385582.1764   22385586.1324
       186.0004        187.0004
 -15313292.72148 -11915411.49847  21503600.087    21503600.5254   21503606.2134
       193.0004        192.0004
 -19329511.34349 -15043139.25048  20825739.573    20825739.8664   20825746.6604
       214.0004        214.0004
 -11488793.66848  -8937111.82846  22622940.088    22622940.7044   22622949.5874
       172.0004        173.0004
  -1811502.23347  -1383049.57745  24333612.203    24333611.7064   24333617.1814
       140.0004        147.0004
  -6138766.39048  -4772147.39746  23666052.680    23666051.8944   23666058.9464
       185.0004        185.0004
 21  2  1  0 30  0.0000000  0  8G21G08G07G04G09G01G30G27
 -15874031.85848 -12362786.87546  21924470.041    21924469.4784   21924474.6874
       177.0004        178.0004
 -19504133.11649 -15182508.68547  20952898.141    20952898.8314   20952906.7034
       201.0004        202.0004
 -13327176.30448 -10365132.56546  22371249.245    22371249.8164   22371253.1914
       187.0004        186.0004
 -15234248.39248 -11853818.52047  21518641.316    21518641.9464   21518648.0264
       193.0004        191.0004
 -19311898.83449 -15029415.22248  20829091.597    20829091.8484   20829098.3434
       214.0004        215.0004
 -11565712.10948  -8997048.24846  22608303.392    22608303.6164   22608311.4464
       172.0004        173.0004
  -1895256.21747  -1448312.40345  24317673.788    24317673.8604   24317680.6384
       144.0004        149.0004
  -6032697.78348  -4689496.55746  23686237.436    23686236.9644   23686241.8834
       185.0004        185.0004
 21  2  1  0 30 30.0000000  0  8G21G08G07G04G09G01G30G27
 -15900017.75448 -12383035.60546  21919524.750    21919524.1034   21919529.5204
       177.0004        178.0004
 -19438287.06249 -15131200.07147  20965428.379    20965429.0694   20965436.8834
       201.0004        202.0004
 -13402467.13148 -10423800.74346  22356922.202    22356922.8174   22356926.2594
       187.0004        187.0004
 -15154870.54848 -11791965.66447  21533746.710    21533747.3854   21533753.6494
       193.0004        192.0004
 -19293745.70449 -15015269.93048  20832545.788    20832545.9974   20832552.6064
       214.0004        215.0004
 -11642560.31448  -9056929.95746  22593679.592    22593679.6984   22593688.0334
       171.0004        172.0004
  -1979121.51747  -1513661.98245  24301715.165    24301714.5064   24301721.9374
       145.0004        149.0004
  -5926512.85448  -4606755.07546  23706443.459    23706443.4724   23706449.4044
       186.0004        187.0004
 21  2  1  0 31  0.0000000  0  8G21G08G07G04G09G01G30G27
 -15925636.27548 -12402998.09246  21914649.547    21914649.3924   21914653.9864
       177.0004        177.0004
 -19372036.77349 -15079576.46147  20978035.688    20978035.7034   20978043.5834
       201.0004        202.0004
 -13477729.11148 -10482446.44146  22342599.873    22342600.4424   22342604.0034
       186.0004        186.0004
 -15075161.99148 -11729855.10947  21548915.101    21548915.3144   21548920.7794
       193.0004        192.0004
 -19275053.19549 -15000704.34448  20836102.127    20836102.6144   20836109.6624
       214.0004        214.0004
 -11719335.17048  -9116754.51046  22579068.506    22579068.8554   22579078.1234
       170.0004        170.0004
  -2063096.81247  -1579097.25145  24285735.677    24285734.8514   24285742.0804
       148.0004        153.0004
  -5820214.55248  -4523925.22446  23726671.914    23726671.4874   23726677.0854
       186.0004        185.0004
 21  2  1  0 31 30.0000000  0  8G21G08G07G04G09G01G30G27
 -15950883.56548 -12422671.30046  21909845.373    21909845.6014   21909850.6064
       178.0004        179.0004
 -19305383.44349 -15027638.79547  20990719.724    20990720.0004   20990727.5174
       201.0004        201.0004
 -13552958.44448 -10541066.69946  22328284.035    22328284.6674   22328289.4564
       186.0004        187.0004
 -14995123.99648 -11667487.84647  21564145.272    21564146.0214   21564151.9204
       192.0004        192.0004
 -19255820.96049 -14985718.18848  20839762.439    20839762.7334   20839769.8814
       214.0004        215.0004
 -11796031.85548  -9176518.14146  22564474.206    22564474.9724   22564482.5754
       170.0004        170.0004
  -2147179.28147  -1644616.03145  24269735.802    24269734.8544   24269741.8144
       151.0004        156.0004
  -5713804.05748  -4441007.97447  23746919.906    23746920.1054   23746925.9984
       187.0004        188.0004
 21  2  1  0 32  0.0000000  0  8G21G08G07G04G09G01G30G27
 -15975757.64548 -12442053.69746  21905112.296    21905111.7994   21905117.1814
       179.0004        181.0004
 -19238330.33049 -14975389.60347  21003478.384    21003479.3004   21003487.2834
       200.0004        200.0004
 -13628152.88248 -10599659.75347  22313974.801    22313975.6894   22313979.9924
       187.0004        189.0004
 -14914759.69148 -11604866.31847  21579438.522    21579438.7784   21579445.2304
       193.0004        192.0004
 -19236050.54849 -14970312.67148  20843524.978    20843525.4084   20843532.1414
       215.0004        216.0004
 -11872647.51248  -9236218.62946  22549894.735    22549895.7884   22549903.5324
       169.0004        170.0004
  -2231367.85447  -1710217.48645  24253714.300    24253713.7524   24253721.0834
       152.0004        155.0004
  -5607284.53748  -4358005.74646  23767189.544    23767189.3034   23767196.6784
       186.0004        184.0004
 21  2  1  0 32 30.0000000  0  8G21G08G07G04G09G01G30G27
 -16000257.13248 -12461144.18046  21900450.292    21900449.9754   21900454.8434
       180.0004        181.0004
 -19170880.88649 -14922831.58347  21016313.956    21016314.6354   21016322.0284
       200.0004        200.0004
 -13703311.30648 -10658224.75447  22299673.738    22299673.8834   22299677.8354
       188.0004        189.0004
 -14834072.75648 -11541993.37347  21594792.089    21594792.6904   21594799.3714
       193.0004        191.0004
 -19215744.09249 -14954489.45348  20847389.377    20847389.5684   20847395.9224
       215.0004        215.0004
 -11949179.75748  -9295854.13146  22535331.483    22535332.1294   22535339.8614
       170.0004        172.0004
  -2315662.00847  -1775901.23645  24237673.444    24237672.8864   24237679.6854
       151.0004        154.0004
  -5500659.59848  -4274921.38046  23787478.257    23787478.6594   23787485.9554
       183.0004        182.0004
 21  2  1  0 33  0.0000000  0  8G21G08G07G04G09G01G30G27
 -16024378.86848 -12479940.33646  21895859.598    21895859.5074   21895864.4994
       180.0004        180.0004
 -19103037.15549 -14869966.33047  21029224.836    21029224.8274   21029231.9844
       200.0004        200.0004
 -13778430.56848 -10716759.24846  22285378.545    22285378.7754   22285383.0544
       187.0004        187.0004
 -14753065.06648 -11478870.51947  21610207.187    21610208.1044   21610214.0884
       191.0004        190.0004
 -19194901.90849 -14938248.80248  20851354.665    20851355.3184   20851362.2624
       214.0004        215.0004
 -12025624.48948  -9355421.44746  22520784.425    22520785.1264   22520793.2964
       170.0004        171.0004
  -2400059.48047  -1841665.47745  24221613.030    24221612.6974   24221619.6274
       153.0004        156.0004
  -5393931.08748  -4191756.32446  23807787.627    23807788.5324   23807795.4984
       181.0004        180.0004
 21  2  1  0 33 30.0000000  0  8G21G08G07G04G09G01G30G27
 -16048121.63448 -12498441.18346  21891342.127    21891341.1454   21891345.5424
       179.0004        179.0004
 -19034802.47249 -14816796.44947  21042209.013    21042209.4594   21042217.0524
       200.0004        200.0004
 -13853508.95748 -10775261.87047  22271091.813    22271092.2574   22271096.0124
       188.0004        189.0004
 -14671740.24648 -11415500.54247  21625683.538    21625683.9614   21625689.9064
