     2.11           OBSERVATION DATA    G (GPS)             RINEX VERSION / TYPE
teqc  2018Jun8                          20210202 03:10:38UTCPGM / RUN BY / DATE
Linux2.6.32-573.12.1.el6.x86_64|x86_64|gcc|Win64-MinGW64|=+ COMMENT
BIT 2 OF LLI FLAGS DATA COLLECTED UNDER A/S CONDITION       COMMENT
-Unknown-                                                   MARKER NAME
CRNO                                                        MARKER NUMBER
-Unknown-           -Unknown-                               OBSERVER / AGENCY
-Unknown-           ASHTECH             -Unknown-           REC # / TYPE / VERS
-Unknown-           -Unknown-                               ANT # / TYPE
   408078.2339 -6158372.6198  1605162.9885                  APPROX POSITION XYZ
        0.0000        0.0000        0.0000                  ANTENNA: DELTA H/E/N
     1     1                                                WAVELENGTH FACT L1/2
     7    L1    L2    C1    P1    P2    S1    S2            # / TYPES OF OBSERV
    30.0000                                                 INTERVAL
Forced Modulo Decimation to 30 seconds                      COMMENT
 SNR is mapped to RINEX snr flag value [1-9]                COMMENT
  L1: 1 -> 1;  90 -> 5; 210 -> 9                            COMMENT
  L2: 1 -> 1; 150 -> 5; 250 -> 9                            COMMENT
pseudorange smoothing corrections not applied               COMMENT
  2021     2     4     0     0   30.0000000     GPS         TIME OF FIRST OBS
                                                            END OF HEADER
 21  2  4  0  0 30.0000000  0  9G21G03G16G04G07G01G08G27G09
 -10883148.13047  -8469866.34045  22613892.417    22613891.7744   22613898.1724
       158.0004        160.0004
   6967783.26248   5448717.64746  24356423.555    24356423.8554   24356432.8504
       172.0004        173.0004
  19523887.63046  15475508.10345  24486136.628    24486134.7274   24486146.0504
       124.0004        132.0004
 -21203478.28649 -16503685.72947  20463005.150    20463005.8054   20463011.0224
       210.0004        208.0004
  -6024083.03447  -4676609.99046  23665341.354    23665341.0674   23665344.8534
       164.0004        164.0004
  -3786466.31947  -2936820.70145  23930377.434    23930377.1124   23930384.6874
       145.0004        149.0004
 -23961967.38349 -18643459.63148  20197231.865    20197232.3284   20197239.9444
       213.0004        213.0004
 -13174733.28149 -10239265.85148  21999682.803    21999682.8084   21999689.4274
       216.0004        217.0004
 -17712432.55549 -13774109.07047  20972297.221    20972297.2224   20972304.0334
       211.0004        211.0004
 21  2  4  0  1  0.0000000  0  9G21G03G16G04G07G01G08G27G09
 -10932108.72047  -8508017.40745  22604575.766    22604575.1584   22604580.2984
       158.0004        159.0004
   7022637.59248   5491461.24346  24366862.508    24366863.1694   24366870.8644
       174.0004        175.0004
  19601044.93846  15535630.63945  24500820.374    24500821.4904   24500823.2004
       127.0004        135.0004
 -21165326.00649 -16473956.67947  20470265.086    20470265.6144   20470271.5854
       209.0004        208.0004
  -6094274.21147  -4731304.38846  23651982.751    23651983.2804   23651988.5404
       161.0004        163.0004
  -3857783.11847  -2992392.13045  23916806.364    23916805.6734   23916814.9154
       146.0004        150.0004
 -23942760.00549 -18628492.82648  20200886.953    20200887.1134   20200894.8794
       213.0004        213.0004
 -13091582.26849 -10174472.84548  22015505.592    22015505.6624   22015512.9074
       216.0004        217.0004
 -17745997.55949 -13800263.62047  20965909.481    20965910.1644   20965916.9784
       211.0004        212.0004
 21  2  4  0  1 30.0000000  0  9G21G03G16G04G07G01G08G27G09
 -10980936.97647  -8546065.32845  22595281.129    22595281.4544   22595287.8984
       156.0004        158.0004
   7077285.93348   5534044.35446  24377260.845    24377261.6234   24377269.2144
       173.0004        174.0004
  19678044.96846  15595630.68045  24515473.123    24515473.6414   24515480.0364
       127.0004        134.0004
 -21126635.93049 -16443808.57047  20477627.558    20477627.9984   20477634.1114
       210.0004        208.0004
  -6164587.59047  -4786094.00046  23638603.560    23638604.0174   23638608.0514
       163.0004        166.0004
  -3929276.05647  -3048100.80145  23903199.062    23903200.4164   23903209.7254
       145.0004        149.0004
 -23922960.72849 -18613064.80048  20204654.481    20204655.1444   20204662.4314
       213.0004        213.0004
 -13008044.13249 -10109378.18748  22031401.738    22031401.8534   22031409.6374
       216.0004        215.0004
 -17779018.62549 -13825994.31547  20959625.976    20959626.2324   20959633.0844
       211.0004        211.0004
 21  2  4  0  2  0.0000000  0  9G21G03G16G04G07G01G08G27G09
 -11029630.30047  -8584008.12245  22586015.621    22586015.7374   22586020.7904
       155.0004        158.0004
   7131725.98348   5576465.13646  24387621.293    24387621.5174   24387630.9564
       174.0004        176.0004
  19754886.43146  15655507.15745  24530096.218    24530096.7954   24530101.3264
       126.0004        133.0004
 -21087410.00149 -16413242.92547  20485092.154    20485092.7454   20485098.5874
       210.0004        208.0004
  -6235022.78547  -4840978.55246  23625200.646    23625199.6974   23625205.4454
       164.0004        166.0004
  -4000943.33947  -3103945.37245  23889562.562    23889561.8634   23889571.8974
       144.0004        148.0004
 -23902570.47049 -18597176.27648  20208534.775    20208535.0394   20208542.2994
       212.0004        213.0004
 -12924122.30049 -10043984.56048  22047371.625    22047372.2204   22047379.3034
       215.0004        215.0004
 -17811495.11849 -13851300.67847  20953445.805    20953446.3194   20953452.6814
       211.0004        211.0004
 21  2  4  0  2 30.0000000  0  9G21G03G16G04G07G01G08G27G09
 -11078185.10047  -8621842.98945  22576777.733    22576776.3564   22576781.8074
       156.0004        158.0004
   7185956.85548   5618722.91746  24397939.473    24397940.6454   24397951.7634
       176.0004        177.0004
  19831569.55046  15715260.19845  24544686.510    24544687.3184   24544691.4214
       127.0004        133.0004
 -21047648.69449 -16382260.09947  20492658.493    20492658.9534   20492665.0784
       209.0004        208.0004
  -6305577.57747  -4895956.27046  23611773.249    23611773.9464   23611777.9674
       164.0004        166.0004
  -4072781.92547  -3159923.38545  23875889.830    23875890.6624   23875900.8574
       142.0004        146.0004
 -23881590.06349 -18580827.89348  20212527.014    20212527.3664   20212534.8784
       212.0004        213.0004
 -12839818.76549  -9978293.49448  22063414.548    22063414.8714   22063421.3974
       215.0004        214.0004
 -17843425.06349 -13876181.16247  20947369.997    20947370.1794   20947377.0734
       211.0004        212.0004
 21  2  4  0  3  0.0000000  0  9G21G03G16G04G07G01G08G27G09
 -11126600.30147  -8659569.06845  22567565.257    22567563.4584   22567569.4614
       157.0004        160.0004
   7239975.37648   5660815.22246  24408219.964    24408221.0634   24408229.6974
       175.0004        175.0004
  19908092.19446  15774888.23545  24559251.891    24559249.3184   24559255.9914
       129.0004        137.0004
 -21007354.87749 -16350862.32047  20500325.859    20500326.8214   20500332.6284
       209.0004        208.0004
  -6376252.29847  -4951027.48246  23598325.934    23598325.9854   23598329.0034
       164.0004        166.0004
  -4144790.80247  -3216034.11545  23862190.006    23862190.3844   23862198.2594
       142.0004        147.0004
 -23860021.42549 -18564021.14048  20216630.868    20216631.5004   20216639.3954
       212.0004        213.0004
 -12755137.81749  -9912308.32848  22079527.501    22079528.3174   22079535.6004
       214.0004        213.0004
 -17874808.72349 -13900635.95847  20941397.362    20941397.7694   20941405.1774
       212.0004        212.0004
 21  2  4  0  3 30.0000000  0  9G21G03G16G04G07G01G08G27G09
 -11174872.63747  -8697183.84345  22558377.977    22558378.2474   22558383.8594
       159.0004        162.0004
   7293779.84748   5702740.69546  24418459.291    24418460.0294   24418468.4004
       173.0004        173.0004
  19984453.57846  15834390.55445  24573779.078    24573777.4494   24573786.1764
       129.0004        136.0004
 -20966529.88449 -16319050.63647  20508094.654    20508095.2424   20508101.4594
       209.0004        208.0004
  -6447045.93147  -5006191.31946  23584853.801    23584854.0724   23584858.5144
       164.0004        166.0004
  -4216967.77447  -3272275.85845  23848452.961    23848453.2154   23848463.3374
       141.0004        145.0004
 -23837866.34849 -18546757.42648  20220847.428    20220847.6864   20220855.3454
       212.0004        213.0004
 -12670082.27049  -9846031.28148  22095713.885    22095714.2264   22095721.3364
       213.0004        213.0004
 -17905644.96549 -13924664.19747  20935529.724    20935530.0924   20935537.2444
       212.0004        212.0004
 21  2  4  0  4  0.0000000  0  9G21G03G16G04G07G01G08G27G09
 -11222998.90847  -8734684.80645  22549220.683    22549220.0594   22549225.2074
       159.0004        162.0004
   7347368.84548   5744498.30946  24428657.932    24428657.7374   24428665.5044
       171.0004        172.0004
  20060653.23746  15893766.92145  24588281.517    24588280.3894   24588286.6184
       129.0004        136.0004
 -20925174.80849 -16286825.92747  20515964.559    20515964.9284   20515970.9774
       209.0004        208.0004
  -6517956.55947  -5061446.33346  23571358.403    23571359.3044   23571363.8134
       164.0004        164.0004
  -4289310.06547  -3328646.36945  23834684.149    23834686.3304   23834696.5434
       140.0004        144.0004
 -23815125.14949 -18529037.01147  20225175.129    20225175.2084   20225182.7074
       212.0004        212.0004
 -12584654.71149  -9779464.35148  22111969.492    22111969.9964   22111977.5604
       213.0004        213.0004
 -17935932.37649 -13948264.78947  20929766.482    20929766.7354   20929773.0304
       211.0004        211.0004
 21  2  4  0  4 30.0000000  0  9G21G03G16G04G07G01G08G27G09
 -11270975.90747  -8772069.44646  22540091.845    22540091.0554   22540095.2024
       160.0004        163.0004
   7400741.41348   5786087.33546  24438812.106    24438813.1784   24438821.7894
       171.0004        172.0004
  20136691.77246  15953017.71345  24602749.865    24602748.7364   24602756.8454
       128.0004        135.0004
 -20883290.33949 -16254188.68147  20523934.665    20523935.4324   20523941.2904
       209.0004        207.0004
  -6588982.38947  -5116791.11346  23557843.227    23557843.8814   23557847.8304
       164.0004        167.0004
  -4361814.60147  -3385143.34945  23820886.494    23820889.1614   23820900.6644
       139.0004        143.0004
 -23791798.36649 -18510860.27148  20229613.879    20229614.0444   20229621.6704
       212.0004        213.0004
 -12498857.20149  -9712609.15047  22128296.259    22128296.5134   22128304.4284
       212.0004        212.0004
 -17965669.12449 -13971436.26547  20924107.479    20924107.6854   20924114.3274
       211.0004        211.0004
 21  2  4  0  5  0.0000000  0  9G21G03G16G04G07G01G08G27G09
 -11318801.47447  -8809336.07345  22530989.016    22530988.6654   22530994.6454
       160.0004        162.0004
   7453895.38648   5827506.00946  24448928.133    24448929.5014   24448937.1254
       173.0004        175.0004
  20212567.92546  16012141.96345  24617189.940    24617188.6894   24617195.2044
       127.0004        134.0004
 -20840878.50149 -16221140.50347  20532005.615    20532006.0844   20532011.9444
       208.0004        207.0004
  -6660123.06148  -5172225.40446  23544305.006    23544306.4814   23544311.1464
       167.0004        169.0004
  -4434479.52547  -3441765.29545  23807061.120    23807063.8074   23807072.6314
       142.0004        148.0004
 -23767887.82349 -18492228.66847  20234163.471    20234163.8264   20234171.7024
       212.0004        212.0004
 -12412693.15649  -9645468.33347  22144693.371    22144693.1794   22144700.7264
       212.0004        212.0004
 -17994854.66049 -13994178.24447  20918553.689    20918553.9584   20918560.5284
       211.0004        211.0004
 21  2  4  0  5 30.0000000  0  9G21G03G16G04G07G01G08G27G09
 -11366472.88047  -8846482.56945  22521917.143    22521917.1174   22521922.9504
       160.0004        162.0004
   7506828.16548   5868752.30446  24459001.426    24459001.6024   24459009.7134
       174.0004        174.0004
  20288279.93846  16071138.30245  24631596.451    24631597.7244   24631602.3214
       126.0004        134.0004
 -20797941.72349 -16187683.28947  20540176.230    20540176.5384   20540182.7394
       208.0004        207.0004
  -6731377.88948  -5227748.63646  23530746.278    23530746.5874   23530751.5264
       168.0004        169.0004
  -4507303.47247  -3498511.15345  23793206.112    23793205.8364   23793214.5484
       144.0004        148.0004
 -23743395.09349 -18473143.41847  20238824.434    20238824.5714   20238832.5184
       211.0004        212.0004
 -12326166.44549  -9578044.91947  22161158.538    22161158.7454   22161166.1494
       212.0004        212.0004
 -18023488.95949 -14016490.69447  20913104.331    20913104.5654   20913111.5464
       210.0004        210.0004
 21  2  4  0  6  0.0000000  0  9G21G03G16G04G07G01G08G27G09
 -11413988.35347  -8883507.56346  22512877.261    22512876.5674   22512881.5094
       161.0004        164.0004
   7559537.99448   5909824.86946  24469030.473    24469031.2514   24469040.6934
       173.0004        174.0004
  20363827.22746  16130006.30445  24645972.052    24645972.2404   24645976.1414
       125.0004        134.0004
 -20754481.47749 -16153818.17247  20548446.371    20548446.8574   20548453.1814
       208.0004        206.0004
  -6802745.74048  -5283359.91346  23517165.843    23517166.4324   23517170.6774
       168.0004        170.0004
  -4580283.90447  -3555378.95045  23779317.020    23779317.4734   23779326.4814
       144.0004        148.0004
 -23718322.11949 -18453606.02047  20243595.628    20243595.9804   20243603.4554
       211.0004        212.0004
 -12239279.91549  -9510341.13447  22177692.267    22177693.2794   22177700.3954
       212.0004        212.0004
 -18051570.99149 -14038372.79647  20907760.719    20907761.0094   20907767.8304
       210.0004        210.0004
 21  2  4  0  6 30.0000000  0  9G21G03G16G04G07G01G08G27G09
 -11461344.48747  -8920408.41446  22503865.253    22503864.1574   22503869.2354
       162.0004        164.0004
   7612023.55548   5950722.67746  24479018.999    24479019.7804   24479028.6434
       172.0004        173.0004
  20439209.63546  16188745.82145  24660320.941    24660319.1444   24660324.2844
       128.0004        136.0004
 -20710499.12949 -16119546.23147  20556815.874    20556816.5344   20556822.4724
       208.0004        206.0004
  -6874224.54948  -5339057.65446  23503563.850    23503564.3974   23503568.7464
       169.0004        170.0004
  -4653418.37847  -3612366.81045  23765399.020    23765399.5734   23765410.1524
       143.0004        147.0004
 -23692669.58449 -18433617.02747  20248476.947    20248477.3044   20248485.0324
       211.0004        212.0004
 -12152036.24849  -9442359.06747  22194294.502    22194295.1144   22194301.9074
       212.0004        211.0004
 -18079099.56749 -14059823.65147  20902523.165    20902522.9064   20902529.4654
       211.0004        212.0004
 21  2  4  0  7  0.0000000  0  9G21G03G16G04G07G01G08G27G09
 -11508538.60247  -8957183.01746  22494883.913    22494883.3414   22494888.8854
       162.0004        164.0004
   7664283.30548   5991444.51546  24488963.502    24488964.4424   24488973.3184
       172.0004        173.0004
  20514426.67246  16247356.50745  24674631.732    24674632.0734   24674636.8254
       130.0004        138.0004
 -20665996.08449 -16084868.53147  20565284.449    20565284.9354   20565291.3384
       208.0004        206.0004
  -6945813.80748  -5394841.46946  23489941.164    23489941.9654   23489945.4904
       169.0004        171.0004
  -4726704.28747  -3669472.65545  23751451.400    23751453.1194   23751463.1184
       144.0004        148.0004
 -23666438.56549 -18413177.25447  20253468.601    20253469.2634   20253476.6964
       211.0004        212.0004
 -12064438.25049  -9374100.88147  22210964.755    22210964.8634   22210971.1764
       212.0004        212.0004
 -18106073.63949 -14080842.40047  20897388.823    20897389.4644   20897396.6104
       211.0004        211.0004
 21  2  4  0  7 30.0000000  0  9G21G03G16G04G07G01G08G27G09
 -11555567.73047  -8993829.06246  22485935.361    22485934.4754   22485940.0044
       164.0004        166.0004
   7716315.49748   6031989.03446  24498864.868    24498865.6024   24498874.3494
       171.0004        172.0004
  20589477.91446  16305837.95845  24688913.996    24688914.6404   24688919.1724
       133.0004        140.0004
 -20620973.95049 -16049786.35447  20573852.102    20573852.5644   20573858.4944
       207.0004        206.0004
  -7017512.04048  -5450710.22646  23476297.191    23476296.6274   23476301.2634
       170.0004        170.0004
  -4800139.20647  -3726694.61545  23737478.844    23737479.2134   23737489.0844
       145.0004        150.0004
 -23639630.37749 -18392287.74447  20258570.248    20258570.6164   20258577.9814
       211.0004        212.0004
 -11976488.79449  -9305568.84047  22227700.295    22227700.9044   22227707.4034
       212.0004        211.0004
 -18132492.27049 -14101428.33947  20892361.871    20892362.2434   20892369.0944
       211.0004        212.0004
 21  2  4  0  8  0.0000000  0  9G21G03G16G04G07G01G08G27G09
 -11602428.45047  -9030343.85046  22477015.323    22477015.9624   22477022.0084
       164.0004        166.0004
   7768119.00448   6072355.36946  24508722.187    24508723.1174   24508732.0074
       170.0004        170.0004
  20664363.14646  16364190.09745  24703164.108    24703164.4774   24703171.2314
       134.0004        139.0004
 -20575433.89349 -16014300.60647  20582518.028    20582518.6824   20582524.4704
       207.0004        206.0004
  -7089317.53148  -5506662.53146  23462631.780    23462632.8224   23462637.4154
       169.0004        170.0004
  -4873720.31247  -3784030.48745  23723475.828    23723477.0124   23723487.9314
       146.0004        151.0004
 -23612246.24849 -18370949.44847  20263781.195    20263781.7944   20263789.2294
       211.0004        212.0004
 -11888190.43949  -9236764.91447  22244503.660    22244503.4694   22244510.0634
       212.0004        212.0004
 -18158354.17549 -14121580.47147  20887440.699    20887441.0404   20887447.7494
       211.0004        212.0004
 21  2  4  0  8 30.0000000  0  8G21G03G04G07G01G08G27G09
 -11649116.55247  -9066724.17046  22468131.292    22468132.1004   22468137.1894
       164.0004        166.0004
   7819693.55548   6112543.32446  24518537.041    24518537.9844   24518546.1894
       169.0004        170.0004
 -20529376.16249 -15978411.47047  20591282.094    20591282.5744   20591289.0464
       207.0004        205.0004
  -7161227.42848  -5562696.21846  23448948.755    23448949.0714   23448953.4214
       170.0004        171.0004
  -4947443.70747  -3841477.22545  23709445.266    23709447.7244   23709458.9454
       148.0004        152.0004
 -23584286.02749 -18349162.25147  20269101.760    20269102.2914   20269109.8334
       211.0004        212.0004
 -11799544.62249  -9167690.26047  22261371.508    22261371.9844   22261379.2694
       212.0004        212.0004
 -18183657.05649 -14141297.01047  20882625.733    20882625.9804   20882632.9824
       211.0004        212.0004
 21  2  4  0  9  0.0000000  0  8G21G03G04G07G01G08G27G09
 -11695630.97547  -9102969.15146  22459279.748    22459279.7714   22459286.7184
       164.0004        165.0004
   7871036.83448   6152551.03646  24528307.192    24528308.4194   24528318.0554
       170.0004        171.0004
 -20482803.25149 -15942120.88247  20600144.944    20600145.5394   20600151.5964
       206.0004        205.0004
  -7233241.33548  -5618810.89746  23435244.251    23435244.5434   23435250.9424
       169.0004        170.0004
  -5021307.84447  -3899033.64545  23695391.050    23695391.4044   23695402.3614
       149.0004        152.0004
 -23555751.99449 -18326927.92547  20274532.184    20274532.0804   20274539.3334
       211.0004        212.0004
 -11710555.18049  -9098347.83447  22278305.419    22278306.5784   22278313.3944
       212.0004        212.0004
 -18208400.92149 -14160577.93547  20877917.044    20877917.5234   20877924.5934
       212.0004        212.0004
 21  2  4  0  9 30.0000000  0  8G21G03G04G07G01G08G27G09
 -11741970.36747  -9139077.74846  22450462.394    22450462.8384   22450468.1894
       164.0004        165.0004
   7922144.97848   6192375.51446  24538033.002    24538033.8734   24538042.1664
       169.0004        170.0004
 -20435719.02649 -15905431.89447  20609105.111    20609105.4154   20609111.0094
       206.0004        205.0004
  -7305359.99248  -5675007.23546  23421521.035    23421521.1854   23421526.4494
       170.0004        172.0004
  -5095312.41647  -3956699.49845  23681309.541    23681309.1924   23681319.2194
       149.0004        152.0004
 -23526647.73649 -18304249.28647  20280070.424    20280070.4754   20280078.0174
       211.0004        212.0004
 -11621227.24349  -9028741.65947  22295305.096    22295305.5204   22295312.1764
       212.0004        212.0004
 -18232587.20349 -14179424.39947  20873314.534    20873314.7574   20873321.7864
       212.0004        212.0004
 21  2  4  0 10  0.0000000  0  8G21G03G04G07G01G08G27G09
 -11788131.50147  -9175047.43746  22441679.126    22441678.5734   22441683.8744
       164.0004        167.0004
   7973016.48648   6232015.63346  24547713.294    24547714.0814   24547723.8204
       169.0004        171.0004
 -20388125.10549 -15868345.71047  20618161.391    20618161.9244   20618167.9294
       206.0004        204.0004
  -7377582.06948  -5731284.15846  23407779.096    23407779.4004   23407783.4394
       173.0004        176.0004
  -5169454.84947  -4014472.78145  23667199.997    23667201.7904   23667210.0904
       149.0004        152.0004
 -23496974.39749 -18281127.18547  20285717.136    20285717.5614   20285724.4214
       211.0004        212.0004
 -11531563.63149  -8958873.89647  22312368.519    22312367.7204   22312374.2354
       212.0004        212.0004
 -18256214.95549 -14197835.63647  20868818.385    20868818.8554   20868825.2364
       212.0004        212.0004
 21  2  4  0 10 30.0000000  0  8G21G03G04G07G01G08G27G09
 -11834111.92148  -9210876.31146  22432928.996    22432928.1554   22432933.4224
       165.0004        167.0004
   8023649.78848   6271470.11446  24557348.824    24557349.6724   24557359.1874
       171.0004        172.0004
 -20340023.22149 -15830863.73647  20627315.098    20627315.4884   20627321.1504
       205.0004        204.0004
  -7449906.28348  -5787640.67346  23394013.791    23394015.0694   23394019.3414
       173.0004        173.0004
  -5243732.75247  -4072351.62445  23653066.057    23653065.8824   23653074.8374
       150.0004        153.0004
 -23466733.80049 -18257563.08147  20291471.236    20291471.8074   20291479.2284
       211.0004        212.0004
 -11441567.37149  -8888746.94547  22329491.878    22329492.7774   22329500.0194
       212.0004        211.0004
 -18279283.47949 -14215811.11647  20864428.824    20864428.9094   20864435.5294
       212.0004        212.0004
 21  2  4  0 11  0.0000000  0  8G21G03G04G07G01G08G27G09
 -11879907.39448  -9246561.03846  22424213.154    22424213.8254   22424220.1954
       166.0004        167.0004
   8074044.60548   6310738.74346  24566938.645    24566939.1464   24566948.1154
       168.0004        169.0004
 -20291413.85149 -15792986.30247  20636565.331    20636565.6854   20636571.1674
       205.0004        204.0004
  -7522329.86348  -5844074.61246  23380234.634    23380234.7034   23380238.1984
       173.0004        176.0004
  -5318142.24447  -4130333.00145  23638907.595    23638907.9144   23638917.6484
       151.0004        154.0004
 -23435925.75749 -18233556.79347  20297333.589    20297334.0614   20297341.9084
       211.0004        212.0004
 -11351240.07849  -8818362.04047  22346681.018    22346681.3634   22346688.3064
       211.0004        210.0004
 -18301790.74249 -14233349.23647  20860146.042    20860146.2324   20860152.7814
       212.0004        212.0004
 21  2  4  0 11 30.0000000  0  8G21G03G04G07G01G08G27G09
 -11925516.93648  -9282100.92946  22415535.959    22415535.3144   22415540.0294
       166.0004        168.0004
   8124198.23448   6349819.46846  24576481.611    24576482.7824   24576491.2304
       166.0004        167.0004
 -20242299.88349 -15754715.69447  20645911.158    20645911.8464   20645917.9004
       205.0004        204.0004
  -7594852.54748  -5900585.80246  23366433.264    23366433.6234   23366437.1954
       174.0004        173.0004
  -5392682.04647  -4188415.91445  23624721.918    23624722.3754   23624730.9074
       151.0004        154.0004
 -23404553.26949 -18209110.69447  20303303.771    20303304.2704   20303311.8744
       211.0004        212.0004
 -11260585.81049  -8747722.35847  22363931.306    22363932.4974   22363938.8784
       210.0004        209.0004
 -18323737.18349 -14250450.36347  20855969.446    20855969.6734   20855976.6304
       212.0004        212.0004
 21  2  4  0 12  0.0000000  0  8G21G03G04G07G01G08G27G09
 -11970936.75048  -9317492.95946  22406891.564    22406892.4254   22406897.1414
       165.0004        166.0004
   8174109.93648   6388711.66346  24585980.139    24585981.1524   24585989.1544
       167.0004        168.0004
 -20192682.44949 -15716052.76447  20655353.013    20655353.6314   20655359.8444
       205.0004        204.0004
  -7667472.33148  -5957172.63446  23352613.322    23352614.1764   23352617.2154
       170.0004        169.0004
  -5467348.87547  -4246597.80845  23610514.247    23610514.1484   23610522.3434
       152.0004        155.0004
 -23372617.21349 -18184225.44447  20309381.658    20309381.8264   20309389.0994
       212.0004        212.0004
 -11169606.88949  -8676829.67347  22381244.973    22381245.6824   22381251.5594
       210.0004        210.0004
 -18345121.41049 -14267113.39647  20851899.819    20851900.3314   20851907.2024
       212.0004        212.0004
 21  2  4  0 12 30.0000000  0  8G21G03G04G07G01G08G27G09
 -12016163.32748  -9352734.40846  22398286.610    22398284.9614   22398291.3994
       165.0004        167.0004
   8223778.21748   6427414.17746  24595433.008    24595433.3834   24595441.2904
       169.0004        171.0004
 -20142563.13249 -15676998.76147  20664890.642    20664890.8754   20664897.0294
       205.0004        203.0004
  -7740187.64448  -6013833.90746  23338776.330    23338776.8254   23338779.9344
       170.0004        172.0004
  -5542140.05747  -4304876.58545  23596281.609    23596282.0244   23596290.3394
       153.0004        156.0004
 -23340118.49849 -18158901.76147  20315565.480    20315566.1574   20315573.3634
       212.0004        212.0004
 -11078306.10249  -8605686.18947  22398618.568    22398618.7764   22398625.7414
       209.0004        209.0004
 -18365942.60749 -14283337.71847  20847938.136    20847938.3694   20847944.7614
       212.0004        212.0004
 21  2  4  0 13  0.0000000  0  8G21G03G04G07G01G08G27G09
 -12061195.15248  -9387824.11446  22389717.416    22389716.4404   22389720.8954
       165.0004        167.0004
   8273201.02148   6465925.42746  24604837.848    24604837.8844   24604846.4354
       171.0004        172.0004
 -20091944.43349 -15637555.62547  20674523.648    20674523.7284   20674529.0894
       204.0004        203.0004
  -7812997.76148  -6070569.06046  23324921.555    23324921.7334   23324925.5634
       172.0004        174.0004
  -5617053.68547  -4363250.79745  23582026.590    23582026.8044   23582034.7454
       155.0004        157.0004
 -23307059.80049 -18133141.71847  20321856.915    20321856.8124   20321864.4834
       212.0004        212.0004
 -10986687.06449  -8534294.73947  22416052.333    22416053.3824   22416060.1634
       208.0004        208.0004
 -18386200.82449 -14299123.33247  20844082.699    20844082.9114   20844090.0224
       212.0004        212.0004
 21  2  4  0 13 30.0000000  0  8G21G03G04G07G01G08G27G09
 -12106028.96548  -9422759.52346  22381184.826    22381184.5044   22381190.4514
       165.0004        167.0004
   8322377.57448   6504244.78846  24614195.967    24614195.9784   24614204.0234
       171.0004        173.0004
 -20040827.39549 -15597724.17347  20684249.976    20684250.6604   20684256.8324
       204.0004        202.0004
  -7885900.55848  -6127376.37946  23311046.513    23311046.9114   23311053.4894
       172.0004        173.0004
  -5692086.47947  -4421717.82845  23567748.000    23567747.7824   23567756.6334
       155.0004        157.0004
 -23273441.63649 -18106945.72747  20328253.606    20328254.3624   20328261.0884
       211.0004        212.0004
 -10894751.95749  -8462656.98547  22433547.937    22433548.5874   22433554.9504
       208.0004        208.0004
 -18405894.63849 -14314469.15148  20840335.005    20840335.4884   20840342.9344
       212.0004        213.0004
 21  2  4  0 14  0.0000000  0  8G21G03G04G07G01G08G27G09
 -12150662.02648  -9457538.51546  22372691.985    22372692.0314   22372695.7664
       166.0004        168.0004
   8371305.94048   6542370.74246  24623506.066    24623506.4504   24623515.9874
       172.0004        172.0004
 -19989214.37949 -15557506.26047  20694071.778    20694072.0804   20694078.3334
       204.0004        202.0004
  -7958894.63948  -6184254.88846  23297157.248    23297158.4604   23297161.3534
       171.0004        172.0004
  -5767236.26947  -4480276.06145  23553446.561    23553446.7974   23553455.6524
       153.0004        155.0004
 -23239266.58849 -18080315.82247  20334757.591    20334757.8464   20334764.4714
       211.0004        212.0004
 -10802504.23149  -8390775.64447  22451102.790    22451103.2534   22451109.0354
       208.0004        208.0004
 -18425023.93549 -14329375.10748  20836695.356    20836695.7374   20836702.1224
       212.0004        213.0004
 21  2  4  0 14 30.0000000  0  8G21G03G04G07G01G08G27G09
 -12195090.85048  -9492158.33946  22364236.563    22364236.5624   22364241.9614
       166.0004        166.0004
   8419985.29148   6580302.65446  24632768.918    24632769.7024   24632778.5704
       172.0004        172.0004
 -19937106.65349 -15516902.84047  20703987.152    20703987.9414   20703993.9374
       203.0004        202.0004
  -8031978.21448  -6241203.12646  23283250.314    23283250.8804   23283254.9394
       171.0004        172.0004
  -5842499.91847  -4538922.99145  23539123.565    23539124.5874   23539133.5744
       152.0004        154.0004
 -23204535.38449 -18053252.55047  20341366.400    20341366.4674   20341373.8994
       211.0004        212.0004
 -10709946.22049  -8318652.51247  22468714.993    22468715.8534   22468722.4594
       208.0004        208.0004
 -18443587.56549 -14343840.28148  20833162.278    20833162.7244   20833169.9764
       212.0004        213.0004
 21  2  4  0 15  0.0000000  0  8G21G03G04G07G01G08G27G09
 -12239313.64947  -9526617.64146  22355820.593    22355820.2164   22355825.8614
       164.0004        165.0004
   8468412.95148   6618038.44846  24641983.722    24641984.5504   24641994.1294
       168.0004        168.0004
 -19884507.26449 -15475916.30947  20713997.074    20713997.3774   20714003.5294
       203.0004        202.0004
  -8105151.10648  -6298220.95146  23269326.334    23269325.9774   23269331.5524
       172.0004        174.0004
  -5917875.97247  -4597657.54045  23524780.194    23524779.9614   23524789.9424
       152.0004        155.0004
 -23169251.30349 -18025758.44647  20348080.142    20348080.3064   20348088.3774
       211.0004        211.0004
 -10617082.09849  -8246290.86047  22486386.587    22486386.9914   22486394.0904
       208.0004        207.0004
 -18461586.11349 -14357865.13848  20829737.243    20829737.6804   20829744.7674
       212.0004        213.0004
 21  2  4  0 15 30.0000000  0  8G21G03G04G07G01G08G27G09
 -12283328.29548  -9560914.74746  22347446.253    22347445.0334   22347450.7734
       165.0004        167.0004
   8516587.74848   6655577.21146  24651151.589    24651152.8854   24651161.4134
       169.0004        170.0004
 -19831418.00749 -15434548.05447  20724099.757    20724100.2854   20724106.2164
       203.0004        203.0004
  -8178411.78148  -6355307.16446  23255386.140    23255386.4724   23255389.6454
       173.0004        175.0004
  -5993361.67247  -4656477.48645  23510416.576    23510416.6884   23510426.1114
       153.0004        157.0004
 -23133415.12349 -17997834.13247  20354899.487    20354900.0054   20354907.6304
       211.0004        211.0004
 -10523914.65449  -8173692.83647  22504118.274    22504117.0354   22504123.6584
       208.0004        208.0004
 -18479018.99449 -14371449.19448  20826420.119    20826420.5184   20826427.6094
       213.0004        213.0004
 21  2  4  0 16  0.0000000  0  8G21G03G04G07G01G08G27G09
 -12327132.67148  -9595048.00146  22339109.327    22339109.6254   22339114.7114
       165.0004        166.0004
   8564506.97648   6692916.81146  24660271.444    24660272.1324   24660281.1154
       170.0004        172.0004
 -19777841.94549 -15392800.48847  20734294.434    20734295.0234   20734301.1854
       203.0004        202.0004
  -8251759.67248  -6412461.37746  23241427.110    23241427.2424   23241430.8074
       170.0004        169.0004
  -6068955.52147  -4715381.73945  23496030.234    23496032.1454   23496041.4474
       155.0004        158.0004
 -23097030.14849 -17969482.20047  20361822.951    20361823.8274   20361831.3434
       211.0004        211.0004
 -10430448.00649  -8100861.69347  22521901.825    22521903.1744   22521909.9044
       208.0004        207.0004
 -18495886.85649 -14384592.99648  20823210.290    20823210.4464   20823217.8434
       213.0004        213.0004
 21  2  4  0 16 30.0000000  0  8G21G03G04G07G01G08G27G09
 -12370721.49248  -9629013.28746  22330814.491    22330815.0674   22330820.5994
       165.0004        166.0004
   8612171.47548   6730057.91646  24669341.257    24669342.1884   24669351.4114
       170.0004        171.0004
 -19723778.82949 -15350673.38847  20744582.752    20744583.0724   20744589.1804
       203.0004        202.0004
  -8325191.05248  -6469680.61046  23227454.304    23227454.7294   23227458.2974
       170.0004        172.0004
  -6144652.72747  -4774366.51645  23481624.519    23481625.5374   23481635.4694
       154.0004        156.0004
 -23060095.63849 -17940702.05547  20368851.955    20368852.5414   20368859.7684
       211.0004        211.0004
 -10336682.93749  -8027797.99947  22539745.326    22539745.2384   22539752.5954
       207.0004        206.0004
 -18512186.97549 -14397294.38648  20820108.326    20820108.7044   20820115.7874
       213.0004        213.0004
 21  2  4  0 17  0.0000000  0  8G21G03G04G07G01G08G27G09
 -12414092.67548  -9662809.00646  22322562.350    22322562.9344   22322566.6564
       166.0004        168.0004
   8659579.34448   6766999.04446  24678362.300    24678363.0254   24678371.9254
       170.0004        171.0004
 -19669231.20249 -15308168.74847  20754962.443    20754963.2554   20754969.4834
       203.0004        202.0004
  -8398705.01548  -6526964.22246  23213464.183    23213464.4964   23213469.1554
       171.0004        171.0004
  -6220451.11747  -4833430.12945  23467201.013    23467202.2994   23467211.1784
       154.0004        156.0004
 -23022614.29549 -17911495.80647  20375984.180    20375984.3584   20375992.1474
       210.0004        211.0004
 -10242622.93549  -7954504.49647  22557643.080    22557644.0864   22557651.0224
       205.0004        205.0004
 -18527919.49849 -14409553.50148  20817114.676    20817115.0934   20817121.5414
       212.0004        213.0004
 21  2  4  0 17 30.0000000  0  8G21G03G04G07G01G08G27G09
 -12457243.96248  -9696433.34946  22314351.696    22314351.1774   22314356.3564
       167.0004        169.0004
   8706729.06448   6803739.03346  24687333.893    24687335.0344   24687343.7484
       169.0004        169.0004
 -19614201.09949 -15265288.15547  20765434.094    20765434.7524   20765441.4624
       203.0004        202.0004
  -8472300.17848  -6584311.08746  23199459.169    23199460.0274   23199463.7164
       170.0004        171.0004
  -6296348.15347  -4892570.60645  23452757.172    23452759.3894   23452769.1854
       154.0004        157.0004
 -22984587.77049 -17881864.73747  20383220.448    20383220.5944   20383228.6374
       210.0004        211.0004
 -10148271.10649  -7880983.59047  22575598.457    22575598.8884   22575606.1754
       205.0004        205.0004
 -18543084.10549 -14421370.07948  20814229.562    20814229.4354   20814236.3794
       213.0004        214.0004
 21  2  4  0 18  0.0000000  0  8G21G03G04G07G01G08G27G09
 -12500172.63848  -9729884.22346  22306180.951    22306180.3204   22306186.0214
       166.0004        165.0004
   8753619.26848   6840276.82846  24696258.786    24696258.8514   24696268.1964
       171.0004        173.0004
 -19558690.57749 -15222033.19747  20775998.080    20775998.2524   20776004.8784
       203.0004        201.0004
  -8545974.75048  -6641719.82146  23185440.683    23185441.2904   23185444.8274
       172.0004        174.0004
  -6372341.22647  -4951785.92645  23438298.213    23438298.1054   23438307.5154
       154.0004        157.0004
 -22946017.76849 -17851810.17847  20390559.939    20390560.4194   20390568.0624
       210.0004        211.0004
 -10053630.44349  -7807237.59547  22593607.708    22593607.9474   22593615.7734
       205.0004        205.0004
 -18557680.46249 -14432743.86248  20811451.504    20811452.0594   20811458.8214
       213.0004        214.0004
 21  2  4  0 18 30.0000000  0  8G21G03G04G07G01G08G27G09
 -12542876.81647  -9763160.17546  22298054.984    22298054.9074   22298060.6044
       164.0004        166.0004
   8800247.34348   6876610.34546  24705130.813    24705131.4984   24705141.8574
       170.0004        171.0004
 -19502702.96949 -15178406.50947  20786651.772    20786652.4234   20786658.3304
       203.0004        201.0004
  -8619728.57448  -6699190.32546  23171405.016    23171405.4424   23171409.7104
       172.0004        173.0004
  -6448428.92447  -5011074.98845  23423817.809    23423819.7254   23423828.5214
       154.0004        156.0004
 -22906907.72149 -17821334.81247  20398002.633    20398003.0114   20398010.6594
       210.0004        211.0004
  -9958705.16049  -7733269.85947  22611669.919    22611671.4234   22611679.1864
       204.0004        204.0004
 -18571709.48349 -14443675.57548  20808782.107    20808782.1584   20808789.1024
       213.0004        214.0004
 21  2  4  0 19  0.0000000  0  8G21G03G04G07G01G08G27G09
 -12585352.66448  -9796258.23546  22289973.028    22289972.9864   22289976.7094
       165.0004        166.0004
   8846613.20648   6912739.51646  24713953.766    24713954.2404   24713964.3154
       169.0004        169.0004
 -19446239.00449 -15134408.62047  20797397.201    20797397.3434   20797403.1814
       202.0004        201.0004
  -8693558.77648  -6756720.33546  23157355.872    23157355.9014   23157359.8294
       171.0004        172.0004
  -6524607.29147  -5070434.69245  23409321.911    23409322.7964   23409333.1094
       154.0004        157.0004
 -22867258.20849 -17790439.08047  20405547.816    20405548.0594   20405555.4404
       210.0004        211.0004
  -9863496.99849  -7659081.68047  22629788.998    22629789.0124   22629796.6004
       203.0004        203.0004
 -18585169.52849 -14454163.92648  20806220.775    20806220.8964   20806227.6684
       213.0004        214.0004
 21  2  4  0 19 30.0000000  0  8G21G03G04G07G01G08G27G09
 -12627598.67547  -9829177.18046  22281931.438    22281930.9584   22281937.9584
       163.0004        163.0004
   8892714.38248   6948662.46146  24722726.826    24722727.2724   24722737.4374
       169.0004        171.0004
 -19389301.83049 -15090042.00747  20808231.686    20808231.8784   20808238.3104
       203.0004        201.0004
  -8767464.95048  -6814309.54946  23143292.208    23143292.1414   23143297.3724
       172.0004        173.0004
  -6600874.59947  -5129863.71245  23394810.263    23394810.6144   23394819.7914
       154.0004        157.0004
 -22827072.03049 -17759125.16447  20413194.152    20413194.8284   20413202.8724
       210.0004        210.0004
  -9768009.96549  -7584676.20847  22647961.839    22647960.4614   22647967.1524
       203.0004        204.0004
 -18598061.38549 -14464209.54448  20803767.246    20803767.6844   20803774.6524
       213.0004        214.0004
 21  2  4  0 20  0.0000000  0  8G21G03G04G07G01G08G27G09
 -12669611.94547  -9861914.71046  22273936.023    22273936.0374   22273942.6414
       162.0004        164.0004
   8938549.54948   6984378.09946  24731450.588    24731451.1234   24731459.2744
       171.0004        173.0004
 -19331893.61149 -15045308.31447  20819155.676    20819156.3274   20819162.8524
       203.0004        201.0004
  -8841445.50148  -6871956.69746  23129212.517    23129213.8334   23129218.5304
       172.0004        172.0004
  -6677228.34247  -5189360.09245  23380279.722    23380280.4954   23380289.9524
       153.0004        155.0004
 -22786350.97749 -17727394.45347  20420944.296    20420944.4714   20420951.6734
       210.0004        211.0004
  -9672247.16549  -7510055.84547  22666182.773    22666183.3764   22666190.2914
       203.0004        204.0004
 -18610384.85849 -14473812.25048  20801422.268    20801422.4784   20801429.6034
       214.0004        214.0004
 21  2  4  0 20 30.0000000  0  8G21G03G04G07G01G08G27G09
 -12711389.85748  -9894468.94446  22265990.426    22265989.5904   22265992.7124
       166.0004        170.0004
   8984117.34248   7019885.36346  24740122.410    24740122.3764   24740130.3064
       171.0004        172.0004
 -19274016.43349 -15000209.23447  20830169.866    20830169.9874   20830176.7224
       203.0004        201.0004
  -8915498.78148  -6929660.55546  23115122.415    23115122.7294   23115126.5494
       172.0004        173.0004
  -6753665.73447  -5248921.64445  23365734.460    23365734.7524   23365743.7084
       152.0004        155.0004
 -22745097.10249 -17695248.57347  20428793.759    20428794.3494   20428802.2324
       210.0004        211.0004
  -9576211.53649  -7435222.90647  22684458.005    22684458.1774   22684464.9944
       202.0004        202.0004
 -18622139.68949 -14482971.88048  20799184.537    20799185.5644   20799192.6474
       213.0004        213.0004
 21  2  4  0 21  0.0000000  0  8G21G03G04G07G01G08G27G09
 -12752928.94848  -9926837.10146  22258085.216    22258085.5434   22258087.7834
       170.0004        171.0004
   9029416.76048   7055183.52646  24748738.544    24748740.1354   24748749.5884
       167.0004        167.0004
 -19215672.20549 -14954746.19947  20841272.137    20841272.3984   20841278.8494
       202.0004        201.0004
  -8989623.09048  -6987419.74546  23101016.838    23101017.1084   23101021.8184
       173.0004        175.0004
  -6830183.77347  -5308546.02845  23351172.871    23351173.8424   23351183.1964
       152.0004        155.0004
 -22703312.18749 -17662688.89247  20436745.681    20436745.9714   20436753.3624
       210.0004        211.0004
  -9479905.85149  -7360179.49647  22702784.717    22702784.9804   22702791.6514
       202.0004        202.0004
 -18633325.43349 -14491688.05848  20797056.834    20797057.0054   20797063.7684
       213.0004        213.0004
 21  2  4  0 21 30.0000000  0  8G21G03G04G07G01G08G27G09
 -12794226.88648  -9959017.29646  22250224.111    22250223.5764   22250229.8944
       168.0004        168.0004
   9074446.87148   7090271.83246  24757310.011    24757309.9724   24757319.4534
       166.0004        168.0004
 -19156862.69249 -14908920.61547  20852463.473    20852463.5414   20852470.1244
       202.0004        201.0004
  -9063816.48848  -7045232.76646  23086896.697    23086897.7204   23086902.0284
       174.0004        174.0004
  -6906779.40347  -5368230.87545  23336597.699    23336599.3684   23336606.2634
       152.0004        155.0004
 -22660997.69149 -17629716.54647  20444797.290    20444798.0494   20444805.3974
       210.0004        210.0004
  -9383332.75849  -7284927.71247  22721162.329    22721162.3794   22721169.3324
       203.0004        203.0004
 -18643941.54049 -14499960.36148  20795036.767    20795037.0994   20795043.4884
       213.0004        213.0004
 21  2  4  0 22  0.0000000  0  8G21G03G04G07G01G08G27G09
 -12835280.08848  -9991006.74746  22242409.289    22242409.1654   22242417.7174
       165.0004        165.0004
   9119206.92648   7125149.73546  24765827.982    24765828.7374   24765838.0814
       168.0004        170.0004
 -19097589.51849 -14862733.73947  20863742.638    20863743.0964   20863748.7904
       202.0004        201.0004
  -9138076.59648  -7103097.77546  23072766.176    23072766.9314   23072771.4144
       174.0004        176.0004
  -6983449.32447  -5427973.62845  23322007.761    23322008.1574   23322017.1634
       151.0004        155.0004
 -22618155.16449 -17596332.75947  20452950.508    20452950.8944   20452958.0884
       210.0004        210.0004
  -9286494.68949  -7209469.47947  22739589.752    22739589.9874   22739596.4384
       203.0004        202.0004
 -18653987.32449 -14507788.25048  20793125.099    20793125.1934   20793132.4904
       213.0004        214.0004
 21  2  4  0 22 30.0000000  0  8G21G03G04G07G01G08G27G09
 -12876086.39247 -10022803.83646  22234646.275    22234645.9604   22234652.9434
       164.0004        165.0004
   9163694.43848   7159815.26746  24774292.662    24774293.1964   24774303.9934
       169.0004        170.0004
 -19037855.98449 -14816188.12947  20875109.427    20875109.9064   20875115.7924
       202.0004        200.0004
  -9212402.95248  -7161014.39146  23058622.145    23058623.3054   23058627.7704
       175.0004        177.0004
  -7060191.84347  -5487772.94645  23307405.264    23307405.0874   23307414.0364
       152.0004        155.0004
 -22574787.74549 -17562539.94847  20461202.554    20461203.1024   20461210.9264
       210.0004        210.0004
  -9189395.71349  -7133807.94247  22758066.668    22758067.3204   22758073.6974
       202.0004        202.0004
 -18663463.73049 -14515172.47148  20791321.179    20791321.7814   20791328.8154
       214.0004        214.0004
 21  2  4  0 23  0.0000000  0  8G21G03G04G07G01G08G27G09
 -12916644.07748 -10054407.21146  22226929.228    22226928.5654   22226934.5894
       165.0004        167.0004
   9207908.23748   7194267.50946  24782707.756    24782707.5974   24782716.5574
       169.0004        169.0004
 -18977664.31549 -14769285.53747  20886563.741    20886564.0474   20886570.0834
       202.0004        200.0004
  -9286793.74648  -7218981.24746  23044467.655    23044467.7044   23044472.0224
       178.0004        180.0004
  -7137004.31047  -5547626.77245  23292787.318    23292787.7314   23292797.1004
       153.0004        156.0004
 -22530897.49849 -17528339.74647  20469554.762    20469555.1704   20469562.5044
       210.0004        210.0004
  -9092038.90649  -7057945.50047  22776592.754    22776593.6054   22776599.7244
       201.0004        201.0004
 -18672370.72149 -14522112.99948  20789626.755    20789626.8684   20789634.0594
       214.0004        214.0004
 21  2  4  0 23 30.0000000  0  8G21G03G04G07G01G08G27G09
 -12956950.83348 -10085815.05246  22219260.933    22219259.6174   22219264.3094
       169.0004        171.0004
   9251846.66348   7228505.16946  24791067.197    24791067.9314   24791077.8654
       168.0004        169.0004
 -18917017.16849 -14722028.01347  20898104.351    20898104.9544   20898110.8244
       202.0004        200.0004
  -9361247.82248  -7276997.38446  23030299.046    23030299.0814   23030303.4524
       178.0004        177.0004
  -7213884.29947  -5607533.21145  23278156.871    23278158.0414   23278166.5564
       154.0004        157.0004
 -22486486.74049 -17493733.94647  20478005.957    20478006.3264   20478013.7814
       209.0004        210.0004
  -8994427.65749  -6981884.77747  22795167.741    22795167.9614   22795174.7014
       201.0004        201.0004
 -18680708.67249 -14528610.10448  20788039.712    20788040.0224   20788047.3524
       213.0004        214.0004
 21  2  4  0 24  0.0000000  0  7G21G04G07G01G08G27G09
 -12996997.71748 -10117020.41746  22211639.710    22211638.7384   22211643.8324
       171.0004        172.0004
 -18855910.85149 -14674412.69947  20909732.752    20909733.0624   20909739.0564
       202.0004        200.0004
  -9435757.77448  -7335057.07746  23016120.805    23016120.6294   23016124.6354
       178.0004        179.0004
  -7290823.14347  -5667485.52245  23263515.492    23263516.7884   23263525.0844
       154.0004        156.0004
 -22441551.47749 -17458719.44347  20486556.372    20486557.2504   20486564.6804
       209.0004        210.0004
  -8896559.07649  -6905623.54647  22813791.872    22813791.8684   22813798.2584
       202.0004        202.0004
 -18688471.57749 -14534659.12648  20786562.929    20786563.1974   20786569.8504
       213.0004        214.0004
 21  2  4  0 24 30.0000000  0  7G21G04G07G01G08G27G09
 -13036789.36648 -10148026.87546  22204066.818    22204065.5924   22204071.3154
       170.0004        171.0004
 -18794354.98149 -14626447.08147  20921446.298    20921446.8444   20921452.2814
       202.0004        200.0004
  -9510329.21848  -7393164.68146  23001928.832    23001930.1444   23001934.2644
       178.0004        179.0004
  -7367825.44947  -5727487.27345  23248863.026    23248863.8304   23248872.0754
       154.0004        156.0004
 -22396101.27649 -17423303.68947  20495206.202    20495206.4544   20495213.6834
       210.0004        210.0004
  -8798443.48349  -6829169.83347  22832462.384    22832462.5934   22832468.9384
       201.0004        200.0004
 -18695666.79149 -14540265.79148  20785193.728    20785193.7974   20785200.7514
       214.0004        214.0004
 21  2  4  0 25  0.0000000  0  7G21G04G07G01G08G27G09
 -13076322.04048 -10178831.53946  22196543.747    22196543.5094   22196549.3614
       170.0004        172.0004
 -18732350.62449 -14578132.00047  20933245.018    20933245.8844   20933251.1814
       201.0004        199.0004
  -9584959.10848  -7451317.82146  22987727.918    22987729.1044   22987732.4854
       180.0004        182.0004
  -7444887.14047  -5787535.31345  23234199.578    23234200.2804   23234208.8564
       155.0004        158.0004
 -22350137.45049 -17387487.71347  20503952.557    20503953.0124   20503960.5944
       210.0004        210.0004
  -8700082.64949  -6752525.03247  22851180.659    22851181.0684   22851186.6894
       202.0004        203.0004
 -18702293.10149 -14545429.15548  20783932.446    20783932.9794   20783939.9314
       214.0004        214.0004
 21  2  4  0 25 30.0000000  0  7G21G04G07G01G08G27G09
 -13115593.29848 -10209432.50446  22189069.957    22189070.5634   22189075.7544
       169.0004        169.0004
 -18669900.25449 -14529469.38747  20945129.609    20945130.0184   20945135.4844
       201.0004        200.0004
  -9659645.60248  -7509515.08346  22973515.096    22973515.9794   22973519.6394
       179.0004        180.0004
  -7522005.60347  -5847627.57845  23219523.688    23219524.1024   23219533.6094
       156.0004        158.0004
 -22303661.65949 -17351272.80247  20512796.730    20512796.8974   20512804.3204
       209.0004        210.0004
  -8601479.79049  -6675691.63047  22869944.258    22869943.8124   22869949.8054
       202.0004        202.0004
 -18708350.71849 -14550149.38548  20782779.745    20782780.4894   20782787.4514
       214.0004        215.0004
 21  2  4  0 26  0.0000000  0  7G21G04G07G01G08G27G09
 -13154600.18448 -10239827.44746  22181646.611    22181647.1994   22181652.4854
       168.0004        168.0004
 -18607005.84849 -14480460.76647  20957097.453    20957098.0754   20957104.4074
       201.0004        200.0004
  -9734387.48548  -7567755.51746  22959292.402    22959292.7104   22959296.9444
       179.0004        180.0004
  -7599177.71847  -5907761.66045  23204838.412    23204839.5104   23204848.7874
       158.0004        161.0004
 -22256676.34549 -17314660.86047  20521737.298    20521737.8994   20521744.9964
       209.0004        209.0004
  -8502637.59349  -6598671.74947  22888752.704    22888752.5254   22888759.5794
       203.0004        202.0004
 -18713839.44949 -14554426.32148  20781735.914    20781735.8124   20781742.6844
       214.0004        215.0004
 21  2  4  0 26 30.0000000  0  7G21G04G07G01G08G27G09
 -13193339.17348 -10270013.65946  22174274.398    22174274.4244   22174280.4424
       167.0004        169.0004
 -18543669.02249 -14431107.39147  20969150.181    20969150.2454   20969156.4854
       201.0004        199.0004
  -9809181.82548  -7626036.80746  22945058.946    22945059.4904   22945065.1294
       180.0004        181.0004
  -7676399.91247  -5967934.77745  23190144.867    23190144.5104   23190152.8254
       159.0004        160.0004
 -22209182.22049 -17277652.43747  20530776.025    20530776.0104   20530783.1334
       209.0004        209.0004
  -8403558.30849  -6521467.10547  22907606.083    22907606.6464   22907613.7484
       202.0004        201.0004
 -18718758.61749 -14558259.45048  20780799.510    20780799.6984   20780806.4824
       214.0004        214.0004
 21  2  4  0 27  0.0000000  0  7G21G04G07G01G08G27G09
 -13231807.92148 -10299989.29546  22166954.209    22166954.2374   22166960.0974
       167.0004        168.0004
 -18479892.34849 -14381411.30247  20981286.991    20981287.3734   20981292.9964
       201.0004        200.0004
  -9884027.15348  -7684357.84146  22930818.066    22930818.5754   22930821.7044
       181.0004        183.0004
  -7753669.62747  -6028144.92845  23175441.197    23175440.5264   23175448.4354
       159.0004        161.0004
 -22161182.48649 -17240250.04947  20539909.376    20539909.7354   20539917.1904
       209.0004        209.0004
  -8304245.18549  -6444080.25847  22926504.131    22926505.2324   22926512.1034
       200.0004        200.0004
 -18723108.68049 -14561649.12048  20779971.386    20779971.9254   20779978.8634
       214.0004        214.0004
 21  2  4  0 27 30.0000000  0  7G21G04G07G01G08G27G09
 -13270004.73848 -10329752.98646  22159686.040    22159686.6284   22159692.4784
       168.0004        170.0004
 -18415678.97649 -14331374.90147  20993505.749    20993506.3604   20993512.0934
       201.0004        199.0004
  -9958922.35848  -7742717.73346  22916564.873    22916565.8264   22916569.8224
       182.0004        182.0004
  -7830984.77147  -6088390.44746  23160726.641    23160727.6414   23160736.4564
       160.0004        163.0004
 -22112679.57049 -17202455.55647  20549139.703    20549139.7784   20549147.1514
       209.0004        209.0004
  -8204702.02849  -6366514.15147  22945446.696    22945447.2934   22945454.0434
       200.0004        199.0004
 -18726890.47049 -14564595.96648  20779252.211    20779252.4994   20779259.4784
       214.0004        215.0004
 21  2  4  0 28  0.0000000  0  7G21G04G07G01G08G27G09
 -13307925.60848 -10359301.69346  22152471.135    22152470.7744   22152476.3324
       170.0004        172.0004
 -18351030.01249 -14280999.10247  21005807.654    21005808.5294   21005814.7614
       200.0004        199.0004
 -10033864.71148  -7801114.36746  22902303.498    22902304.1744   22902307.8924
       181.0004        181.0004
  -7908341.23447  -6148668.18446  23146007.337    23146008.2524   23146016.3824
       161.0004        164.0004
 -22063674.83549 -17164270.04647  20558465.119    20558465.2644   20558472.3564
       209.0004        210.0004
  -8104930.53149  -6288770.12347  22964432.994    22964433.3794   22964440.4514
       200.0004        199.0004
 -18730102.95049 -14567099.21548  20778640.785    20778641.2384   20778648.0884
       215.0004        215.0004
 21  2  4  0 28 30.0000000  0  7G21G04G07G01G08G27G09
 -13345568.47948 -10388633.78446  22145308.302    22145308.2144   22145312.4974
       172.0004        173.0004
 -18285948.55549 -14230286.27747  21018192.398    21018193.0794   21018199.1764
       200.0004        199.0004
 -10108852.85548  -7859546.66546  22888034.436    22888035.0354   22888039.0744
       182.0004        182.0004
  -7985736.80947  -6208976.38746  23131278.834    23131279.7514   23131288.6394
       162.0004        164.0004
 -22014171.03649 -17125695.64347  20567885.491    20567885.7164   20567892.3054
       209.0004        210.0004
  -8004934.37649  -6210851.05147  22983462.684    22983461.9054   22983469.1914
       199.0004        199.0004
 -18732747.04249 -14569159.55048  20778137.848    20778138.0064   20778144.8174
       215.0004        215.0004
 21  2  4  0 29  0.0000000  0  7G21G04G07G01G08G27G09
 -13382930.97548 -10417747.39246  22138198.616    22138197.8974   22138202.7944
       172.0004        174.0004
 -18220437.00649 -14179238.32947  21030659.046    21030659.6934   21030665.5554
       200.0004        198.0004
 -10183885.22748  -7918013.44846  22873755.500    22873755.5654   22873760.4494
       181.0004        180.0004
  -8063168.69347  -6269312.87946  23116544.398    23116544.4834   23116553.3164
       162.0004        163.0004
 -21964170.54949 -17086734.21247  20577400.208    20577400.3694   20577407.2844
       209.0004        209.0004
  -7904716.59649  -6132759.26647  23002533.275    23002533.1524   23002539.9264
       199.0004        199.0004
 -18734822.94149 -14570777.14248  20777742.538    20777743.0334   20777749.7974
       214.0004        214.0004
 21  2  4  0 29 30.0000000  0  7G21G04G07G01G08G27G09
 -13420010.69648 -10446640.66946  22131141.621    22131141.7214   22131146.9304
       173.0004        175.0004
 -18154498.09149 -14127857.36647  21043207.303    21043207.5954   21043213.1004
       200.0004        198.0004
 -10258960.11448  -7976513.35346  22859468.968    22859469.6694   22859474.0064
       179.0004        180.0004
  -8140634.29747  -6329675.63845  23101801.912    23101802.6074   23101810.3554
       160.0004        161.0004
 -21913675.93449 -17047387.75347  20587008.230    20587008.7704   20587016.3024
       209.0004        209.0004
  -7804280.41149  -6054497.30047  23021645.569    23021645.7704   23021652.5964
       198.0004        198.0004
 -18736331.26449 -14571952.46348  20777455.088    20777455.6714   20777462.6574
       214.0004        214.0004
 21  2  4  0 30  0.0000000  0  7G21G04G07G01G08G27G09
 -13456804.22648 -10475310.93846  22124139.761    22124139.3234   22124144.9554
       173.0004        172.0004
 -18088133.49449 -14076144.69747  21055835.388    21055836.1084   21055841.8704
       199.0004        198.0004
 -10334075.19548  -8035044.57146  22845176.473    22845176.8054   22845180.8484
       180.0004        181.0004
  -8218129.92247  -6390061.82145  23087055.354    23087056.4064   23087063.9204
       160.0004        162.0004
 -21862688.26149 -17007657.09147  20596710.508    20596711.3124   20596718.6654
       208.0004        208.0004
  -7703628.15449  -5976066.95447  23040798.152    23040799.5934   23040806.1704
       197.0004        197.0004
 -18737271.55549 -14572685.15748  20777276.053    20777276.7324   20777283.8264
       214.0004        214.0004
 21  2  4  0 30 30.0000000  0  7G21G04G07G01G08G27G09
 -13493310.37448 -10503757.27046  22117192.589    22117192.0844   22117198.5734
       172.0004        173.0004
 -18021347.47549 -14024103.64947  21068544.578    21068545.6214   21068550.2514
       199.0004        197.0004
 -10409229.91348  -8093606.67746  22830875.065    22830875.3304   22830879.1424
       181.0004        182.0004
  -8295654.54347  -6450470.59246  23072304.029    23072305.2504   23072311.9104
       161.0004        164.0004
 -21811212.34249 -16967545.97047  20606506.219    20606506.4864   20606514.0654
       208.0004        208.0004
  -7602764.59749  -5897471.97147  23059992.725    23059992.8164   23060000.2704
       197.0004        196.0004
 -18737645.88249 -14572976.84248  20777205.978    20777206.0804   20777212.8284
       215.0004        216.0004
 21  2  4  0 31  0.0000000  0  7G21G04G07G01G08G27G09
