     2.11           OBSERVATION DATA    G (GPS)             RINEX VERSION / TYPE
teqc  2018Jun8                          20210202 03:10:36UTCPGM / RUN BY / DATE
Linux2.6.32-573.12.1.el6.x86_64|x86_64|gcc|Win64-MinGW64|=+ COMMENT
BIT 2 OF LLI FLAGS DATA COLLECTED UNDER A/S CONDITION       COMMENT
-Unknown-                                                   MARKER NAME
CRNO                                                        MARKER NUMBER
-Unknown-           -Unknown-                               OBSERVER / AGENCY
-Unknown-           ASHTECH             -Unknown-           REC # / TYPE / VERS
-Unknown-           -Unknown-                               ANT # / TYPE
   408078.7420 -6158375.1890  1605165.7842                  APPROX POSITION XYZ
        0.0000        0.0000        0.0000                  ANTENNA: DELTA H/E/N
     1     1                                                WAVELENGTH FACT L1/2
     7    L1    L2    C1    P1    P2    S1    S2            # / TYPES OF OBSERV
    30.0000                                                 INTERVAL
Forced Modulo Decimation to 30 seconds                      COMMENT
 SNR is mapped to RINEX snr flag value [1-9]                COMMENT
  L1: 1 -> 1;  90 -> 5; 210 -> 9                            COMMENT
  L2: 1 -> 1; 150 -> 5; 250 -> 9                            COMMENT
pseudorange smoothing corrections not applied               COMMENT
  2021     1    31     0     0   30.0000000     GPS         TIME OF FIRST OBS
                                                            END OF HEADER
 21  1 31  0  0 30.0000000  0 10G22G03G04G07G21G27G01G09G16G08
  -1783039.09547  -1361091.85945  24667759.343    24667758.5574   24667770.3204
       140.0004        145.0004
  -1648792.02748  -1243238.53846  23995614.003    23995615.1994   23995622.7504
       176.0004        177.0004
 -21621523.96149 -16834044.95947  20281772.495    20281772.8644   20281778.9244
       214.0004        212.0004
  -4159957.85747  -3214021.81945  24095057.939    24095058.0774   24095064.4364
       155.0004        158.0004
 -10697627.36147  -8176744.36145  22929161.285    22929160.6894   22929166.8764
       148.0004        152.0004
 -17969449.96649 -13977474.18048  21527205.415    21527205.6974   21527213.0994
       223.0004        223.0004
  -2449705.31647  -1882928.00745  24350770.650    24350770.7144   24350786.5944
       137.0004        142.0004
 -16675571.94049 -12963327.14747  21243466.961    21243467.0534   21243475.8584
       201.0004        201.0004
  -2017441.77347  -1541294.39845  23980815.277    23980814.2964   23980817.4204
       139.0004        143.0004
 -23701129.59549 -18451237.42448  20143155.650    20143155.9984   20143163.9354
       212.0004        213.0004
 21  1 31  0  1  0.0000000  0 10G22G03G04G07G21G27G01G09G16G08
  -1735530.66147  -1324072.74145  24676800.277    24676799.4994   24676809.7984
       139.0004        144.0004
  -1588245.92948  -1196059.83946  24007134.993    24007135.8764   24007144.6494
       175.0004        176.0004
 -21601810.80849 -16818684.07847  20285523.598    20285524.1804   20285530.1874
       213.0004        212.0004
  -4225614.78647  -3265183.02245  24082563.604    24082564.4644   24082569.8004
       156.0004        158.0004
 -10749253.49347  -8216972.41745  22919337.527    22919335.8714   22919342.4714
       149.0004        151.0004
 -17900463.56249 -13923718.54948  21540333.095    21540333.5964   21540340.7504
       223.0004        223.0004
  -2514086.93847  -1933095.15145  24338517.644    24338519.0094   24338535.9704
       135.0004        140.0004
 -16726373.80449 -13002913.01947  21233799.089    21233800.0494   21233808.1574
       201.0004        201.0004
  -1935648.78947  -1477559.59045  23996379.933    23996379.8914   23996384.4094
       140.0004        145.0004
 -23701284.11849 -18451357.83648  20143126.287    20143126.3724   20143134.4414
       213.0004        213.0004
 21  1 31  0  1 30.0000000  0 10G22G03G04G07G21G27G01G09G16G08
  -1688261.86547  -1287240.32945  24685797.874    24685795.9374   24685804.5024
       139.0004        143.0004
  -1527841.84248  -1148991.78746  24018629.881    24018630.4494   24018641.3194
       176.0004        177.0004
 -21581529.53949 -16802880.48447  20289383.475    20289383.8564   20289389.7974
       214.0004        212.0004
  -4291424.87847  -3316463.55545  24070041.753    24070041.9374   24070046.8784
       156.0004        158.0004
 -10800835.80847  -8257166.30545  22909520.321    22909520.1064   22909526.4614
       149.0004        152.0004
 -17831002.87449 -13869593.30448  21553551.647    21553551.5734   21553559.0644
       223.0004        224.0004
  -2578711.87246  -1983451.87645  24326220.906    24326221.4384   24326235.5504
       132.0004        138.0004
 -16776683.17849 -13042115.10647  21224226.489    21224227.0804   21224234.9314
       201.0004        203.0004
  -1853982.50147  -1413923.51945  24011920.022    24011919.7964   24011924.6664
       139.0004        144.0004
 -23700828.77849 -18451003.00448  20143212.846    20143213.2814   20143220.8544
       212.0004        213.0004
 21  1 31  0  2  0.0000000  0 10G22G03G04G07G21G27G01G09G16G08
  -1641233.01247  -1250594.93045  24694745.778    24694744.8014   24694754.9394
       140.0004        146.0004
  -1467580.94848  -1102035.33346  24030097.481    24030097.7484   24030107.3984
       176.0004        178.0004
 -21560679.85349 -16786633.98747  20293350.659    20293351.2614   20293357.3674
       213.0004        212.0004
  -4357386.56647  -3367862.23245  24057488.322    24057489.5324   24057494.0754
       156.0004        159.0004
 -10852370.60247  -8297323.21145  22899712.092    22899712.2834   22899719.1834
       150.0004        154.0004
 -17761069.57249 -13815099.80848  21566859.091    21566858.8674   21566866.5534
       223.0004        223.0004
  -2643577.41146  -2033996.11545  24313876.658    24313877.1894   24313891.1154
       131.0004        136.0004
 -16826497.39249 -13080931.37047  21214747.898    21214748.3954   21214755.7744
       203.0004        204.0004
  -1772443.22547  -1350386.41845  24027435.497    24027436.2804   24027441.2354
       139.0004        143.0004
 -23699762.42649 -18450172.07047  20143416.016    20143416.1764   20143423.7054
       212.0004        212.0004
 21  1 31  0  2 30.0000000  0 10G22G03G04G07G21G27G01G09G16G08
  -1594444.23447  -1214136.58145  24703648.991    24703647.9794   24703659.9324
       140.0004        144.0004
  -1407464.33548  -1055191.31646  24041537.221    24041537.5434   24041546.9884
       176.0004        177.0004
 -21539261.19349 -16769944.13947  20297427.081    20297427.0064   20297432.7224
       213.0004        211.0004
  -4423497.94547  -3419377.52845  24044907.956    24044908.6154   24044914.0924
       155.0004        157.0004
 -10903854.57347  -8337440.49245  22889915.003    22889914.7264   22889922.5904
       151.0004        154.0004
 -17690664.99449 -13760239.09448  21580255.317    21580256.2194   21580264.3034
       222.0004        222.0004
  -2708680.75746  -2084725.68145  24301486.079    24301486.5264   24301503.7464
       127.0004        134.0004
 -16875813.48449 -13119359.49247  21205363.828    21205364.3674   21205371.0354
       204.0004        206.0004
  -1691031.24747  -1286948.50245  24042929.345    24042929.3514   24042933.1434
       139.0004        143.0004
 -23698084.40949 -18448864.52048  20143735.118    20143735.4204   20143742.9574
       212.0004        213.0004
 21  1 31  0  3  0.0000000  0 10G22G03G04G07G21G27G01G09G16G08
  -1547898.45147  -1177867.53545  24712504.867    24712504.2184   24712516.2374
       137.0004        141.0004
  -1347496.05148  -1008462.86046  24052948.490    24052949.2494   24052958.2484
       176.0004        177.0004
 -21517276.00749 -16752812.81947  20301609.996    20301610.8714   20301616.9634
       213.0004        212.0004
  -4489760.25747  -3471010.42045  24032300.308    24032300.3684   24032304.9624
       156.0004        159.0004
 -10955286.75447  -8377517.39245  22880128.870    22880128.4964   22880135.6894
       151.0004        154.0004
 -17619793.57749 -13705014.58248  21593743.177    21593743.2564   21593750.7974
       222.0004        222.0004
  -2774021.71746  -2135640.37745  24289054.660    24289056.1174   24289068.9244
       133.0004        141.0004
 -16924631.50749 -13157399.50347  21196074.927    21196075.3384   21196081.4754
       206.0004        207.0004
  -1609749.30147  -1223611.91045  24058396.324    24058396.1164   24058400.7724
       139.0004        143.0004
 -23695796.68449 -18447081.85147  20144170.513    20144170.5484   20144178.3924
       212.0004        212.0004
 21  1 31  0  3 30.0000000  0 10G22G03G04G07G21G27G01G09G16G08
  -1501595.84247  -1141788.03245  24721318.889    24721316.5394   24721328.4144
       136.0004        141.0004
  -1287677.34448   -961850.96346  24064330.981    24064332.4824   24064343.5044
       177.0004        179.0004
 -21494724.03849 -16735239.87547  20305901.544    20305902.1884   20305907.9214
       213.0004        212.0004
  -4556171.85147  -3522759.69745  24019660.819    24019661.3274   24019666.4094
       155.0004        157.0004
 -11006663.84747  -8417551.41945  22870352.944    22870351.4284   22870358.6424
       151.0004        154.0004
 -17548457.02149 -13649427.65548  21607317.518    21607317.7934   21607325.4864
       222.0004        222.0004
  -2839597.68747  -2186738.25145  24276575.610    24276577.6914   24276589.3344
       136.0004        141.0004
 -16972948.81349 -13195049.36847  21186881.315    21186881.0834   21186887.2934
       207.0004        208.0004
  -1528597.90747  -1160377.06645  24073837.116    24073838.6014   24073843.6394
       136.0004        141.0004
 -23692898.63349 -18444823.63547  20144721.771    20144722.1024   20144729.8364
       212.0004        212.0004
 21  1 31  0  4  0.0000000  0 10G22G03G04G07G21G27G01G09G16G08
  -1455537.96947  -1105899.25445  24730084.660    24730084.8204   24730092.9014
       137.0004        142.0004
  -1228010.34948   -915357.27746  24075686.960    24075686.9184   24075696.7294
       179.0004        181.0004
 -21471605.96249 -16717225.77947  20310301.486    20310301.8304   20310307.4544
       213.0004        212.0004
  -4622731.75947  -3574624.50445  24006993.698    24006995.6854   24007000.5234
       154.0004        157.0004
 -11057983.01247  -8457540.26345  22860585.002    22860585.4844   22860593.2284
       152.0004        155.0004
 -17476657.95349 -13593480.29848  21620980.875    21620980.5284   21620988.4154
       222.0004        221.0004
  -2905406.84846  -2238017.79845  24264051.156    24264050.0314   24264065.3234
       132.0004        138.0004
 -17020763.69649 -13232307.69647  21177781.194    21177781.6024   21177787.9214
       207.0004        206.0004
  -1447578.16546  -1097244.80945  24089254.268    24089253.1974   24089260.5474
       134.0004        139.0004
 -23689390.58849 -18442090.06047  20145389.251    20145389.6624   20145397.6154
       212.0004        212.0004
 21  1 31  0  4 30.0000000  0 10G22G03G04G07G21G27G01G09G16G08
  -1409725.41447  -1070201.60145  24738802.120    24738800.4284   24738809.5054
       138.0004        142.0004
  -1168496.88248   -868983.27546  24087011.730    24087012.4684   24087022.4734
       180.0004        181.0004
 -21447921.98649 -16698770.75147  20314808.071    20314808.5144   20314814.3224
       213.0004        211.0004
  -4689438.94947  -3626604.09545  23994302.133    23994302.0154   23994306.9764
       156.0004        158.0004
 -11109241.03347  -8497481.53245  22850831.166    22850831.2314   22850838.9524
       153.0004        156.0004
 -17404398.55249 -13537174.27548  21634731.274    21634731.1844   21634738.7394
       221.0004        221.0004
  -2971446.81646  -2289477.19645  24251483.159    24251485.5194   24251498.8974
       131.0004        138.0004
 -17068073.99349 -13269172.88047  21168777.689    21168778.0974   21168784.6824
       205.0004        204.0004
  -1366690.61347  -1034215.55745  24104650.140    24104649.4664   24104651.4474
       136.0004        142.0004
 -23685272.48549 -18438881.15247  20146173.253    20146173.3774   20146180.7154
       212.0004        212.0004
 21  1 31  0  5  0.0000000  0 10G22G03G04G07G21G27G01G09G16G08
  -1364161.03647  -1034697.27945  24747472.598    24747471.4814   24747482.4344
       137.0004        141.0004
  -1109140.56248   -822731.64446  24098305.043    24098306.6754   24098317.4104
       179.0004        179.0004
 -21423674.61649 -16679876.67347  20319421.869    20319422.4164   20319428.5294
       213.0004        211.0004
  -4756294.55747  -3678699.29645  23981579.236    23981579.5984   23981584.9954
       155.0004        157.0004
 -11160437.08747  -8537374.41145  22841090.095    22841089.1944   22841096.6924
       154.0004        156.0004
 -17331683.01849 -13480512.78248  21648568.995    21648568.7624   21648576.1544
       221.0004        221.0004
  -3037717.34646  -2341116.27045  24238872.608    24238874.2964   24238889.5084
       133.0004        139.0004
 -17114879.58049 -13305644.71547  21159869.050    21159869.9204   21159877.7194
       203.0004        202.0004
  -1285937.94147   -971291.33245  24120014.127    24120013.9394   24120019.8584
       135.0004        141.0004
 -23680546.17049 -18435198.26348  20147072.806    20147073.0634   20147080.4464
       212.0004        213.0004
 21  1 31  0  5 30.0000000  0 10G22G03G04G07G21G27G01G09G16G08
  -1318843.26947   -999385.14745  24756097.604    24756094.8964   24756107.2704
       140.0004        145.0004
  -1049940.90548   -776602.15946  24109573.180    24109573.1474   24109582.8784
       178.0004        179.0004
 -21398861.80349 -16660542.02947  20324143.448    20324144.0434   20324150.3334
       212.0004        211.0004
  -4823294.82347  -3730907.27645  23968827.564    23968828.8954   23968833.8344
       153.0004        154.0004
 -11211565.68447  -8577214.79645  22831361.175    22831358.9234   22831366.6384
       154.0004        156.0004
 -17258511.28149 -13423495.83948  21662491.830    21662492.6634   21662500.2204
       221.0004        221.0004
  -3104213.87547  -2392931.49745  24226219.556    24226220.0684   24226233.2624
       135.0004        142.0004
 -17161176.11849 -13341719.93747  21151059.258    21151059.8534   21151068.2844
       202.0004        202.0004
  -1205318.77147   -908471.20845  24135358.617    24135358.1484   24135361.5354
       137.0004        143.0004
 -23675209.54349 -18431039.84548  20148088.084    20148088.2554   20148095.9794
       212.0004        213.0004
 21  1 31  0  6  0.0000000  0 10G22G03G04G07G21G27G01G09G16G08
  -1273775.34147   -964267.71845  24764672.773    24764672.2664   24764683.8354
       140.0004        145.0004
   -990901.99248   -730597.91046  24120806.931    24120808.0044   24120816.2284
       176.0004        176.0004
 -21373486.28349 -16640768.90647  20328972.258    20328973.0124   20328978.9264
       212.0004        211.0004
  -4890441.15447  -3783229.08345  23956052.735    23956052.6244   23956056.7824
       155.0004        158.0004
 -11262626.05047  -8617002.01345  22821643.020    22821643.3354   22821649.6554
       153.0004        155.0004
 -17184887.99649 -13366127.04848  21676502.033    21676502.7984   21676510.1904
       220.0004        220.0004
  -3170936.51547  -2444922.88045  24213522.814    24213524.2574   24213535.2074
       136.0004        142.0004
 -17206963.91649 -13377398.73647  21142345.315    21142346.1584   21142355.4924
       202.0004        203.0004
  -1124836.04847   -845757.39545  24150671.636    24150671.9314   24150675.1864
       136.0004        141.0004
 -23669264.79249 -18426407.55848  20149218.927    20149219.4044   20149227.1814
       212.0004        213.0004
 21  1 31  0  6 30.0000000  0 10G22G03G04G07G21G27G01G09G16G08
  -1228958.14447   -929345.65645  24773201.251    24773200.0784   24773212.4224
       139.0004        143.0004
   -932025.88648   -684720.53146  24132010.558    24132011.3764   24132019.5574
       175.0004        176.0004
 -21347548.83849 -16620557.92047  20333908.114    20333908.6794   20333914.6034
       212.0004        210.0004
  -4957732.51347  -3835663.86545  23943246.719    23943246.6794   23943252.1564
       157.0004        160.0004
 -11313615.66747  -8656734.09345  22811940.258    22811939.9604   22811946.5274
       151.0004        154.0004
 -17110815.83449 -13308408.47048  21690598.202    21690597.8224   21690605.6704
       220.0004        220.0004
  -3237883.21647  -2497088.89045  24200783.653    24200783.2864   24200796.3394
       138.0004        143.0004
 -17252241.26649 -13412679.77247  21133730.462    21133730.6534   21133739.4614
       202.0004        204.0004
  -1044490.50847   -783150.44545  24165959.820    24165961.2094   24165966.8134
       136.0004        141.0004
 -23662712.32249 -18421301.72648  20150465.925    20150466.2934   20150474.1914
       212.0004        213.0004
 21  1 31  0  7  0.0000000  0  9G03G04G07G21G27G01G09G16G08
   -873311.68048   -638969.26846  24143183.657    24143184.4224   24143194.0554
       177.0004        179.0004
 -21321047.29449 -16599907.35247  20338950.969    20338951.7214   20338957.3614
       211.0004        210.0004
  -5025165.47747  -3888208.97045  23930413.949    23930414.6164   23930421.4214
       159.0004        161.0004
 -11364529.06847  -8696406.76245  22802252.567    22802251.8014   22802259.6274
       154.0004        157.0004
 -17036294.40849 -13250339.80448  21704778.681    21704778.9424   21704786.5544
       220.0004        220.0004
  -3305049.14347  -2549425.66945  24188000.718    24188001.9244   24188014.7304
       138.0004        142.0004
 -17297003.58849 -13447559.47747  21125213.994    21125213.9534   21125221.0574
       204.0004        205.0004
   -964280.72546   -720649.31945  24181224.868    24181224.9424   24181228.2874
       133.0004        139.0004
 -23655549.93649 -18415720.60648  20151828.890    20151829.1264   20151837.2564
       212.0004        213.0004
 21  1 31  0  7 30.0000000  0  9G03G04G07G21G27G01G09G16G08
   -814763.01548   -593347.06646  24154325.101    24154326.0844   24154336.1354
       179.0004        180.0004
 -21293984.11449 -16578819.16947  20344101.368    20344101.7264   20344107.6754
       211.0004        210.0004
  -5092740.53647  -3940864.81645  23917554.440    23917556.2324   23917561.5374
       159.0004        161.0004
 -11415365.12847  -8736019.18945  22792578.853    22792578.0934   22792586.5234
       155.0004        156.0004
 -16961328.02649 -13191924.44148  21719043.695    21719044.3724   21719052.1864
       220.0004        220.0004
  -3372433.91447  -2601933.02145  24175177.846    24175179.3554   24175192.3684
       138.0004        142.0004
 -17341250.84349 -13482037.86247  21116794.345    21116794.8164   21116801.0224
       205.0004        206.0004
   -884209.09246   -658255.81345  24196463.500    24196460.8294   24196464.4834
       133.0004        140.0004
 -23647779.30149 -18409665.55748  20153307.585    20153307.9704   20153315.6694
       212.0004        213.0004
 21  1 31  0  8  0.0000000  0  9G03G04G07G21G27G01G09G16G08
   -756385.31548   -547858.04246  24165434.802    24165434.8924   24165444.5114
       179.0004        180.0004
 -21266363.47949 -16557296.59447  20349357.349    20349357.9084   20349363.5494
       211.0004        210.0004
  -5160460.22747  -3993633.40345  23904668.741    23904668.8464   23904673.2934
       158.0004        160.0004
 -11466124.24547  -8775571.65645  22782917.282    22782918.1614   22782923.7914
       153.0004        154.0004
 -16885922.72049 -13133167.05048  21733392.149    21733393.4234   21733401.3374
       219.0004        219.0004
  -3440038.87847  -2654611.95445  24162313.256    24162314.6764   24162327.8694
       138.0004        144.0004
 -17384984.76349 -13516116.23047  21108471.858    21108472.4144   21108478.4284
       206.0004        207.0004
   -804279.91947   -595973.37045  24211671.539    24211672.3154   24211677.0524
       136.0004        143.0004
 -23639404.46149 -18403139.68847  20154901.103    20154901.4694   20154909.2274
       212.0004        212.0004
 21  1 31  0  8 30.0000000  0  9G03G04G07G21G27G01G09G16G08
   -698177.97948   -502501.78646  24176510.180    24176511.1264   24176520.7314
       178.0004        178.0004
 -21238183.59749 -16535338.25247  20354719.940    20354720.5894   20354726.1534
       211.0004        210.0004
  -5228321.07447  -4046511.98045  23891756.066    23891756.1914   23891759.5744
       159.0004        162.0004
 -11516801.01847  -8815059.98945  22773275.864    22773274.8634   22773281.0794
       153.0004        157.0004
 -16810078.50249 -13074067.67148  21747826.137    21747826.3874   21747834.2314
       219.0004        219.0004
  -3507859.41047  -2707458.86745  24149407.511    24149408.9134   24149422.6034
       142.0004        146.0004
 -17428201.13049 -13549791.32347  21100247.597    21100248.3644   21100254.7514
       207.0004        208.0004
   -724491.68247   -533800.75745  24226855.196    24226855.0414   24226859.5424
       137.0004        143.0004
 -23630423.37349 -18396141.42647  20156610.415    20156610.7214   20156618.2464
       212.0004        212.0004
 21  1 31  0  9  0.0000000  0  9G03G04G07G21G27G01G09G16G08
   -640144.09948   -457280.72346  24187554.532    24187555.0824   24187565.0114
       177.0004        178.0004
 -21209446.49149 -16512945.71447  20360188.315    20360188.7444   20360194.7094
       211.0004        209.0004
  -5296323.01947  -4099500.48846  23878814.069    23878815.7334   23878820.3844
       161.0004        164.0004
 -11567394.05847  -8854483.05445  22763648.881    22763648.2984   22763654.1764
       155.0004        158.0004
 -16733799.16349 -13014629.22648  21762341.799    21762341.8414   21762349.6524
       219.0004        219.0004
  -3575894.63747  -2760473.06945  24136461.567    24136462.3094   24136474.0804
       144.0004        148.0004
 -17470899.47849 -13583062.76547  21092122.883    21092123.0974   21092129.7704
       207.0004        208.0004
   -644846.44847   -471739.55145  24242012.438    24242011.3294   24242016.3534
       138.0004        143.0004
 -23620837.40449 -18388671.82948  20158434.680    20158434.9864   20158442.2774
       212.0004        213.0004
 21  1 31  0  9 30.0000000  0  9G03G04G07G21G27G01G09G16G08
   -582284.98648   -412195.77946  24198564.683    24198565.5354   24198575.6124
       178.0004        179.0004
 -21180152.39249 -16490119.12747  20365762.904    20365763.3484   20365769.2234
       211.0004        210.0004
  -5364464.70047  -4152597.83746  23865849.083    23865848.7944   23865852.8304
       162.0004        164.0004
 -11617900.09947  -8893838.29945  22754036.357    22754036.0014   22754043.0094
       156.0004        158.0004
 -16657086.71449 -12954853.26748  21776938.741    21776939.5884   21776947.7054
       219.0004        219.0004
  -3644141.85447  -2813652.46345  24123471.459    24123473.2254   24123488.3694
       143.0004        146.0004
 -17513077.52749 -13615928.75047  21084096.169    21084096.6044   21084103.7404
       208.0004        208.0004
   -565344.61247   -409790.04145  24257140.121    24257139.5064   24257145.1374
       138.0004        144.0004
 -23610646.66949 -18380730.96247  20160373.879    20160374.2284   20160381.7744
       212.0004        212.0004
 21  1 31  0 10  0.0000000  0  9G03G04G07G21G27G01G09G16G08
   -524601.99548   -367248.09346  24209540.214    24209541.8634   24209551.3964
       179.0004        180.0004
 -21150301.56149 -16466858.72647  20371443.548    20371443.6904   20371449.8134
       211.0004        210.0004
  -5432745.07847  -4205803.28445  23852854.849    23852855.4184   23852859.6124
       161.0004        162.0004
 -11668315.66247  -8933123.07045  22744443.734    22744443.1724   22744449.6704
       156.0004        159.0004
 -16579943.24249 -12894741.45248  21791619.884    21791619.6504   21791627.1614
       219.0004        218.0004
  -3712598.25447  -2866994.85645  24110444.521    24110445.5714   24110459.5164
       142.0004        146.0004
 -17554733.09149 -13648387.60647  21076168.952    21076169.3864   21076176.7244
       207.0004        208.0004
   -485986.15047   -347952.26245  24272239.487    24272240.5734   24272246.5794
       136.0004        142.0004
 -23599850.75749 -18372318.53447  20162427.848    20162428.3334   20162435.9564
       212.0004        212.0004
 21  1 31  0 10 30.0000000  0  9G03G04G07G21G27G01G09G16G08
   -467096.93548   -322439.09646  24220486.168    24220486.2264   24220494.7104
       181.0004        182.0004
 -21119894.85749 -16443165.20647  20377229.215    20377229.8274   20377236.1224
       211.0004        209.0004
  -5501162.61647  -4259115.65346  23839835.201    23839835.8414   23839840.0534
       161.0004        163.0004
 -11718637.67747  -8972334.96545  22734867.006    22734867.3104   22734873.0644
       156.0004        157.0004
 -16502371.31649 -12834295.79548  21806381.080    21806381.2544   21806387.9804
       218.0004        217.0004
  -3781261.74847  -2920498.65445  24097380.463    24097380.4544   24097393.0954
       144.0004        148.0004
 -17595864.55849 -13680438.10247  21068342.636    21068342.8074   21068349.5754
       207.0004        208.0004
   -406772.11647   -286227.03445  24287314.784    24287316.3074   24287318.4954
       135.0004        140.0004
 -23588450.45549 -18363435.17547  20164597.208    20164597.6024   20164605.4244
       212.0004        212.0004
 21  1 31  0 11  0.0000000  0  9G03G04G07G21G27G01G09G16G08
   -409773.62048   -277771.72246  24231392.555    24231393.6384   24231403.7644
       181.0004        181.0004
 -21088935.11749 -16419040.72947  20383120.906    20383121.2564   20383127.4654
       210.0004        209.0004
  -5569718.32147  -4312535.63546  23826788.150    23826789.7314   23826794.6484
       162.0004        164.0004
 -11768865.37347  -9011473.32045  22725307.944    22725307.1704   22725314.0564
       156.0004        157.0004
 -16424375.50949 -12773519.82148  21821222.713    21821223.1144   21821230.5624
       217.0004        217.0004
  -3850132.08047  -2974163.62245  24084274.630    24084274.5704   24084288.2444
       145.0004        148.0004
 -17636472.22449 -13712080.42347  21060615.096    21060615.6374   21060621.9774
       208.0004        208.0004
   -327705.17446   -224616.42445  24302362.999    24302359.5934   24302366.7424
       132.0004        139.0004
 -23576448.48549 -18354082.96848  20166881.024    20166881.4944   20166889.4954
       212.0004        213.0004
 21  1 31  0 11 30.0000000  0  9G03G04G07G21G27G01G09G16G08
   -352632.48748   -233246.31646  24242265.059    24242266.1234   24242277.0214
       177.0004        176.0004
 -21057421.92549 -16394485.00047  20389117.818    20389117.9674   20389124.1084
       210.0004        209.0004
  -5638409.94847  -4366061.52646  23813717.763    23813718.5144   23813723.4964
       162.0004        165.0004
 -11818994.88247  -9050535.19845  22715768.989    22715769.8854   22715775.0334
       155.0004        158.0004
 -16345957.07249 -12712414.53148  21836146.175    21836146.2054   21836153.7524
       218.0004        218.0004
  -3919205.68847  -3027986.98545  24071130.394    24071130.6224   24071143.3524
       145.0004        150.0004
 -17676553.14449 -13743312.29947  21052987.690    21052988.2884   21052994.9334
       208.0004        209.0004
   -248784.64047   -163119.90145  24317379.663    24317381.5474   24317383.7034
       136.0004        141.0004
 -23563843.46449 -18344260.86448  20169280.150    20169280.4634   20169288.0874
       212.0004        213.0004
 21  1 31  0 12  0.0000000  0  9G03G04G07G21G27G01G09G16G08
   -295675.24048   -188864.20246  24253104.638    24253105.2504   24253115.6014
       173.0004        173.0004
 -21025355.87849 -16369498.48447  20395220.029    20395220.3924   20395226.0944
       210.0004        209.0004
  -5707235.55047  -4419691.84046  23800621.544    23800622.1054   23800625.2034
       163.0004        165.0004
 -11869022.55647  -9089517.73145  22706249.317    22706248.9994   22706255.7424
       155.0004        156.0004
 -16267118.45149 -12650981.84048  21851147.879    21851148.6594   21851155.9364
       218.0004        218.0004
  -3988480.21247  -3081966.95045  24057947.467    24057947.8384   24057958.6884
       144.0004        148.0004
 -17716105.55949 -13774132.37347  21045461.899    21045462.3484   21045468.7314
       209.0004        210.0004
   -170011.16147   -101738.01045  24332369.416    24332372.3954   24332370.8484
       137.0004        140.0004
 -23550636.39949 -18333969.64648  20171793.752    20171793.9524   20171801.2934
       212.0004        213.0004
 21  1 31  0 12 30.0000000  0  9G03G04G07G21G27G01G09G16G08
   -238904.75348   -144627.57146  24263908.993    24263909.3444   24263918.8994
       174.0004        176.0004
 -20992739.12649 -16344082.82247  20401426.058    20401426.7564   20401432.5854
       210.0004        209.0004
  -5776195.55047  -4473426.86846  23787497.303    23787498.3964   23787502.6114
       162.0004        163.0004
 -11918946.67747  -9128419.55245  22696747.793    22696747.4284   22696756.6334
       155.0004        158.0004
 -16187863.38149 -12589224.63048  21866230.066    21866230.4724   21866237.2354
       218.0004        217.0004
  -4057954.39047  -3136102.49345  24044727.407    24044727.4374   24044739.3634
       143.0004        148.0004
 -17755129.04449 -13804540.25847  21038035.882    21038035.9714   21038042.4774
       209.0004        210.0004
    -91386.61646    -40472.11445  24347329.902    24347331.5434   24347333.0814
       132.0004        137.0004
 -23536828.76349 -18323210.42447  20174420.429    20174420.9514   20174428.5114
       212.0004        212.0004
 21  1 31  0 13  0.0000000  0  9G03G04G07G21G27G01G09G16G08
   -182322.47548   -100537.65446  24274676.539    24274677.2114   24274686.5414
       176.0004        177.0004
 -20959572.24949 -16318238.51147  20407737.747    20407738.8784   20407744.2244
       210.0004        208.0004
  -5845288.61347  -4527265.58145  23774349.760    23774350.9644   23774354.7364
       161.0004        162.0004
 -11968764.27247  -9167238.38345  22687268.779    22687268.3824   22687274.2674
       156.0004        159.0004
 -16108194.20049 -12527144.73548  21881390.554    21881390.7064   21881398.0014
       218.0004        217.0004
  -4127625.69847  -3190391.68245  24031467.493    24031468.5264   24031480.6714
       143.0004        146.0004
 -17793621.68849 -13834534.52947  21030710.540    21030710.8684   21030717.5204
       209.0004        209.0004
    -12911.35046     20677.49745  24362265.492    24362262.4354   24362270.0854
       130.0004        138.0004
 -23522420.51449 -18311983.21847  20177162.652    20177162.9834   20177170.4794
       212.0004        212.0004
 21  1 31  0 13 30.0000000  0  9G03G04G07G21G27G01G09G16G08
   -125931.11048    -56596.47446  24285407.262    24285407.7914   24285417.3164
       174.0004        175.0004
 -20925857.23849 -16291967.07147  20414154.589    20414153.8454   20414160.4594
       210.0004        209.0004
  -5914514.45647  -4581207.76446  23761177.629    23761178.0404   23761181.9594
       163.0004        165.0004
 -12018473.47047  -9205972.73345  22677810.341    22677809.5574   22677815.4044
       157.0004        159.0004
 -16028114.47649 -12464744.92448  21896629.285    21896629.5454   21896636.5024
       218.0004        217.0004
  -4197492.87747  -3244833.41845  24018173.920    24018174.1544   24018184.6644
       145.0004        150.0004
 -17831582.94349 -13864114.71147  21023486.452    21023486.9724   21023493.7664
       208.0004        208.0004
     65412.69446     81709.22145  24377168.463    24377167.9934   24377175.7674
       131.0004        139.0004
 -23507413.80849 -18300289.66347  20180018.760    20180018.7714   20180026.1454
       212.0004        212.0004
 21  1 31  0 14  0.0000000  0  9G03G04G07G21G27G01G09G16G08
    -69731.72348    -12804.94746  24296100.036    24296101.2244   24296111.7744
       173.0004        173.0004
 -20891594.34449 -16265268.71547  20420673.743    20420673.9144   20420680.0994
       210.0004        208.0004
  -5983870.96447  -4635251.76246  23747978.581    23747979.1984   23747983.5824
       164.0004        165.0004
 -12068070.18547  -9244619.43645  22668371.253    22668371.4784   22668377.8104
       157.0004        158.0004
 -15947626.19949 -12402026.77648  21911945.735    21911945.9414   21911952.5234
       217.0004        217.0004
  -4267552.88347  -3299425.45145  24004843.055    24004842.5404   24004852.7864
       146.0004        150.0004
 -17869010.62149 -13893279.13147  21016364.211    21016364.7304   21016371.4434
       208.0004        209.0004
    143585.84046    142623.35745  24392047.177    24392044.6174   24392048.4054
       129.0004        136.0004
 -23491808.56249 -18288129.72647  20182987.657    20182987.7654   20182995.8754
       212.0004        212.0004
 21  1 31  0 14 30.0000000  0  9G03G04G07G21G27G01G09G16G08
    -13726.98048     30834.96746  24306758.556    24306759.4664   24306770.1384
       173.0004        175.0004
 -20856785.48249 -16238144.92447  20427297.923    20427298.0514   20427303.8284
       210.0004        208.0004
  -6053358.15947  -4689397.58646  23734754.066    23734755.3764   23734760.1034
       163.0004        163.0004
 -12117553.49047  -9283177.77245  22658955.333    22658954.8434   22658962.2384
       156.0004        157.0004
 -15866732.87449 -12338992.99348  21927338.376    21927339.3854   21927346.2944
       217.0004        216.0004
  -4337804.32247  -3354166.62745  23991472.951    23991473.0794   23991485.1174
       145.0004        149.0004
 -17905904.05149 -13922027.24947  21009343.024    21009343.7924   21009350.8794
       208.0004        209.0004
    221606.58146    203418.78045  24406893.397    24406891.3714   24406895.6374
       129.0004        138.0004
 -23475605.94749 -18275504.30047  20186070.531    20186071.0274   20186078.5514
       212.0004        212.0004
 21  1 31  0 15  0.0000000  0  9G03G04G07G21G27G01G09G16G08
     42081.61848     74322.02546  24317378.927    24317379.7214   24317389.9484
       174.0004        174.0004
 -20821431.56449 -16210596.41847  20434024.999    20434025.6004   20434031.5774
       209.0004        208.0004
  -6122974.70147  -4743644.22145  23721506.355    23721507.0564   23721512.3964
       161.0004        161.0004
 -12166919.41347  -9321644.65345  22649560.894    22649560.3374   22649567.5024
       154.0004        156.0004
 -15785437.00349 -12275645.54748  21942808.706    21942809.4624   21942816.8034
       217.0004        216.0004
  -4408244.66747  -3409055.03145  23978069.072    23978068.8934   23978079.9974
       144.0004        148.0004
 -17942261.67949 -13950357.85047  21002424.695    21002425.6094   21002432.7094
       209.0004        210.0004
    299474.17346    264094.80545  24421709.649    24421710.2124   24421713.0584
       130.0004        138.0004
 -23458806.78149 -18262414.03347  20189267.748    20189268.1504   20189275.6054
       212.0004        212.0004
 21  1 31  0 15 30.0000000  0  9G03G04G07G21G27G01G09G16G08
     97693.26948    117655.63146  24327960.715    24327961.6594   24327972.7784
       171.0004        171.0004
 -20785532.68949 -16182623.26947  20440855.871    20440856.7094   20440863.1044
       209.0004        207.0004
  -6192718.51647  -4797990.01746  23708236.472    23708237.2244   23708241.5414
       162.0004        165.0004
 -12216164.35147  -9360017.23645  22640188.813    22640188.3104   22640194.8944
       154.0004        156.0004
 -15703740.33249 -12211985.78848  21958355.745    21958356.1064   21958362.7644
       216.0004        216.0004
  -4478870.65047  -3464088.12445  23964628.981    23964630.0434   23964640.7774
       143.0004        147.0004
 -17978081.06249 -13978269.04447  20995609.243    20995609.4544   20995616.4744
       210.0004        211.0004
    377188.74046    324651.59245  24436498.119    24436499.3974   24436502.2674
       128.0004        135.0004
 -23441411.03049 -18248858.89547  20192578.250    20192578.4714   20192586.0274
       212.0004        212.0004
 21  1 31  0 16  0.0000000  0  9G03G04G07G21G27G01G09G16G08
    153105.23248    160833.59446  24338505.861    24338507.0414   24338516.5904
       170.0004        172.0004
 -20749091.07949 -16154227.21347  20447791.328    20447791.5604   20447797.7434
       209.0004        208.0004
  -6262589.31448  -4852434.74446  23694940.783    23694940.9054   23694945.8384
       165.0004        168.0004
 -12265286.72547  -9398294.31845  22630842.085    22630841.6934   22630848.8404
       156.0004        159.0004
 -15621646.64449 -12148016.66648  21973977.479    21973977.5684   21973984.5304
       216.0004        215.0004
  -4549681.08847  -3519264.91445  23951153.207    23951154.8984   23951164.3834
       144.0004        149.0004
 -18013361.88949 -14005760.58947  20988895.341    20988895.3644   20988902.6274
       210.0004        211.0004
    454748.98746    385088.13845  24451257.132    24451254.5394   24451261.1194
       124.0004        133.0004
 -23423420.63849 -18234840.40047  20196001.374    20196001.6484   20196009.3284
       212.0004        212.0004
 21  1 31  0 16 30.0000000  0  9G03G04G07G21G27G01G09G16G08
    208315.01648    203853.99146  24349012.584    24349013.4304   24349023.5244
       171.0004        172.0004
 -20712108.54049 -16125409.67647  20454828.889    20454829.3624   20454835.1274
       209.0004        207.0004
  -6332586.77048  -4906978.21846  23681620.402    23681621.2714   23681625.8274
       166.0004        168.0004
 -12314283.96147  -9436473.93645  22621519.799    22621518.9294   22621524.4904
       157.0004        159.0004
 -15539159.34549 -12083740.86348  21989672.954    21989674.1184   21989681.2164
       215.0004        214.0004
  -4620674.30247  -3574584.13645  23937644.633    23937644.5144   23937655.7004
       144.0004        147.0004
 -18048103.50649 -14032832.00047  20982284.397    20982284.6924   20982291.5684
       210.0004        211.0004
    532153.20646    445403.08745  24465985.517    24465987.3844   24465991.1594
       127.0004        135.0004
 -23404836.74349 -18220359.45147  20199537.526    20199537.9724   20199545.7394
       211.0004        212.0004
 21  1 31  0 17  0.0000000  0  9G03G04G07G21G27G01G09G16G08
    263320.77048    246715.44746  24359478.922    24359480.2644   24359490.7994
       171.0004        172.0004
 -20674586.46049 -16096171.67347  20461968.931    20461969.5454   20461975.2214
       209.0004        207.0004
  -6402710.10347  -4961619.73345  23668276.405    23668276.3134   23668281.0264
       164.0004        162.0004
 -12363153.94247  -9474554.33745  22612218.029    22612218.2144   22612224.6954
       156.0004        157.0004
 -15456281.39049 -12019160.60248  22005445.755    22005445.6224   22005452.4004
       215.0004        214.0004
  -4691848.13947  -3630044.08445  23924101.740    23924101.6664   23924111.9634
       145.0004        150.0004
 -18082304.75949 -14059482.29147  20975776.055    20975776.3994   20975783.5754
       211.0004        211.0004
    609400.97946    505596.18745  24480685.090    24480683.1304   24480692.1784
       125.0004        132.0004
 -23385660.77949 -18205417.10847  20203186.988    20203187.2974   20203194.8604
       211.0004        212.0004
 21  1 31  0 17 30.0000000  0  9G03G04G07G21G27G01G09G16G08
    318122.41748    289417.83046  24369908.608    24369909.1964   24369918.1184
       172.0004        173.0004
 -20636524.33349 -16066512.89447  20469211.766    20469212.4624   20469218.2234
       209.0004        207.0004
  -6472955.94847  -5016356.72545  23654906.987    23654907.6494   23654913.3524
       161.0004        162.0004
 -12411891.28547  -9512531.41445  22602941.597    22602941.4044   22602950.4754
       155.0004        157.0004
 -15373013.77749 -11954276.74848  22021290.702    22021290.7844   22021298.0174
       214.0004        214.0004
  -4763198.57647  -3685641.64745  23910521.549    23910522.9144   23910533.9294
       146.0004        149.0004
 -18115962.64049 -14085709.21947  20969370.785    20969371.3564   20969378.2554
       211.0004        211.0004
    686493.15546    565667.99945  24495353.244    24495354.2924   24495360.4454
       124.0004        133.0004
 -23365891.54749 -18190012.52047  20206948.912    20206949.3384   20206956.7064
       211.0004        212.0004
 21  1 31  0 18  0.0000000  0  9G03G04G07G21G27G01G09G16G08
    372717.12748    331958.99146  24380297.356    24380298.3274   24380308.6544
       172.0004        173.0004
 -20597924.59049 -16036435.16447  20476557.025    20476557.4894   20476563.8144
       209.0004        207.0004
  -6543324.29347  -5071189.16346  23641518.151    23641518.0974   23641521.8944
       161.0004        163.0004
 -12460494.88047  -9550404.25845  22593694.823    22593694.3984   22593700.3844
       153.0004        155.0004
 -15289360.44949 -11889092.32548  22037208.612    22037209.2914   22037216.6834
       214.0004        214.0004
  -4834724.42747  -3741375.88545  23896910.336    23896911.2614   23896922.3114
       143.0004        146.0004
 -18149077.02749 -14111512.62547  20963069.410    20963069.7954   20963076.7324
       210.0004        211.0004
    763427.84446    625617.12545  24509997.363    24509996.5544   24509997.7774
       128.0004        136.0004
 -23345531.64549 -18174147.64147  20210823.609    20210823.7864   20210831.0814
       212.0004        212.0004
 21  1 31  0 18 30.0000000  0  9G03G04G07G21G27G01G09G16G08
    427102.66648    374337.10946  24390644.285    24390646.4184   24390659.7334
       174.0004        176.0004
 -20558789.03549 -16005939.93247  20484004.572    20484005.0544   20484011.0234
       208.0004        207.0004
  -6613814.64547  -5126116.65746  23628105.102    23628104.6434   23628109.2054
       162.0004        164.0004
 -12508962.42347  -9588171.11245  22584472.195    22584471.6794   22584478.1804
       155.0004        158.0004
 -15205324.79849 -11823609.98648  22053200.600    22053200.9494   22053208.0954
       214.0004        214.0004
  -4906423.93647  -3797245.47345  23883267.263    23883267.5384   23883277.8364
       140.0004        144.0004
 -18181647.24549 -14136892.00447  20956870.985    20956871.6594   20956878.9794
       210.0004        210.0004
    840203.58246    685442.37545  24524608.292    24524606.5144   24524609.3644
       126.0004        134.0004
 -23324582.35049 -18157823.48647  20214810.054    20214809.8284   20214817.5084
       211.0004        212.0004
 21  1 31  0 19  0.0000000  0  9G03G04G07G21G27G01G09G16G08
    481277.04048    416550.69846  24400956.326    24400956.5224   24400968.5764
       175.0004        176.0004
 -20519119.32849 -15975028.46847  20491553.371    20491554.0004   20491559.8474
       208.0004        207.0004
  -6684426.49947  -5181138.81146  23614666.911    23614667.1574   23614672.0434
       163.0004        165.0004
 -12557291.53847  -9625830.04145  22575274.726    22575274.9234   22575281.0484
       157.0004        159.0004
 -15120909.89749 -11757832.11348  22069264.749    22069264.6774   22069271.5604
       213.0004        213.0004
  -4978294.97047  -3853248.65345  23869590.494    23869590.7724   23869602.9084
       141.0004        145.0004
 -18213672.38949 -14161846.64547  20950777.227    20950777.8624   20950784.5554
       211.0004        211.0004
    916819.78046    745143.35045  24539184.084    24539186.0054   24539190.0854
       127.0004        136.0004
 -23303045.65049 -18141041.61347  20218907.678    20218908.1954   20218915.7204
       211.0004        211.0004
 21  1 31  0 19 30.0000000  0  9G03G04G07G21G27G01G09G16G08
    535238.79748    458598.56446  24411223.924    24411225.4104   24411235.8314
       172.0004        172.0004
 -20478916.44349 -15943701.55447  20499203.266    20499204.0104   20499210.0984
       208.0004        207.0004
  -6755157.86547  -5236254.14846  23601208.497    23601208.5984   23601211.3524
       164.0004        165.0004
 -12605478.06447  -9663377.90745  22566104.548    22566104.4714   22566111.1644
       157.0004        160.0004
 -15036118.23849 -11691760.68247  22085399.083    22085399.7364   22085406.9534
       212.0004        212.0004
  -5050334.96647  -3909383.56945  23855881.323    23855882.6254   23855892.3184
       141.0004        146.0004
 -18245150.95749 -14186375.39647  20944787.028    20944787.6204   20944794.7724
       211.0004        212.0004
    993276.34846    804719.88745  24553736.800    24553735.5064   24553738.2234
       128.0004        137.0004
 -23280921.62549 -18123802.10147  20223117.873    20223118.3914   20223126.0254
       211.0004        212.0004
 21  1 31  0 20  0.0000000  0  9G03G04G07G21G27G01G09G16G08
    588985.71948    500479.02946  24421453.600    24421454.0804   24421463.6104
       170.0004        170.0004
 -20438182.33749 -15911960.69547  20506955.076    20506955.3724   20506961.8614
       208.0004        207.0004
  -6826008.11347  -5291462.09746  23587725.452    23587725.3594   23587729.4344
       163.0004        164.0004
 -12653520.93547  -9700813.84545  22556965.032    22556963.4624   22556968.1074
       158.0004        160.0004
 -14950953.23649 -11625398.33647  22101605.979    22101605.8294   22101613.2304
       211.0004        211.0004
  -5122542.11647  -3965648.69345  23842139.336    23842139.2444   23842152.1804
       140.0004        143.0004
 -18276082.39149 -14210477.81547  20938901.263    20938901.8184   20938908.5244
       211.0004        211.0004
   1069571.93446    864170.95545  24568252.823    24568252.9034   24568256.4684
       127.0004        133.0004
 -23258211.83149 -18106106.13547  20227439.164    20227439.5864   20227447.4164
       211.0004        211.0004
 21  1 31  0 20 30.0000000  0  9G03G04G07G21G27G01G09G16G08
    642516.95348    542191.47746  24431640.511    24431640.4414   24431650.5044
       170.0004        171.0004
 -20396917.51449 -15879806.28847  20514807.389    20514807.9444   20514813.9574
       208.0004        207.0004
  -6896975.38447  -5346761.21146  23574219.210    23574219.4424   23574225.7574
       163.0004        164.0004
 -12701415.96847  -9738134.55945  22547850.306    22547849.3854   22547854.1634
       159.0004        162.0004
 -14865416.79649 -11558746.55247  22117882.007    22117882.5624   22117890.8274
       211.0004        212.0004
  -5194912.94347  -4022041.35445  23828364.499    23828368.4084   23828382.2944
       138.0004        142.0004
 -18306464.65649 -14234152.30147  20933119.791    20933119.8214   20933126.6544
       210.0004        210.0004
   1145706.62746    923496.70445  24582740.753    24582740.9054   24582747.3634
       127.0004        135.0004
 -23234916.66449 -18087954.03447  20231872.482    20231872.6284   20231880.0444
       211.0004        211.0004
 21  1 31  0 21  0.0000000  0  9G03G04G07G21G27G01G09G16G08
    695830.49748    583734.29946  24441785.531    24441786.6354   24441795.9414
       173.0004        175.0004
 -20355123.72949 -15847239.71147  20522760.451    20522760.8924   20522767.1574
       208.0004        206.0004
  -6968058.50547  -5402150.59946  23560692.054    23560693.2634   23560699.3084
       164.0004        165.0004
 -12749160.66547  -9775338.13945  22538762.784    22538762.5544   22538768.8834
       159.0004        161.0004
 -14779512.16949 -11491807.87447  22134229.426    22134230.0914   22134237.9324
       211.0004        211.0004
  -5267445.78047  -4078560.27645  23814563.730    23814565.8144   23814578.6054
       139.0004        143.0004
 -18336297.01349 -14257398.27947  20927442.919    20927442.9104   20927449.5894
       210.0004        210.0004
   1221679.42846    982696.31745  24597197.489    24597197.6894   24597205.4754
       127.0004        135.0004
 -23211037.70949 -18069347.02847  20236416.180    20236416.6524   20236424.4924
       211.0004        211.0004
 21  1 31  0 21 30.0000000  0  9G03G04G07G21G27G01G09G16G08
    748925.53348    625106.81546  24451889.516    24451889.9194   24451900.0154
       173.0004        174.0004
 -20312801.68349 -15814261.50147  20530814.221    20530814.4484   20530820.8674
       207.0004        206.0004
  -7039255.42848  -5457628.73346  23547145.127    23547145.5954   23547150.5864
       166.0004        169.0004
 -12796751.45147  -9812421.79345  22529706.493    22529705.8414   22529712.2944
       159.0004        161.0004
 -14693241.44749 -11424583.92947  22150646.620    22150646.7524   22150654.3974
       211.0004        211.0004
  -5340137.26947  -4135202.83445  23800733.454    23800733.6894   23800745.6074
       142.0004        147.0004
 -18365577.61749 -14280214.33247  20921870.757    20921871.2614   20921877.9024
       210.0004        210.0004
   1297490.42146   1041769.81345  24611624.293    24611624.0074   24611630.8154
       125.0004        134.0004
 -23186575.31149 -18050285.40547  20241071.299    20241071.5934   20241079.8354
       211.0004        211.0004
 21  1 31  0 22  0.0000000  0  9G03G04G07G21G27G01G09G16G08
    801798.77948    666306.52946  24461951.122    24461951.2074   24461961.9494
       172.0004        172.0004
 -20269954.38849 -15780873.99947  20538967.690    20538968.3294   20538974.6604
       207.0004        206.0004
  -7110566.57548  -5513195.82946  23533574.246    23533575.3414   23533579.6694
       167.0004        168.0004
 -12844186.73247  -9849384.27545  22520680.332    22520680.3864   22520686.1364
       160.0004        162.0004
 -14606609.00649 -11357078.11647  22167132.724    22167132.7234   22167140.0584
       211.0004        211.0004
  -5412986.61747  -4191968.36545  23786871.159    23786871.0524   23786882.7044
       143.0004        148.0004
 -18394306.98449 -14302600.84547  20916403.407    20916403.8674   20916410.8914
       210.0004        210.0004
   1373137.65046   1100715.68745  24626020.421    24626020.8504   24626024.6554
       126.0004        135.0004
 -23161532.25049 -18030771.30247  20245836.440    20245836.7354   20245844.8334
       210.0004        210.0004
 21  1 31  0 22 30.0000000  0  9G03G04G07G21G27G01G09G16G08
    854448.22348    707331.80246  24471969.972    24471970.1654   24471981.7794
       171.0004        171.0004
 -20226583.78349 -15747078.73047  20547221.446    20547221.7034   20547227.4004
       207.0004        206.0004
  -7181991.23848  -5568851.37846  23519981.658    23519982.7424   23519988.2444
       167.0004        167.0004
 -12891464.72847  -9886224.18946  22511684.378    22511683.7584   22511689.5874
       161.0004        163.0004
 -14519618.18149 -11289293.04847  22183684.798    22183686.1394   22183694.0344
       211.0004        211.0004
  -5485991.82047  -4248855.39445  23772976.275    23772977.5644   23772990.0874
       143.0004        147.0004
 -18422484.53649 -14324557.38047  20911041.046    20911041.6964   20911048.9254
       209.0004        210.0004
   1448620.46246   1159533.42744  24640382.802    24640381.7244   24640387.9164
       123.0004        131.0004
 -23135910.45049 -18010806.24847  20250712.532    20250712.4644   20250720.4114
       210.0004        211.0004
 21  1 31  0 23  0.0000000  0  9G03G04G07G21G27G01G09G16G08
    906873.13948    748182.10746  24481945.505    24481946.2664   24481958.1254
       169.0004        169.0004
 -20182690.41249 -15712876.12147  20555573.401    20555573.9964   20555580.2484
       207.0004        206.0004
  -7253526.56848  -5624593.15746  23506370.340    23506371.0774   23506375.5804
       166.0004        168.0004
 -12938581.45647  -9922938.47346  22502718.420    22502718.1784   22502724.0604
       162.0004        164.0004
 -14432270.84649 -11221230.20347  22200306.956    22200307.8944   22200315.2604
       210.0004        210.0004
  -5559149.50947  -4305861.21545  23759054.212    23759055.9614   23759068.2494
       143.0004        147.0004
 -18450108.32249 -14346082.42647  20905785.630    20905785.9264   20905792.2634
       210.0004        211.0004
   1523938.89846   1218223.15445  24654717.097    24654715.5144   24654720.8174
       124.0004        132.0004
 -23109710.06149 -17990390.35447  20255697.999    20255698.5484   20255706.0634
       210.0004        211.0004
 21  1 31  0 23 30.0000000  0  9G03G04G07G21G27G01G09G16G08
    959071.57248    788855.95746  24491879.669    24491880.2544   24491890.7044
       169.0004        171.0004
 -20138276.14949 -15678267.58947  20564025.376    20564025.6584   20564031.9334
       207.0004        205.0004
  -7325172.47548  -5680421.09046  23492738.001    23492738.6024   23492742.4054
       168.0004        171.0004
 -12985534.62147  -9959525.26946  22493783.793    22493782.2204   22493788.8644
       162.0004        164.0004
 -14344570.26849 -11152892.05947  22216996.610    22216997.2664   22217003.9534
       210.0004        211.0004
  -5632457.57147  -4362984.20545  23745104.774    23745105.6944   23745118.0644
       144.0004        148.0004
 -18477177.70049 -14367175.42847  20900633.822    20900634.1064   20900641.1544
       211.0004        211.0004
   1599091.93046   1276783.98345  24669017.144    24669017.8114   24669021.0654
       127.0004        136.0004
 -23082932.44449 -17969524.64347  20260794.075    20260794.2514   20260801.6504
       210.0004        211.0004
 21  1 31  0 24  0.0000000  0  9G03G04G07G21G27G01G09G16G08
   1011041.43548    829351.67046  24501767.806    24501769.0134   24501780.2944
       168.0004        169.0004
 -20093343.06249 -15643254.81547  20572575.791    20572576.3024   20572582.5234
       206.0004        205.0004
  -7396928.01048  -5736334.49646  23479082.638    23479083.6674   23479087.3964
       169.0004        171.0004
 -13032321.94547  -9995982.85146  22484878.171    22484878.2624   22484885.1604
       162.0004        163.0004
 -14256519.85649 -11084281.35247  22233752.108    22233752.4164   22233759.0004
       210.0004        210.0004
  -5705914.21047  -4420222.96845  23731126.267    23731127.1514   23731139.6204
       144.0004        148.0004
 -18503692.23649 -14387836.11147  20895587.932    20895588.4494   20895595.6134
       211.0004        211.0004
   1674079.02546   1335215.47545  24683289.122    24683288.2584   24683295.1194
       132.0004        138.0004
 -23055579.59849 -17948210.73547  20265998.849    20265999.2044   20266006.8424
       210.0004        210.0004
 21  1 31  0 24 30.0000000  0  9G03G04G07G21G27G01G09G16G08
   1062781.79648    869668.55546  24511614.982    24511615.7184   24511626.3334
       169.0004        171.0004
 -20047892.08249 -15607838.47947  20581224.932    20581225.5944   20581231.4484
       206.0004        204.0004
  -7468790.90748  -5792331.51446  23465406.247    23465407.0534   23465411.8884
       168.0004        169.0004
 -13078939.60347 -10032308.21946  22476006.078    22476007.3064   22476014.2414
       162.0004        164.0004
 -14168121.79349 -11015399.72347  22250574.679    22250574.1114   22250581.0204
       210.0004        210.0004
  -5779516.03947  -4477574.87345  23717120.861    23717121.9654   23717132.6624
       146.0004        150.0004
 -18529650.34649 -14408063.21147  20890648.640    20890648.9614   20890655.9204
       210.0004        211.0004
   1748900.05346   1393517.58045  24697525.646    24697526.1774   24697530.6364
       133.0004        139.0004
 -23027651.99249 -17926448.94947  20271313.334    20271313.6174   20271321.2544
       210.0004        211.0004
 21  1 31  0 25  0.0000000  0  8G03G04G07G21G27G01G09G08
   1114291.11048    909805.43546  24521416.575    24521417.2124   24521430.0734
       169.0004        170.0004
 -20001924.73949 -15572019.76647  20589972.211    20589972.4214   20589978.9804
       206.0004        204.0004
  -7540759.69848  -5848411.05846  23451711.935    23451712.0184   23451717.5344
       169.0004        170.0004
 -13125384.75947 -10068499.17246  22467169.071    22467168.8244   22467177.4164
       163.0004        165.0004
 -14079378.95049 -10946249.43847  22267461.012    22267461.1474   22267468.5424
       211.0004        210.0004
  -5853260.61147  -4535037.99245  23703085.444    23703087.8284   23703100.0804
       147.0004        151.0004
 -18555051.10249 -14427855.99847  20885815.412    20885815.5514   20885822.2304
       210.0004        211.0004
 -22999150.92749 -17904240.30047  20276736.966    20276737.1804   20276744.7864
       210.0004        211.0004
 21  1 31  0 25 30.0000000  0  8G03G04G07G21G27G01G09G08
   1165568.92348    949761.84546  24531175.032    24531175.9834   24531187.6944
       169.0004        170.0004
 -19955441.58449 -15535799.11947  20598817.041    20598817.6974   20598824.2484
       205.0004        204.0004
  -7612832.10148  -5904571.31046  23437994.439    23437996.5154   23438001.7064
       168.0004        168.0004
 -13171653.23847 -10104552.46546  22458364.780    22458364.4164   22458371.1214
       163.0004        165.0004
 -13990293.15049 -10876831.92147  22284412.840    22284413.5244   22284420.9074
       211.0004        210.0004
  -5927144.45347  -4592609.65145  23689028.972    23689028.7304   23689039.7324
       147.0004        151.0004
 -18579892.51849 -14447212.94247  20881088.506    20881088.5054   20881095.1374
       211.0004        211.0004
 -22970076.97049 -17881585.25147  20282268.792    20282269.6634   20282277.3054
       210.0004        211.0004
 21  1 31  0 26  0.0000000  0  8G03G04G07G21G27G01G09G08
   1216610.85248    989534.48946  24540889.458    24540889.5564   24540899.9214
       168.0004        168.0004
 -19908447.01049 -15499179.97547  20607760.423    20607761.0224   20607766.9454
       205.0004        204.0004
  -7685009.48948  -5960813.38246  23424261.846    23424261.7794   23424267.3054
       168.0004        171.0004
 -13217745.74447 -10140468.62446  22449593.127    22449594.0524   22449599.8274
       163.0004        165.0004
 -13900870.06249 -10807151.57947  22301430.922    22301430.9184   22301437.4094
       211.0004        210.0004
  -6001167.79147  -4650289.98745  23674941.509    23674942.3334   23674953.7014
       148.0004        152.0004
 -18604176.55149 -14466135.56147  20876466.821    20876467.1874   20876473.9404
       211.0004        211.0004
 -22940434.31549 -17858487.06647  20287910.155    20287910.7874   20287917.9724
       210.0004        211.0004
 21  1 31  0 26 30.0000000  0  8G03G04G07G21G27G01G09G08
   1267416.35248   1029122.85346  24550557.314    24550557.6424   24550569.6484
       169.0004        171.0004
 -19860941.70149 -15462162.85647  20616800.219    20616800.6824   20616806.5124
       205.0004        203.0004
  -7757289.50248  -6017135.44846  23410508.547    23410509.2584   23410513.6554
       172.0004        176.0004
 -13263657.66247 -10176244.07546  22440857.293    22440856.4994   22440862.4944
       164.0004        166.0004
 -13811111.53649 -10737209.85647  22318510.623    22318510.8714   22318518.2394
       211.0004        210.0004
  -6075327.07147  -4708076.30045  23660829.077    23660830.2954   23660840.7594
       148.0004        151.0004
 -18627901.34649 -14484622.41947  20871951.862    20871952.5734   20871958.8304
       210.0004        210.0004
 -22910223.25749 -17834945.96847  20293659.405    20293659.9504   20293667.2004
       210.0004        211.0004
 21  1 31  0 27  0.0000000  0  8G03G04G07G21G27G01G09G08
   1317983.09148   1068525.17346  24560178.732    24560179.4984   24560192.4004
       169.0004        169.0004
 -19812928.28649 -15424749.81747  20625937.118    20625937.4604   20625942.8494
       204.0004        203.0004
  -7829671.41948  -6073536.92346  23396734.133    23396734.7264   23396739.0454
       173.0004        174.0004
 -13309387.56047 -10211877.68646  22432154.360    22432155.1344   22432162.0044
       164.0004        166.0004
 -13721021.49149 -10667009.81147  22335653.300    22335654.1844   22335661.8594
       210.0004        210.0004
  -6149620.75247  -4765967.33545  23646693.701    23646693.2474   23646704.1514
       149.0004        152.0004
