     2.11           OBSERVATION DATA    G (GPS)             RINEX VERSION / TYPE
teqc  2018Jun8                          20210131 18:53:27UTCPGM / RUN BY / DATE
Linux2.6.32-573.12.1.el6.x86_64|x86_64|gcc|Win64-MinGW64|=+ COMMENT
BIT 2 OF LLI FLAGS DATA COLLECTED UNDER A/S CONDITION       COMMENT
-Unknown-                                                   MARKER NAME
CRNO                                                        MARKER NUMBER
-Unknown-           -Unknown-                               OBSERVER / AGENCY
-Unknown-           ASHTECH             -Unknown-           REC # / TYPE / VERS
-Unknown-           -Unknown-                               ANT # / TYPE
   408079.7292 -6158374.6664  1605162.5568                  APPROX POSITION XYZ
        0.0000        0.0000        0.0000                  ANTENNA: DELTA H/E/N
     1     1                                                WAVELENGTH FACT L1/2
     7    L1    L2    C1    P1    P2    S1    S2            # / TYPES OF OBSERV
    30.0000                                                 INTERVAL
Forced Modulo Decimation to 30 seconds                      COMMENT
 SNR is mapped to RINEX snr flag value [1-9]                COMMENT
  L1: 1 -> 1;  90 -> 5; 210 -> 9                            COMMENT
  L2: 1 -> 1; 150 -> 5; 250 -> 9                            COMMENT
pseudorange smoothing corrections not applied               COMMENT
  2021     2     2     0     0   30.0000000     GPS         TIME OF FIRST OBS
                                                            END OF HEADER
 21  2  2  0  0 30.0000000  0  8G21G22G08G03G04G16G09G27
  -7908855.00147  -5999025.70045  23332028.769    23332027.9054   23332034.2354
       135.0004        140.0004
  -3731662.96347  -2228203.28345  24261628.896    24261628.8144   24261634.0244
       142.0004        146.0004
 -23141513.91049 -18003114.25247  20242928.845    20242929.5844   20242937.3914
       211.0004        211.0004
  -4144783.12747  -3196026.39645  23507001.150    23507001.5224   23507010.2974
       156.0004        159.0004
 -22157847.54049 -17254563.44548  20222746.449    20222746.8324   20222752.4684
       216.0004        215.0004
  -8177938.03447  -6338686.11845  23316718.289    23316720.4254   23316724.5194
       148.0004        151.0004
 -12779259.22249  -9937725.72647  21727478.403    21727478.7934   21727485.1334
       197.0004        197.0004
 -19950973.21049 -15525365.76847  21073306.632    21073306.7724   21073314.1754
       202.0004        202.0004
 21  2  2  0  1  0.0000000  0  8G21G22G08G03G04G16G09G27
  -7960009.10047  -6038885.87945  23322294.731    23322294.9514   23322300.7654
       138.0004        144.0004
  -3675591.77347  -2184511.51645  24272300.907    24272299.7544   24272304.1094
       145.0004        151.0004
 -23165987.12849 -18022184.27147  20238272.549    20238272.7614   20238280.4044
       211.0004        211.0004
  -4080455.31347  -3145900.83545  23519243.875    23519244.1804   23519251.2314
       159.0004        162.0004
 -22161955.56049 -17257764.49048  20221964.357    20221964.8694   20221970.7234
       216.0004        215.0004
  -8092250.31547  -6271916.47445  23333029.184    23333027.3554   23333028.7874
       147.0004        150.0004
 -12848748.35949  -9991873.09547  21714254.133    21714255.2924   21714261.7704
       197.0004        197.0004
 -19903376.10649 -15488277.10047  21082364.459    21082364.2104   21082371.3774
       202.0004        202.0004
 21  2  2  0  1 30.0000000  0  8G21G22G08G03G04G16G09G27
  -8011220.67347  -6078790.85645  23312547.751    23312548.3014   23312554.3494
       138.0004        143.0004
  -3619699.56947  -2140959.21545  24282935.533    24282935.0944   24282941.0724
       147.0004        152.0004
 -23189868.99849 -18040793.50947  20233727.226    20233727.8414   20233735.8964
       210.0004        211.0004
  -4016172.14347  -3095810.02645  23531476.016    23531477.0654   23531482.8754
       160.0004        162.0004
 -22165496.51849 -17260523.67548  20221290.479    20221290.7044   20221296.9144
       216.0004        215.0004
  -8006629.03147  -6205198.61045  23349318.090    23349318.9044   23349321.3774
       147.0004        149.0004
 -12917835.17149 -10045706.94647  21701107.520    21701108.0394   21701115.5554
       197.0004        197.0004
 -19855217.18149 -15450750.65247  21091528.115    21091528.3664   21091535.5264
       202.0004        202.0004
 21  2  2  0  2  0.0000000  0  9G21G22G08G07G03G04G16G09G27
  -8062485.79247  -6118737.58145  23302794.330    23302794.0824   23302799.1974
       137.0004        142.0004
  -3563987.22547  -2097547.07645  24293536.987    24293536.1524   24293542.9104
       147.0004        151.0004
 -23213157.47149 -18058940.36247  20229296.668    20229296.6944   20229304.4364
       211.0004        212.0004
    -86107.20854    -45698.87943  24555305.195
        74.0004         74.0004
  -3951935.20847  -3045755.25445  23543699.201    23543700.4694   23543707.5904
       159.0004        161.0004
 -22168468.85449 -17262839.78448  20220724.727    20220725.3384   20220731.1604
       216.0004        215.0004
  -7921074.88347  -6138533.00045  23365594.730    23365597.0584   23365604.1564
       145.0004        148.0004
 -12986516.25649 -10099224.66747  21688038.994    21688038.6314   21688045.5864
       197.0004        197.0004
 -19806497.15649 -15412786.99047  21100799.449    21100800.0824   21100806.8424
       202.0004        203.0004
 21  2  2  0  2 30.0000000  0  9G21G22G08G07G03G04G16G09G27
  -8113801.01347  -6158723.39645  23293029.508    23293029.2104   23293034.4594
       137.0004        142.0004
  -3508454.65447  -2054275.01245  24304104.725    24304104.2894   24304109.7194
       148.0004        151.0004
 -23235850.00849 -18076622.84647  20224978.066    20224978.2824   20224986.1324
       211.0004        211.0004
   -145613.08244    -92066.77945  24543980.049
        74.0004        148.0004
  -3887745.44947  -2995737.28045  23555913.603    23555913.3314   23555923.0894
       159.0004        160.0004
 -22170870.39149 -17264711.11248  20220268.382    20220268.6324   20220274.4474
       216.0004        215.0004
  -7835588.29647  -6071920.10345  23381868.509    23381868.2774   23381871.9634
       146.0004        150.0004
 -13054787.53949 -10152423.06147  21675046.394    21675046.5054   21675053.6774
       196.0004        196.0004
 -19757216.15849 -15374386.20747  21110177.817    21110177.6044   21110184.9694
       202.0004        202.0004
 21  2  2  0  3  0.0000000  0  9G21G22G08G07G03G04G16G09G27
  -8165167.82747  -6198749.38445  23283253.086    23283252.8694   23283260.0734
       138.0004        143.0004
  -3453107.69247  -2011147.51945  24314638.148    24314636.2624   24314642.2314
       149.0004        152.0004
 -23257949.25149 -18093843.00847  20220772.122    20220772.8014   20220780.3064
       210.0004        211.0004
   -205291.20945   -138569.18645  24532625.338                    24532629.8634
        85.0004        151.0004
  -3823609.48247  -2945761.21645  23568117.440    23568118.1234   23568126.9174
       156.0004        157.0004
 -22172704.72849 -17266140.45248  20219918.772    20219919.3794   20219925.5264
       216.0004        216.0004
  -7750174.96447  -6005364.27345  23398125.012    23398123.1954   23398123.8944
       148.0004        151.0004
 -13122650.75249 -10205303.45747  21662132.214    21662132.9814   21662139.4584
       196.0004        196.0004
 -19707380.04849 -15335552.84947  21119661.234    21119661.3154   21119668.3404
       202.0004        202.0004
 21  2  2  0  3 30.0000000  0  9G21G22G08G07G03G04G16G09G27
  -8216580.72747  -6238811.26245  23273470.026    23273469.5804   23273478.0684
       140.0004        145.0004
  -3397945.43547  -1968164.02745  24325135.347    24325134.7334   24325139.4254
       148.0004        152.0004
 -23279452.12149 -18110598.48447  20216681.038    20216681.1864   20216688.6224
       211.0004        211.0004
   -265138.69747   -185203.55645  24521236.365    24521236.4064   24521241.5294
       145.0004        154.0004
  -3759527.08447  -2895826.91945  23580311.067    23580311.7804   23580323.1324
       156.0004        159.0004
 -22173968.55249 -17267125.25748  20219678.495    20219678.7024   20219684.7984
       217.0004        215.0004
  -7664833.74647  -5938864.61945  23414359.634    23414360.0494   23414364.3884
       148.0004        151.0004
 -13190100.61649 -10257861.80447  21649297.458    21649297.9324   21649303.9144
       196.0004        196.0004
 -19656987.81649 -15296286.17147  21129250.322    21129250.4174   21129257.1524
       201.0004        201.0004
 21  2  2  0  4  0.0000000  0  9G21G22G08G07G03G04G16G09G27
  -8268038.89447  -6278908.43145  23263678.180    23263678.3834   23263683.9684
       141.0004        146.0004
  -3342969.85947  -1925325.96845  24335596.987    24335595.9954   24335601.6624
       148.0004        152.0004
 -23300358.13049 -18126888.86647  20212702.302    20212702.5524   20212710.5944
       211.0004        212.0004
   -325156.02547   -231970.26745  24509816.334    24509816.5184   24509819.8034
       149.0004        153.0004
  -3695501.51647  -2845936.86145  23592496.466    23592497.5014   23592505.5534
       158.0004        162.0004
 -22174662.11549 -17267665.70848  20219546.158    20219546.7784   20219552.7374
       216.0004        215.0004
  -7579566.78447  -5872422.83345  23430586.027    23430585.8704   23430589.9614
       147.0004        151.0004
 -13257135.48249 -10310096.74947  21636540.688    21636540.8924   21636548.1104
       196.0004        196.0004
 -19606041.95449 -15256588.09547  21138944.578    21138944.9154   21138951.3964
       201.0004        200.0004
 21  2  2  0  4 30.0000000  0  9G21G22G08G07G03G04G16G09G27
  -8319538.71247  -6319038.09045  23253877.510    23253876.9084   23253884.9224
       143.0004        148.0004
  -3288182.52447  -1882634.63645  24346022.589    24346021.2834   24346027.6834
       147.0004        150.0004
 -23320665.63649 -18142712.88447  20208838.177    20208838.5004   20208846.1354
       211.0004        212.0004
   -385342.01147   -278868.39545  24498363.024    24498363.3334   24498366.3804
       150.0004        153.0004
  -3631534.60247  -2796092.54446  23604671.260    23604671.7734   23604677.1684
       160.0004        163.0004
 -22174784.35449 -17267760.96048  20219523.872    20219523.8584   20219529.2584
       216.0004        215.0004
  -7494375.32147  -5806039.85845  23446796.990    23446796.7624   23446801.0144
       145.0004        148.0004
 -13323752.34249 -10362005.97847  21623864.595    21623864.7774   21623871.8674
       196.0004        197.0004
 -19554543.69049 -15216459.56047  21148744.134    21148744.6464   21148751.8934
       201.0004        201.0004
 21  2  2  0  5  0.0000000  0  9G21G22G08G07G03G04G16G09G27
  -8371078.50147  -6359198.86845  23244069.605    23244069.3984   23244076.4444
       144.0004        148.0004
  -3233585.46447  -1840091.53045  24356410.047    24356409.5964   24356417.8814
       146.0004        149.0004
 -23340374.32849 -18158070.29747  20205087.506    20205087.5824   20205095.4884
       211.0004        211.0004
   -445697.15147   -325898.31645  24486877.331    24486877.1364   24486882.7264
       152.0004        155.0004
  -3567629.47947  -2746296.35145  23616831.376    23616832.0914   23616838.4354
       160.0004        161.0004
 -22174335.36949 -17267411.10148  20219608.705    20219609.1284   20219614.8604
       217.0004        215.0004
  -7409261.30847  -5739717.26245  23462994.255    23462993.4794   23462997.5504
       145.0004        149.0004
 -13389949.27849 -10413588.00047  21611266.130    21611266.7034   21611274.6744
       196.0004        196.0004
 -19502495.37649 -15175902.42547  21158648.733    21158649.3174   21158656.1254
       201.0004        201.0004
 21  2  2  0  5 30.0000000  0  9G21G22G08G07G03G04G16G09G27
  -8422654.99647  -6399388.25545  23234254.917    23234254.8404   23234261.6824
       143.0004        148.0004
  -3179178.93147  -1797696.90245  24366762.760    24366763.0234   24366769.9884
       147.0004        150.0004
 -23359482.64349 -18172959.86147  20201451.025    20201451.5084   20201459.2104
       211.0004        211.0004
   -506220.10147   -373058.99045  24475360.173    24475359.7534   24475365.0404
       155.0004        158.0004
  -3503787.71947  -2696549.52545  23628978.872    23628978.5474   23628986.7054
       157.0004        156.0004
 -22173313.89749 -17266615.13348  20219803.437    20219803.7374   20219809.2704
       217.0004        215.0004
  -7324225.56047  -5673455.62545  23479175.038    23479175.7304   23479180.0004
       143.0004        146.0004
 -13455723.12349 -10464840.31447  21598750.965    21598751.2674   21598757.9714
       196.0004        197.0004
 -19449898.04049 -15134917.45647  21168658.781    21168658.2104   21168665.0934
       200.0004        200.0004
 21  2  2  0  6  0.0000000  0  9G21G22G08G07G03G04G16G09G27
  -8474265.83747  -6439604.41145  23224434.452    23224433.7244   23224440.2994
       145.0004        149.0004
  -3124964.77347  -1755452.18745  24377080.817    24377079.9694   24377085.5084
       146.0004        149.0004
 -23377989.77649 -18187380.97847  20197930.128    20197930.0964   20197937.3614
       211.0004        212.0004
   -566910.71147   -420350.31345  24463810.366    24463811.0654   24463816.0114
       157.0004        160.0004
  -3440011.92047  -2646854.14045  23641113.255    23641114.6574   23641123.5504
       154.0004        155.0004
 -22171719.72049 -17265372.91448  20220106.449    20220106.7824   20220112.7044
       217.0004        215.0004
  -7239270.13347  -5607256.55945  23495340.602    23495340.5684   23495346.5784
       143.0004        147.0004
 -13521071.61449 -10515761.21347  21586315.259    21586315.6084   21586322.4594
       196.0004        197.0004
 -19396753.72549 -15093506.29247  21178770.952    21178771.0854   21178777.5184
       200.0004        200.0004
 21  2  2  0  6 30.0000000  0  9G21G22G08G07G03G04G16G09G27
  -8525909.06847  -6479845.78345  23214606.694    23214605.8714   23214611.3094
       145.0004        149.0004
  -3070945.23547  -1713359.11645  24387360.033    24387359.9274   24387366.6184
       148.0004        152.0004
 -23395895.19449 -18201333.21347  20194522.115    20194522.4694   20194530.3724
       211.0004        212.0004
   -627768.96547   -467772.29245  24452230.339    24452229.9934   24452235.0224
       157.0004        159.0004
  -3376304.90147  -2597212.34045  23653237.379    23653238.6294   23653247.8864
       154.0004        158.0004
 -22169552.81249 -17263684.40148  20220518.388    20220518.8914   20220525.0884
       216.0004        215.0004
  -7154396.76247  -5541121.46045  23511491.835    23511493.3924   23511496.2144
       142.0004        145.0004
 -13585992.78549 -10566349.12147  21573961.027    21573961.3494   21573968.4274
       196.0004        196.0004
 -19343064.66649 -15051670.63247  21188988.141    21188987.7324   21188994.2894
       200.0004        200.0004
 21  2  2  0  7  0.0000000  0  9G21G22G08G07G03G04G16G09G27
  -8577581.66447  -6520110.02445  23204775.499    23204774.0704   23204778.2104
       147.0004        150.0004
  -3017121.88847  -1671418.95445  24397604.362    24397603.6904   24397608.3204
       147.0004        149.0004
 -23413198.46049 -18214816.26547  20191230.127    20191230.0974   20191237.2484
       212.0004        212.0004
   -688794.77747   -515324.80445  24440616.278    24440617.7304   24440621.5974
       158.0004        160.0004
  -3312669.41147  -2547626.24445  23665347.680    23665348.1314   23665356.6404
       156.0004        158.0004
 -22166813.07949 -17261549.54948  20221039.871    20221040.4664   20221046.3904
       216.0004        215.0004
  -7069607.18147  -5475051.69745  23527628.719    23527629.0194   23527630.6574
       142.0004        146.0004
 -13650484.46249 -10616602.37547  21561688.827    21561688.6044   21561695.8024
       196.0004        197.0004
 -19288833.00749 -15009412.18847  21199308.089    21199307.4874   21199314.2274
       200.0004        200.0004
 21  2  2  0  7 30.0000000  0  9G21G22G08G07G03G04G16G09G27
  -8629282.85547  -6560396.57045  23194935.596    23194935.5444   23194941.1384
       148.0004        151.0004
  -2963497.07747  -1629633.47945  24407807.827    24407807.2754   24407813.6044
       148.0004        153.0004
 -23429899.80349 -18227830.27947  20188051.464    20188051.7604   20188059.3144
       212.0004        212.0004
   -749988.89347   -563008.46845  24428970.756    24428972.1344   24428976.4814
       158.0004        161.0004
  -3249108.65047  -2498098.35645  23677441.938    23677442.3754   23677452.0514
       154.0004        156.0004
 -22163501.04049 -17258968.74148  20221670.740    20221670.6924   20221676.6604
       217.0004        215.0004
  -6984903.71247  -5409048.98245  23543743.777    23543744.4764   23543750.5244
       141.0004        146.0004
 -13714545.12749 -10666519.76347  21549497.671    21549498.0244   21549506.1524
       196.0004        198.0004
 -19234061.50449 -14966733.08247  21209729.486    21209730.1904   21209737.4104
       200.0004        200.0004
 21  2  2  0  8  0.0000000  0  9G21G22G08G07G03G04G16G09G27
  -8681008.85647  -6600702.40345  23185090.665    23185090.2774   23185098.6954
       148.0004        152.0004
  -2910071.01547  -1588002.88445  24417974.620    24417974.0824   24417979.4944
       147.0004        150.0004
 -23445996.95149 -18240373.49147  20184987.847    20184988.4144   20184996.4274
       212.0004        212.0004
   -811349.00847   -610821.48745  24417294.579    24417295.4784   24417300.4104
       158.0004        161.0004
  -3185623.51047  -2448629.41545  23689523.085    23689523.1864   23689531.8934
       153.0004        156.0004
 -22159614.87149 -17255940.56048  20222410.022    20222410.4014   20222415.9464
       216.0004        215.0004
  -6900286.29147  -5343113.30945  23559848.259    23559848.9114   23559852.9384
       140.0004        144.0004
 -13778170.95349 -10716098.32247  21537390.855    21537391.1794   21537398.3224
       197.0004        199.0004
 -19178750.61849 -14923633.67747  21220254.807    21220255.3904   21220262.5214
       199.0004        199.0004
 21  2  2  0  8 30.0000000  0  9G21G22G08G07G03G04G16G09G27
  -8732757.48147  -6641025.90345  23175243.601    23175244.6104   23175249.3874
       149.0004        152.0004
  -2856845.83347  -1546528.80645  24428103.190    24428101.3904   24428109.0314
       145.0004        148.0004
 -23461489.89849 -18252445.88147  20182040.124    20182040.1534   20182047.9094
       212.0004        212.0004
   -872875.88647   -658764.46645  24405585.352    24405586.8764   24405592.5534
       158.0004        160.0004
  -3122217.22347  -2399221.94145  23701590.765    23701590.5974   23701597.2184
       154.0004        157.0004
 -22155155.11049 -17252465.41848  20223258.823    20223259.0344   20223264.5154
       216.0004        215.0004
  -6815757.51247  -5277246.73345  23575931.946    23575931.8334   23575937.5154
       138.0004        142.0004
 -13841360.38249 -10765336.82047  21525366.721    21525367.0814   21525373.4594
       199.0004        199.0004
 -19122903.06549 -14880116.08247  21230882.862    21230882.9514   21230890.1004
       199.0004        200.0004
 21  2  2  0  9  0.0000000  0  9G21G22G08G07G03G04G16G09G27
  -8784526.72747  -6681365.46845  23165393.582    23165393.3964   23165398.1364
       149.0004        152.0004
  -2803823.60947  -1505212.89945  24438190.349    24438190.8514   24438198.6214
       143.0004        146.0004
 -23476378.24549 -18264047.17147  20179206.646    20179206.8354   20179214.5644
       211.0004        212.0004
   -934569.07347   -706837.04245  24393848.189    24393848.5404   24393852.9764
       159.0004        162.0004
  -3058892.59047  -2349878.08145  23713637.273    23713638.4634   23713647.9584
       153.0004        156.0004
 -22150121.83849 -17248543.38848  20224216.264    20224216.8084   20224222.3674
       216.0004        215.0004
  -6731319.09847  -5211450.56645  23592000.282    23592000.5714   23592005.9014
       140.0004        144.0004
 -13904111.45849 -10814233.75147  21513425.464    21513426.0574   21513431.8434
       199.0004        200.0004
 -19066521.22349 -14836182.16547  21241612.266    21241612.3174   21241619.3324
       200.0004        200.0004
 21  2  2  0  9 30.0000000  0  9G21G22G08G07G03G04G16G09G27
  -8836313.53247  -6721718.72845  23155539.899    23155538.7534   23155543.7024
       151.0004        154.0004
  -2751005.28547  -1464055.87445  24448246.281    24448244.3714   24448249.0644
       144.0004        148.0004
 -23490660.89049 -18275176.48647  20176488.152    20176488.7444   20176496.5834
       211.0004        212.0004
   -996427.97947   -755038.72845  24382076.381    24382076.3384   24382081.1704
       159.0004        160.0004
  -2995651.51047  -2300599.34345  23725673.958    23725674.7984   23725681.4854
       155.0004        158.0004
 -22144514.46049 -17244174.01048  20225283.360    20225283.9014   20225289.6264
       216.0004        215.0004
  -6646971.89647  -5145725.48745  23608053.617    23608051.9744   23608057.0844
       141.0004        146.0004
 -13966421.47049 -10862787.00547  21501569.129    21501568.6894   21501575.1984
       200.0004        200.0004
 -19009606.68449 -14791833.16647  21252442.230    21252442.4314   21252449.9394
       199.0004        199.0004
 21  2  2  0 10  0.0000000  0 10G21G22G08G07G01G03G04G16G09G27
  -8888117.50847  -6762085.34245  23145680.979    23145680.0534   23145686.6444
       152.0004        156.0004
  -2698394.07047  -1423060.20345  24458253.610    24458254.3374   24458261.0844
       143.0004        148.0004
 -23504339.58849 -18285835.19448  20173885.755    20173886.1474   20173893.9784
       212.0004        213.0004
  -1058453.96047   -803370.62745  24370272.555    24370272.5654   24370278.0974
       157.0004        158.0004
  -2805270.63654  -2164559.19943                                  24580721.8684
        74.0004         74.0004
  -2932498.39747  -2251389.10145  23737691.644    23737691.4264   23737700.3694
       155.0004        157.0004
 -22138334.66549 -17239358.58948  20226459.214    20226459.6804   20226465.4604
       216.0004        214.0004
  -6562719.40247  -5080074.21445  23624085.430    23624085.3304   23624090.0814
       139.0004        144.0004
 -14028290.01349 -10910996.25547  21489795.140    21489795.1084   21489802.1974
       200.0004        201.0004
 -18952163.35449 -14747072.12047  21263373.546    21263373.8534   21263380.7964
       199.0004        199.0004
 21  2  2  0 10 30.0000000  0 10G21G22G08G07G01G03G04G16G09G27
  -8939934.01047  -6802461.71845  23135820.297    23135819.4964   23135824.4204
       153.0004        156.0004
  -2645989.67247  -1382225.69045  24468226.973    24468225.5804   24468233.2344
       143.0004        146.0004
 -23517411.03949 -18296020.72348  20171398.349    20171398.5754   20171406.9284
       212.0004        213.0004
  -1120644.48947   -851830.75445  24358438.124    24358438.5294   24358442.6744
       156.0004        159.0004
  -2805270.63644  -2164559.19944                                  24580721.8684
        74.0004        108.0004
  -2869433.51747  -2202247.65245  23749691.885    23749693.2204   23749701.3064
       155.0004        157.0004
 -22131580.39349 -17234095.52648  20227744.498    20227744.9714   20227750.6684
       216.0004        214.0004
  -6478561.11347  -5014496.34845  23640101.846    23640101.9124   23640104.4384
       142.0004        146.0004
 -14089712.86249 -10958858.21847  21478105.721    21478106.6084   21478113.5184
       200.0004        200.0004
 -18894191.38449 -14701899.14047  21274405.565    21274405.5894   21274412.4004
       199.0004        200.0004
 21  2  2  0 11  0.0000000  0 10G21G22G08G07G01G03G04G16G09G27
  -8991760.79747  -6842846.12745  23125956.545    23125957.2384   23125963.4584
       154.0004        156.0004
  -2593793.63447  -1341553.57045  24478160.000    24478159.2194   24478165.3654
       141.0004        144.0004
 -23529875.41849 -18305733.20848  20169026.070    20169026.6424   20169034.3824
       212.0004        213.0004
  -1182999.79247   -900419.27545  24346572.758    24346573.4864   24346578.1044
       158.0004        162.0004
  -1258744.90344   -951722.67744  24581811.530
        74.0004        109.0004
  -2806459.66747  -2153177.14245  23761676.046    23761675.5684   23761683.7284
       155.0004        158.0004
 -22124251.80149 -17228384.93648  20229139.371    20229139.8924   20229145.5384
       216.0004        215.0004
  -6394498.86547  -4948993.31945  23656094.841    23656096.1024   23656102.1114
       140.0004        144.0004
 -14150688.15549 -11006371.42147  21466503.699    21466503.8984   21466510.5234
       201.0004        202.0004
 -18835693.13549 -14656316.07447  21285536.967    21285537.1104   21285544.4724
       199.0004        200.0004
 21  2  2  0 11 30.0000000  0 10G21G22G08G07G01G03G04G16G09G27
  -9043595.00047  -6883236.30745  23116093.482    23116094.3194   23116099.4634
       153.0004        155.0004
  -2541807.36747  -1301044.89645  24488051.583    24488052.9464   24488058.7304
       139.0004        143.0004
 -23541732.04149 -18314972.11748  20166770.798    20166770.7794   20166778.5034
       212.0004        213.0004
  -1245518.95447   -949135.45746  24334675.065    24334675.6774   24334679.9554
       161.0004        163.0004
  -1285362.17944   -750067.981 3                                  24576760.205
        74.0004         74.000
  -2743578.94647  -2104179.16845  23773641.661    23773642.0644   23773651.1114
       155.0004        158.0004
 -22116348.50249 -17222226.51948  20230643.515    20230643.6344   20230649.5614
       216.0004        215.0004
  -6310533.92147  -4883566.05945  23672074.937    23672075.1744   23672079.8374
       141.0004        145.0004
 -14211213.26849 -11053533.84947  21454986.020    21454986.1644   21454993.2994
       201.0004        202.0004
 -18776670.41149 -14610324.32847  21296768.841    21296768.9544   21296776.0624
       199.0004        199.0004
 21  2  2  0 12  0.0000000  0 10G21G22G08G07G01G03G04G16G09G27
  -9095434.70247  -6923630.77545  23106227.906    23106226.9454   23106234.7554
       151.0004        152.0004
  -2490032.65047  -1260701.04045  24497907.995    24497905.1764   24497911.4704
       140.0004        145.0004
 -23552980.52149 -18323737.14148  20164629.840    20164630.0664   20164637.7934
       212.0004        213.0004
  -1308201.68347   -997979.08345  24322746.125    24322746.6624   24322753.1084
       160.0004        161.0004
  -1374489.46144   -819519.329 4                                  24559777.816
        74.0004        115.000
  -2680793.83547  -2055255.68445  23785590.083    23785589.9914   23785597.8384
       156.0004        160.0004
 -22107870.68949 -17215620.42748  20232256.611    20232256.9304   20232262.7334
       216.0004        215.0004
  -6226667.68147  -4818215.76745  23688034.828    23688033.7084   23688038.8834
       140.0004        144.0004
 -14271286.29049 -11100343.98647  21443554.577    21443554.5964   21443561.5274
       201.0004        202.0004
 -18717125.58949 -14563925.74947  21308099.986    21308099.9564   21308106.6974
       199.0004        199.0004
 21  2  2  0 12 30.0000000  0 10G21G22G08G07G01G03G04G16G09G27
  -9147278.76247  -6964028.66945  23096364.024    23096363.0494   23096367.5614
       151.0004        154.0004
  -2438472.38947  -1220524.33945  24507717.923    24507717.8314   24507723.3274
       142.0004        146.0004
 -23563622.25049 -18332029.39248  20162604.799    20162605.1884   20162612.5154
       212.0004        213.0004
  -1371048.81047  -1046950.86445  24310788.720    24310788.4944   24310793.2114
       160.0004        162.0004
  -1437246.96144   -868423.17044  24547843.832
        74.0004        110.0004
  -2618108.40548  -2006409.91846  23797517.917    23797518.5614   23797527.2534
       168.0004        174.0004
 -22098819.93549 -17208567.89948  20233978.736    20233979.0174   20233985.2104
       216.0004        214.0004
  -6142903.24547  -4752944.79345  23703973.946    23703974.0114   23703976.8674
       139.0004        142.0004
 -14330906.56549 -11146801.34247  21432208.879    21432209.4834   21432216.1164
       201.0004        202.0004
 -18657062.44849 -14517123.30548  21319528.862    21319529.5404   21319536.8634
       212.0004        215.0004
 21  2  2  0 13  0.0000000  0 10G21G22G08G07G01G03G04G16G09G27
  -9199123.65147  -7004427.20245  23086496.890    23086496.7434   23086502.8264
       151.0004        153.0004
  -2387127.06147  -1180515.09445  24517489.159    24517489.5474   24517495.7934
       143.0004        147.0004
 -23573655.70649 -18339847.65048  20160696.100    20160696.1234   20160703.6604
       212.0004        214.0004
  -1434059.48847  -1096050.07945  24298798.075    24298798.2214   24298802.1474
       159.0004        161.0004
  -1495289.76644   -687981.966 3                                  24536960.770
        74.0004         74.000
  -2555524.12548  -1957642.95346  23809427.031    23809428.0984   23809437.0604
       173.0004        175.0004
 -22089195.38349 -17201068.25148  20235810.217    20235810.5744   20235816.5184
       215.0004        214.0004
  -6059241.28647  -4687753.65145  23719894.075    23719893.8554   23719896.7274
       137.0004        141.0004
 -14390071.14649 -11192903.59847  21420950.044    21420950.5644   21420957.8154
       202.0004        202.0004
 -18596482.31649 -14469917.99848  21331056.861    21331057.6244   21331064.2364
       216.0004        214.0004
 21  2  2  0 13 30.0000000  0 10G21G22G08G07G01G03G04G16G09G27
  -9250966.32747  -7044823.98745  23076630.944    23076631.4894   23076637.2174
       152.0004        155.0004
  -2335997.48147  -1140673.94845  24527215.940    24527216.0724   24527222.7974
       141.0004        144.0004
 -23583080.09749 -18347191.31648  20158902.164    20158902.2954   20158910.2524
       212.0004        213.0004
  -1497232.65947  -1145275.88245  24286775.618    24286776.4834   24286780.6614
       158.0004        160.0004
  -1557615.42644   -736548.37844  24524936.948
        74.0004        105.0004
  -2493042.85848  -1908956.23047  23821317.235    23821317.5014   23821325.7434
       184.0004        190.0004
 -22078996.55049 -17193121.10848  20237750.758    20237751.1584   20237757.2594
       215.0004        214.0004
  -5975682.77147  -4622643.09145  23735795.613    23735794.2414   23735800.3274
       136.0004        142.0004
 -14448777.30749 -11238648.64647  21409778.874    21409779.1564   21409785.5854
       202.0004        202.0004
 -18535386.86049 -14422311.13148  21342683.427    21342683.8514   21342690.4754
       224.0004        228.0004
 21  2  2  0 14  0.0000000  0 10G21G22G08G07G01G03G04G16G09G27
  -9302805.08847  -7085217.72745  23066766.766    23066766.6354   23066774.3864
       154.0004        157.0004
  -2285086.10347  -1101002.85945  24536906.314    24536905.2024   24536911.9624
       138.0004        143.0004
 -23591895.36549 -18354060.34047  20157224.438    20157224.7014   20157232.3884
       212.0004        212.0004
  -1560568.35247  -1194628.34245  24274722.538    24274723.2814   24274728.1954
       157.0004        158.0004
  -1598989.69744   -768789.045 4                                  24517001.067
        74.0004        110.000
  -2430667.46548  -1860352.05347  23833187.011    23833187.4484   23833195.3424
       188.0004        190.0004
 -22068224.08749 -17184726.98448  20239801.201    20239801.5114   20239807.2884
       215.0004        214.0004
  -5892229.76347  -4557614.83545  23751673.378    23751674.9934   23751679.5544
       135.0004        141.0004
 -14507023.52849 -11284035.30447  21398694.811    21398694.9834   21398701.3094
       201.0004        202.0004
 -18473778.87549 -14374304.90148  21354407.450    21354407.5394   21354414.3514
       227.0004        228.0004
 21  2  2  0 14 30.0000000  0 10G21G22G08G07G01G03G04G16G09G27
  -9354637.63747  -7125606.64045  23056903.344    23056903.1944   23056908.5854
       153.0004        155.0004
  -2234394.31347  -1061502.86145  24546552.079    24546551.1614   24546557.5104
       138.0004        143.0004
 -23600101.67049 -18360454.84347  20155662.986    20155663.0394   20155670.8604
       212.0004        212.0004
  -1624066.12747  -1244107.08845  24262639.731    24262639.8524   24262643.8274
       156.0004        158.0004
  -1679062.59044   -603506.41043  24501825.677
        74.0004         74.0004
  -2368400.50748  -1811832.36047  23845036.094    23845036.3584   23845044.4064
       189.0004        189.0004
 -22056878.30849 -17175886.11848  20241960.139    20241960.3954   20241966.4274
       215.0004        214.0004
  -5808883.33647  -4492669.54445  23767536.558    23767536.3194   23767541.1914
       136.0004        142.0004
 -14564807.86649 -11329062.05547  21387698.744    21387699.0924   21387705.4104
       201.0004        201.0004
 -18411660.85149 -14325901.23848  21366228.151    21366228.2794   21366234.5164
       228.0004        228.0004
 21  2  2  0 15  0.0000000  0 10G21G22G08G07G01G03G04G16G09G27
  -9406461.11547  -7165988.51745  23047042.421    23047041.4384   23047048.0704
       152.0004        154.0004
  -2183923.34547  -1022174.94345  24556157.889    24556156.5154   24556162.1784
       138.0004        144.0004
 -23607698.67749 -18366374.58748  20154217.819    20154217.8264   20154225.1534
       212.0004        213.0004
  -1687725.41347  -1293711.70445  24250526.162    24250526.5764   24250530.5944
       157.0004        161.0004
  -1739165.97244   -650338.621 4                                  24490443.774
        74.0004        109.000
  -2306244.23848  -1763398.90247  23856863.410    23856864.2854   23856872.8254
       188.0004        188.0004
 -22044959.16349 -17166598.48548  20244228.008    20244228.4894   20244234.3744
       215.0004        213.0004
  -5725644.95947  -4427808.48245  23783377.186    23783375.5814   23783379.7204
       138.0004        144.0004
 -14622128.06249 -11373727.15447  21376791.053    21376791.4334   21376797.7414
       200.0004        201.0004
 -18349034.88149 -14277101.78748  21378145.316    21378145.3404   21378152.2884
       228.0004        227.0004
 21  2  2  0 15 30.0000000  0 10G21G22G08G07G01G03G04G16G09G27
  -9458266.58147  -7206356.30645  23037182.815    23037183.3634   23037189.1164
       151.0004        153.0004
  -2133667.58847   -983014.72645  24565717.317    24565719.0784   24565725.5354
       135.0004        140.0004
 -23614679.67849 -18371814.30647  20152888.699    20152889.0024   20152896.3894
       212.0004        212.0004
  -1751539.24047  -1343436.72845  24238383.246    24238383.2494   24238387.4414
       158.0004        160.0004
  -1801569.60844   -698962.61544  24478512.977
        74.0004        112.0004
  -2244194.40048  -1715048.40246  23868670.291    23868671.2474   23868680.1864
       186.0004        186.0004
 -22032460.29849 -17156859.10348  20246606.490    20246607.0094   20246612.8424
       215.0004        213.0004
  -5642509.61347  -4363027.69245  23799194.650    23799195.3014   23799198.2994
       138.0004        143.0004
 -14678975.56849 -11418023.89547  21365973.376    21365974.1144   21365980.3624
       201.0004        202.0004
 -18285896.75749 -14227903.23848  21390159.884    21390160.1764   21390167.1044
       228.0004        228.0004
 21  2  2  0 16  0.0000000  0 10G21G22G08G07G01G03G04G16G09G27
  -9510059.72047  -7246714.50945  23027326.563    23027328.4564   23027333.9274
       150.0004        154.0004
  -2083637.85446   -944030.66045  24575241.166    24575239.6754   24575247.1024
       134.0004        139.0004
 -23621052.24249 -18376779.92448  20151675.626    20151676.4324   20151683.8064
       212.0004        213.0004
  -1815515.10947  -1393288.02845  24226208.038    24226208.7384   24226214.0594
       157.0004        159.0004
  -1863217.57644   -517362.56943  24466781.611
        74.0004         74.0004
  -2182261.74448  -1666789.20946  23880456.258    23880457.0924   23880465.2684
       185.0004        185.0004
 -22019390.35449 -17146674.73248  20249093.771    20249094.3014   20249099.9694
       215.0004        213.0004
  -5559486.94547  -4298334.69845  23814995.835    23814995.7014   23814997.9924
       140.0004        146.0004
 -14735356.70449 -11461957.23447  21355245.299    21355245.3624   21355251.4184
       202.0004        202.0004
 -18222257.16749 -14178313.93448  21402269.398    21402270.2984   21402277.0384
       228.0004        227.0004
 21  2  2  0 16 30.0000000  0 10G21G22G08G07G01G03G04G16G09G27
  -9561841.71947  -7287064.02245  23017474.285    23017474.1184   23017478.8964
       151.0004        154.0004
  -2033838.72047   -905226.31045  24584716.351    24584715.8504   24584723.4754
       135.0004        141.0004
 -23626820.84349 -18381274.92248  20150578.970    20150578.9344   20150586.2314
       212.0004        213.0004
  -1879656.80147  -1443268.53845  24214003.136    24214004.1444   24214007.1494
       156.0004        159.0004
  -1910663.66844   -554333.273 4                                  24457769.237
        74.0004        116.000
  -2120452.28848  -1618626.02146  23892217.927    23892218.9284   23892226.9304
       182.0004        182.0004
 -22005753.22449 -17136048.39748  20251689.130    20251689.3804   20251695.1314
       215.0004        214.0004
  -5476582.14147  -4233733.58045  23830773.211    23830772.5574   23830775.4984
       142.0004        147.0004
 -14791273.15749 -11505528.48647  21344604.598    21344604.8034   21344611.2664
       203.0004        204.0004
 -18158122.22349 -14128338.64348  21414474.623    21414474.7624   21414481.2344
       227.0004        226.0004
 21  2  2  0 17  0.0000000  0 10G21G22G08G07G01G03G04G16G09G27
  -9613601.71947  -7327396.37745  23007625.891    23007624.0674   23007629.9764
       151.0004        154.0004
  -1984262.80347   -866595.83545  24594152.013    24594150.4394   24594158.4674
       136.0004        143.0004
 -23631976.15349 -18385292.03348  20149597.357    20149597.6754   20149605.1614
       212.0004        213.0004
  -1943955.17247  -1493371.13845  24201767.451    24201767.9104   24201772.3694
       156.0004        159.0004
  -1979000.13844   -607581.978 5                                  24444757.778
        74.0004        141.000
  -2058760.03848  -1570554.12446  23903957.186    23903958.5134   23903967.3114
       182.0004        183.0004
 -21991540.83649 -17124973.81448  20254393.219    20254393.6214   20254399.5704
       214.0004        213.0004
  -5393788.06247  -4169218.70545  23846526.567    23846526.4394   23846531.3144
       142.0004        146.0004
 -14846714.56049 -11548729.57847  21334053.565    21334054.2414   21334061.1384
       203.0004        203.0004
 -18093485.87649 -14077972.65148  21426774.667    21426774.6414   21426781.2894
       226.0004        226.0004
 21  2  2  0 17 30.0000000  0 10G21G22G08G07G01G03G04G16G09G27
  -9665326.92947  -7367701.65345  22997780.588    22997779.7284   22997786.5674
       150.0004        153.0004
  -1934901.84947   -828132.85645  24603544.947    24603544.5704   24603549.8054
       137.0004        142.0004
 -23636508.13749 -18388823.42948  20148735.241    20148735.3524   20148742.9484
       212.0004        213.0004
  -2008399.57847  -1543587.50045  24189503.627    24189504.0904   24189510.2224
       157.0004        159.0004
  -2049722.95046   -662690.29545  24431289.154                    24431300.1904
       126.0004        139.0004
  -1997176.92348  -1522567.29646  23915676.693    23915677.2194   23915685.7244
       181.0004        182.0004
 -21976743.15649 -17113443.15948  20257208.909    20257209.6164   20257215.5664
       214.0004        213.0004
  -5311095.87447  -4104783.23945  23862260.378    23862261.0914   23862264.5074
       139.0004        144.0004
 -14901668.61849 -11591550.91847  21323596.465    21323596.7604   21323603.5294
       203.0004        203.0004
 -18028340.22449 -14027209.80148  21439171.124    21439171.3594   21439178.2394
       226.0004        226.0004
 21  2  2  0 18  0.0000000  0 10G21G22G08G07G01G03G04G16G09G27
  -9717030.68847  -7407990.22445  22987941.699    22987941.6304   22987947.1544
       149.0004        152.0004
  -1885772.79347   -789850.60245  24612895.144    24612893.8834   24612899.9894
       140.0004        146.0004
 -23640432.59049 -18391881.44048  20147988.274    20147988.6904   20147996.1464
       213.0004        214.0004
  -2073005.13647  -1593929.46045  24177210.003    24177210.3614   24177214.6304
       156.0004        158.0004
  -2112400.05647   -711529.27245  24419363.138    24419365.0984   24419374.8204
       135.0004        143.0004
  -1935721.12848  -1474679.71446  23927370.772    23927371.2224   23927380.3034
       179.0004        179.0004
 -21961376.39249 -17101469.07348  20260133.338    20260133.6304   20260139.7264
       214.0004        213.0004
  -5228522.55747  -4040440.38645  23877975.320    23877975.9284   23877980.0984
       140.0004        144.0004
 -14956149.23549 -11634003.35147  21313229.144    21313229.6954   21313235.9644
       203.0004        203.0004
 -17962703.51449 -13976064.31248  21451661.859    21451661.8834   21451668.7104
       226.0004        226.0004
 21  2  2  0 18 30.0000000  0 10G21G22G08G07G01G03G04G16G09G27
  -9768707.99247  -7448258.16145  22978109.574    22978109.0954   22978112.6094
       150.0004        153.0004
  -1836875.55247   -751749.04245  24622199.297    24622197.9634   24622204.0594
       141.0004        145.0004
 -23643748.33249 -18394465.11848  20147357.257    20147357.6244   20147365.0624
       213.0004        213.0004
  -2137769.37047  -1644395.04545  24164885.800    24164885.5814   24164889.9644
       153.0004        154.0004
  -2175333.34547   -760567.92245  24407386.278    24407387.9304   24407398.6014
       139.0004        144.0004
  -1874393.34248  -1426891.84446  23939041.151    23939042.2744   23939050.6424
       179.0004        180.0004
 -21945439.26549 -17089050.53248  20263166.118    20263166.5884   20263172.6894
       214.0004        213.0004
  -5146068.00347  -3976190.10645  23893664.531    23893664.6064   23893670.2184
       139.0004        143.0004
 -15010152.80549 -11676084.04547  21302952.756    21302953.0544   21302958.9624
       203.0004        203.0004
 -17896576.60449 -13924536.83348  21464244.751    21464244.9224   21464252.6614
       226.0004        226.0004
 21  2  2  0 19  0.0000000  0 10G21G22G08G07G01G03G04G16G09G27
  -9820356.63147  -7488503.78845  22968281.575    22968279.9394   22968284.7034
       149.0004        152.0004
  -1788210.49947   -713828.36645  24631457.785    24631457.9144   24631465.6484
       138.0004        142.0004
 -23646453.75449 -18396573.21648  20146842.591    20146842.8704   20146850.1804
       213.0004        213.0004
  -2202691.15747  -1694983.45345  24152531.478    24152532.0614   24152535.6424
       151.0004        152.0004
  -2238520.60147   -809804.47445  24395358.017    24395361.3554   24395375.5234
       136.0004        140.0004
  -1813195.28148  -1379205.05146  23950688.462    23950689.1154   23950697.5884
       182.0004        185.0004
 -21928931.50449 -17076187.34648  20266307.233    20266307.7524   20266313.7254
       214.0004        213.0004
  -5063732.76347  -3912032.78045  23909334.319    23909333.6424   23909338.9504
       139.0004        143.0004
 -15063676.78549 -11717791.04347  21292767.052    21292768.2564   21292773.7764
       203.0004        203.0004
 -17829961.30249 -13872628.79648  21476920.761    21476921.3684   21476928.7414
       225.0004        225.0004
 21  2  2  0 19 30.0000000  0 10G21G22G08G07G01G03G04G16G09G27
  -9871973.04547  -7528724.28345  22958456.836    22958455.9254   22958462.1424
       148.0004        151.0004
  -1739777.90947   -676088.79845  24640673.729    24640675.3424   24640681.8974
       135.0004        141.0004
 -23648548.00949 -18398205.08548  20146444.251    20146444.2134   20146451.6934
       213.0004        213.0004
  -2267769.04147  -1745693.46945  24140146.082    24140147.6714   24140151.1664
       150.0004        153.0004
  -2301958.63747   -859236.41745  24383288.659    24383288.3014   24383301.3244
       135.0004        140.0004
  -1752127.88348  -1331620.08846  23962307.091    23962308.7624   23962318.3294
       183.0004        183.0004
 -21911852.26749 -17062878.85348  20269557.398    20269557.9844   20269563.9324
       214.0004        213.0004
  -4981516.78147  -3847968.39145  23924978.279    23924978.5074   23924983.3494
       138.0004        141.0004
 -15116717.99549 -11759121.85547  21282674.641    21282674.9954   21282680.8444
       204.0004        205.0004
 -17762858.77049 -13820341.09748  21489690.524    21489690.6714   21489697.6594
       225.0004        224.0004
 21  2  2  0 20  0.0000000  0 10G21G22G08G07G01G03G04G16G09G27
  -9923553.87047  -7568917.03945  22948641.351    22948639.4114   22948647.5224
       147.0004        150.0004
  -1691578.67647   -638531.11645  24649847.262    24649846.6704   24649853.3624
       135.0004        141.0004
 -23650031.19749 -18399360.79748  20146161.820    20146162.1794   20146169.4654
       213.0004        213.0004
  -2333001.95147  -1796524.26745  24127733.822    24127734.1584   24127739.5524
       152.0004        155.0004
  -2365645.64747   -908862.42845  24371170.826    24371172.1694   24371183.0254
       137.0004        143.0004
  -1691193.10848  -1284138.48846  23973902.152    23973903.4174   23973913.1134
       179.0004        178.0004
 -21894201.68849 -17049125.15847  20272916.379    20272916.6454   20272922.5744
       214.0004        212.0004
  -4899421.30347  -3783997.84045  23940601.282    23940600.4224   23940606.8784
       138.0004        142.0004
 -15169274.25649 -11800074.77847  21272673.863    21272673.3904   21272680.1774
       204.0004        204.0004
 -17695271.20249 -13767675.44948  21502551.731    21502551.8094   21502559.3064
       224.0004        224.0004
 21  2  2  0 20 30.0000000  0 10G21G22G08G07G01G03G04G16G09G27
  -9975096.55047  -7609080.10645  22938835.095    22938833.1834   22938837.0784
       148.0004        152.0004
  -1643614.48147   -601156.58245  24658974.263    24658974.7334   24658981.1464
       137.0004        143.0004
 -23650903.42049 -18400040.44448  20145995.540    20145995.9874   20146003.2414
       213.0004        213.0004
  -2398389.63247  -1847475.67045  24115289.718    24115290.3854   24115296.5594
       153.0004        157.0004
  -2429580.03947   -958681.20045  24359004.680    24359005.6294   24359016.3144
       138.0004        144.0004
  -1630393.48748  -1236762.18746  23985472.850    23985473.8244   23985482.2674
       177.0004        177.0004
 -21875980.45349 -17034926.80848  20276383.837    20276384.3044   20276389.9394
       214.0004        213.0004
  -4817447.65247  -3720122.29945  23956200.416    23956200.0314   23956204.6434
       139.0004        144.0004
 -15221343.93749 -11840648.55347  21262763.931    21262764.0144   21262771.4934
       203.0004        202.0004
 -17627201.37849 -13714634.03148  21515503.553    21515504.9114   21515512.3074
       224.0004        224.0004
 21  2  2  0 21  0.0000000  0 10G21G22G08G07G01G03G04G16G09G27
 -10026598.67547  -7649211.55245  22929034.160    22929032.8604   22929037.9294
       149.0004        152.0004
  -1595886.71647   -563966.29145  24668058.259    24668058.0104   24668064.6604
       140.0004        146.0004
 -23651165.10449 -18400244.34048  20145945.820    20145946.0254   20145953.3064
       213.0004        213.0004
  -2463931.52547  -1898547.25045  24102818.893    24102819.2184   24102824.7684
       155.0004        158.0004
  -2493760.29147  -1008691.53845  24346789.659    24346789.7294   24346800.9274
       135.0004        139.0004
  -1569731.40648  -1189493.04746  23997018.361    23997018.5734   23997024.8974
       176.0004        177.0004
 -21857189.21449 -17020284.28248  20279959.506    20279959.8664   20279966.1634
       214.0004        213.0004
  -4735597.35747  -3656342.88045  23971776.437    23971776.2774   23971778.4384
       140.0004        144.0004
 -15272925.29249 -11880841.80447  21252946.340    21252947.3394   21252956.0104
       201.0004        201.0004
 -17558651.87649 -13661218.83448  21528549.957    21528549.9134   21528556.9714
       223.0004        223.0004
 21  2  2  0 21 30.0000000  0 10G21G22G08G07G01G03G04G16G09G27
 -10078058.46947  -7689310.00945  22919240.700    22919240.4474   22919246.3854
       149.0004        152.0004
  -1548396.99347   -526961.46045  24677095.113    24677094.2324   24677101.7294
       139.0004        144.0004
 -23650816.54449 -18399972.71748  20146012.323    20146012.7304   20146019.7584
       212.0004        213.0004
  -2529627.01147  -1949738.51145  24090315.793    24090317.1114   24090322.4024
       155.0004        156.0004
  -2558184.76446  -1058892.19645  24334530.392    24334532.1894   24334543.6884
       134.0004        140.0004
  -1509209.33748  -1142333.00546  24008533.462    24008534.1284   24008543.7894
       176.0004        177.0004
 -21837828.69449 -17005198.16947  20283644.124    20283644.4434   20283650.0524
       214.0004        212.0004
  -4653871.82047  -3592660.60945  23987328.125    23987328.1174   23987331.0494
       139.0004        144.0004
 -15324016.73149 -11920653.29747  21243223.973    21243224.5424   21243233.6264
       200.0004        200.0004
 -17489625.48149 -13607432.02448  21541685.097    21541685.5534   21541692.4794
       223.0004        223.0004
 21  2  2  0 22  0.0000000  0 10G21G22G08G07G01G03G04G16G09G27
 -10129472.13147  -7729372.54545  22909455.593    22909456.0854   22909461.7494
       150.0004        154.0004
  -1501145.39347   -490142.21145  24686088.710    24686086.4664   24686092.3604
       137.0004        142.0004
 -23649857.06149 -18399225.05048  20146195.065    20146195.1034   20146202.1484
       212.0004        213.0004
  -2595474.95447  -2001048.56845  24077787.372    24077787.5774   24077791.1084
       156.0004        159.0004
  -2622850.94546  -1109281.25945  24322225.413    24322226.7684   24322236.6504
       132.0004        138.0004
  -1448828.66548  -1095283.15146  24020023.856    24020024.8464   24020033.9644
       178.0004        179.0004
 -21817898.67649 -16989668.28447  20287436.798    20287437.1584   20287442.6214
       214.0004        212.0004
  -4572271.49647  -3529075.96645  24002855.994    24002855.4614   24002859.9004
       140.0004        145.0004
 -15374615.59049 -11960080.96847  21233596.638    21233596.9504   21233604.9214
       201.0004        202.0004
 -17420123.97749 -13553274.99248  21554911.108    21554911.0004   21554918.2764
       224.0004        224.0004
 21  2  2  0 22 30.0000000  0 10G21G22G08G07G01G03G04G16G09G27
 -10180838.04847  -7769397.86645  22899681.260    22899681.8794   22899687.6194
       151.0004        154.0004
  -1454134.27747   -453510.36945  24695033.577    24695032.0144   24695039.1354
       141.0004        146.0004
 -23648287.61449 -18398002.08748  20146493.482    20146493.5124   20146500.7334
       212.0004        213.0004
  -2661475.07147  -2052477.21145  24065227.878    24065228.6634   24065232.3364
       157.0004        159.0004
  -2687757.88146  -1159857.93245  24309871.847    24309872.3454   24309883.6034
       129.0004        135.0004
  -1388592.58748  -1048345.98546  24031486.803    24031487.3024   24031495.4604
       177.0004        178.0004
 -21797400.65749 -16973695.80247  20291336.830    20291337.3124   20291343.5084
       214.0004        212.0004
  -4490798.38947  -3465590.43445  24018359.005    24018358.9394   24018365.4284
       140.0004        144.0004
 -15424721.06349 -11999124.18847  21224061.908    21224062.8184   21224069.9714
       202.0004        204.0004
 -17350150.83149 -13498750.45948  21568225.899    21568225.8584   21568233.3204
       223.0004        222.0004
 21  2  2  0 23  0.0000000  0 10G21G22G08G07G01G03G04G16G09G27
 -10232151.81147  -7809382.54545  22889918.015    22889917.4754   22889922.2854
       151.0004        155.0004
  -1407364.15047   -417066.23145  24703933.045    24703932.1444   24703940.6074
       142.0004        146.0004
 -23646107.02149 -18396302.90548  20146908.512    20146908.4944   20146915.5674
       212.0004        213.0004
  -2727625.93647  -2104023.28545  24052638.797    24052639.7274   24052644.8204
       156.0004        158.0004
  -2752902.51246  -1210619.74145  24297476.115    24297476.5204   24297488.3154
       129.0004        137.0004
  -1328501.92448  -1001522.12246  24042922.043    24042922.2414   24042930.0424
       177.0004        177.0004
 -21776333.82049 -16957280.08847  20295345.590    20295346.0964   20295352.0184
       213.0004        212.0004
  -4409452.48347  -3402204.03745  24033837.868    24033838.7074   24033843.8814
       140.0004        145.0004
 -15474329.92649 -12037780.44347  21214623.213    21214623.4764   21214629.8144
       204.0004        206.0004
 -17279707.21749 -13443859.32648  21581629.983    21581631.0584   21581638.4104
       222.0004        222.0004
 21  2  2  0 23 30.0000000  0 10G21G22G08G07G01G03G04G16G09G27
 -10283412.10347  -7849325.57645  22880163.661    22880161.7644   22880166.4914
       151.0004        153.0004
  -1360836.18547   -380810.80845  24712785.526    24712783.8404   24712792.0914
       138.0004        141.0004
 -23643316.66249 -18394128.59448  20147439.397    20147439.6574   20147446.8734
       212.0004        213.0004
  -2793927.54347  -2155686.83645  24040023.085    24040022.7944   24040028.7384
       157.0004        160.0004
  -2818283.41847  -1261565.63845  24285036.026    24285037.5674   24285047.1634
       137.0004        145.0004
  -1268559.42448   -954813.68446  24054328.012    24054329.1154   24054337.8614
       177.0004        179.0004
 -21754699.42049 -16940422.12847  20299462.692    20299463.2794   20299469.0384
       213.0004        212.0004
  -4328235.49847  -3338918.07945  24049295.119    24049295.8874   24049298.9104
       139.0004        144.0004
 -15523441.04949 -12076048.85647  21205277.599    21205278.3804   21205284.1514
       205.0004        207.0004
 -17208796.33549 -13388604.09948  21595125.337    21595125.4494   21595132.5634
       223.0004        223.0004
 21  2  2  0 24  0.0000000  0 10G21G22G08G07G01G03G04G16G09G27
 -10334615.96947  -7889224.62145  22870416.762    22870417.8894   22870424.3794
       151.0004        155.0004
  -1314551.79747   -344745.24545  24721595.296    24721594.1064   24721602.0034
       137.0004        142.0004
 -23639917.06649 -18391479.53748  20148086.089    20148086.3204   20148093.9384
       212.0004        213.0004
  -2860379.28247  -2207467.40545  24027377.620    24027376.7284   24027382.5784
       156.0004        157.0004
  -2883899.39447  -1312694.77545  24272547.352    24272548.4894   24272559.1044
       135.0004        138.0004
  -1208767.62648   -908222.68246  24065705.514    24065706.4084   24065716.5334
       178.0004        180.0004
 -21732498.39949 -16923122.62647  20303688.187    20303688.2744   20303694.1524
       213.0004        212.0004
  -4247148.96947  -3275733.80745  24064723.333    24064723.6224   24064729.0954
       138.0004        141.0004
 -15572052.97249 -12113928.28047  21196028.530    21196028.4374   21196033.7654
       207.0004        208.0004
 -17137421.11149 -13332987.03148  21608706.695    21608707.4024   21608714.6254
       222.0004        222.0004
 21  2  2  0 24 30.0000000  0 10G21G22G08G07G01G03G04G16G09G27
 -10385760.25647  -7929077.27345  22860684.790    22860684.9714   22860691.2654
       153.0004        156.0004
  -1268511.63047   -308870.00645  24730357.498    24730356.3684   24730362.0654
       137.0004        143.0004
 -23635907.26249 -18388354.99848  20148848.867    20148849.3684   20148856.9974
       212.0004        213.0004
  -2926979.60147  -2259363.73545  24014701.784    24014703.5674   24014708.3574
       154.0004        157.0004
  -2949747.51346  -1364004.70745  24260016.579    24260019.5154   24260029.9464
       132.0004        139.0004
  -1149127.80048   -861750.11646  24077056.021    24077056.8354   24077065.1724
       181.0004        182.0004
 -21709730.53149 -16905381.42847  20308020.415    20308020.8044   20308026.2704
       213.0004        212.0004
  -4166193.04147  -3212651.27045  24080128.978    24080127.9574   24080133.3384
       136.0004        142.0004
 -15620163.08349 -12151416.67147  21186872.821    21186872.8564   21186878.7104
       207.0004        208.0004
 -17065583.20949 -13277009.44548  21622377.043    21622377.4254   21622384.9924
       222.0004        221.0004
 21  2  2  0 25  0.0000000  0 10G21G22G08G07G01G03G04G16G09G27
 -10436842.95047  -7968881.90345  22850965.182    22850964.7164   22850970.9274
       154.0004        157.0004
  -1222717.37947   -273186.34445  24739071.263    24739069.9524   24739076.3514
       137.0004        143.0004
 -23631288.16849 -18384755.68848  20149727.804    20149728.2204   20149736.0014
       212.0004        213.0004
  -2993728.25647  -2311375.63845  24002001.278    24002002.2694   24002006.8354
       155.0004        158.0004
  -3015826.46646  -1415494.57245  24247443.187    24247444.1944   24247453.7834
       132.0004        138.0004
  -1089642.48548   -815397.93346  24088375.169    24088375.4734   24088385.3474
       181.0004        181.0004
 -21686396.91349 -16887199.38447  20312460.457    20312460.7414   20312466.6444
       213.0004        211.0004
  -4085369.19947  -3149671.68845  24095508.671    24095508.9414   24095513.5734
       136.0004        141.0004
 -15667770.04049 -12188513.00347  21177812.897    21177812.9604   21177819.0264
       206.0004        205.0004
 -16993285.72749 -13220673.74148  21636135.647    21636135.6224   21636142.6234
       221.0004        221.0004
 21  2  2  0 25 30.0000000  0 10G21G22G08G07G01G03G04G16G09G27
 -10487861.27947  -8008636.40745  22841257.586    22841257.5024   22841261.9844
       154.0004        157.0004
  -1177169.86347   -237694.96145  24747738.884    24747737.9854   24747744.9084
       139.0004        144.0004
 -23626060.11849 -18380681.87148  20150722.642    20150723.1314   20150730.7324
       212.0004        213.0004
  -3060624.25647  -2363502.37845  23989271.733    23989271.4694   23989275.9524
       155.0004        157.0004
  -3082133.93946  -1467162.53745  24234823.162    24234824.8084   24234836.6074
       134.0004        140.0004
  -1030313.64248   -769167.67846  24099664.695    24099665.2384   24099674.3574
       178.0004        179.0004
 -21662498.04749 -16868576.89147  20317007.690    20317008.3944   20317014.4514
       213.0004        212.0004
  -4004678.52547  -3086795.83345  24110866.037    24110865.0394   24110867.5044
       136.0004        142.0004
 -15714871.94749 -12225215.78047  21168847.581    21168848.1454   21168855.5644
       204.0004        202.0004
 -16920531.01549 -13163981.76448  21649980.588    21649980.4544   21649987.2344
       222.0004        221.0004
 21  2  2  0 26  0.0000000  0 10G21G22G08G07G01G03G04G16G09G27
 -10538813.09947  -8048339.08445  22831561.063    22831561.4274   22831566.7064
       154.0004        156.0004
  -1131871.51547   -202397.68545  24756359.205    24756357.7174   24756365.2024
       138.0004        143.0004
 -23620224.49049 -18376134.62148  20151833.385    20151833.6814   20151841.2674
       212.0004        213.0004
  -3127667.32947  -2415743.70745  23976512.585    23976513.3864   23976516.1504
       154.0004        155.0004
  -3148669.43047  -1519008.15145  24222164.748    24222164.4724   24222175.0954
       137.0004        143.0004
   -971144.48748   -723061.85446  24110925.657    24110925.9894   24110934.4554
       178.0004        179.0004
 -21638035.80749 -16849515.41747  20321663.410    20321663.4714   20321669.6064
       213.0004        211.0004
