     2.11           OBSERVATION DATA    G (GPS)             RINEX VERSION / TYPE
teqc  2018Jun8                          20210202 03:10:37UTCPGM / RUN BY / DATE
Linux2.6.32-573.12.1.el6.x86_64|x86_64|gcc|Win64-MinGW64|=+ COMMENT
BIT 2 OF LLI FLAGS DATA COLLECTED UNDER A/S CONDITION       COMMENT
-Unknown-                                                   MARKER NAME
CRNO                                                        MARKER NUMBER
-Unknown-           -Unknown-                               OBSERVER / AGENCY
-Unknown-           ASHTECH             -Unknown-           REC # / TYPE / VERS
-Unknown-           -Unknown-                               ANT # / TYPE
   408080.3641 -6158375.7499  1605164.6397                  APPROX POSITION XYZ
        0.0000        0.0000        0.0000                  ANTENNA: DELTA H/E/N
     1     1                                                WAVELENGTH FACT L1/2
     7    L1    L2    C1    P1    P2    S1    S2            # / TYPES OF OBSERV
    30.0000                                                 INTERVAL
Forced Modulo Decimation to 30 seconds                      COMMENT
 SNR is mapped to RINEX snr flag value [1-9]                COMMENT
  L1: 1 -> 1;  90 -> 5; 210 -> 9                            COMMENT
  L2: 1 -> 1; 150 -> 5; 250 -> 9                            COMMENT
pseudorange smoothing corrections not applied               COMMENT
  2021     2     2     0     0   30.0000000     GPS         TIME OF FIRST OBS
                                                            END OF HEADER
 21  2  2  0  0 30.0000000  0  9G08G07G01G09G21G03G16G27G04
 -23306349.68649 -18142063.90347  20155342.187    20155342.3844   20155349.6884
       212.0004        212.0004
  -5244501.20347  -4075361.93846  23883342.253    23883342.7984   23883346.3044
       160.0004        163.0004
  -3311266.09447  -2549756.40245  24145829.027    24145830.6324   24145841.8344
       142.0004        147.0004
 -18190066.20949 -14142130.58147  21094217.717    21094218.0824   21094224.4734
       207.0004        208.0004
  -7786756.17547  -6053035.50345  22769388.052    22769387.0894   22769391.8114
       154.0004        157.0004
  -1209916.06948   -922984.85546  24180252.466    24180253.6064   24180263.2324
       178.0004        178.0004
  -1666876.58747  -1272035.48345  24236855.922    24236856.3084   24236861.7614
       139.0004        145.0004
 -17357333.29549 -13493548.38748  21752397.378    21752397.9164   21752404.7524
       219.0004        219.0004
 -20745398.09649 -15878133.04847  20357815.026    20357815.3574   20357821.0584
       211.0004        210.0004
 21  2  2  0  1  0.0000000  0  9G08G07G01G09G21G03G16G27G04
 -23296745.69249 -18134580.24047  20157169.721    20157170.1764   20157177.1684
       212.0004        212.0004
  -5312545.21847  -4128383.19746  23870394.905    23870394.8164   23870398.5704
       162.0004        165.0004
  -3379381.25847  -2602832.84445  24132867.169    24132869.1424   24132878.9234
       144.0004        148.0004
 -18232459.73949 -14175164.48047  21086150.134    21086150.5334   21086157.5464
       208.0004        209.0004
  -7837400.89047  -6092498.82845  22759750.761    22759748.4244   22759755.1274
       155.0004        157.0004
  -1151950.32848   -877816.84646  24191284.619    24191285.0264   24191295.6394
       179.0004        180.0004
  -1587266.50847  -1210001.64045  24252006.556    24252005.3624   24252010.2994
       138.0004        144.0004
 -17280900.23949 -13433990.13848  21766941.678    21766942.1324   21766949.6294
       219.0004        218.0004
 -20716331.18249 -15855483.48947  20363345.710    20363346.4624   20363351.9224
       211.0004        210.0004
 21  2  2  0  1 30.0000000  0  9G08G07G01G09G21G03G16G27G04
 -23286536.99349 -18126625.39347  20159112.490    20159112.6784   20159119.8864
       212.0004        212.0004
  -5380729.02647  -4181513.40745  23857418.785    23857419.1874   23857423.2364
       161.0004        161.0004
  -3447708.15947  -2656074.26545  24119862.170    24119864.0794   24119876.0744
       143.0004        146.0004
 -18274332.48349 -14207792.58447  21078181.630    21078182.0574   21078188.8284
       208.0004        207.0004
  -7887958.79347  -6131894.54545  22750128.689    22750128.9214   22750134.2364
       155.0004        158.0004
  -1094160.34848   -832785.78346  24202280.317    24202281.8004   24202292.5184
       180.0004        181.0004
  -1507800.66347  -1148080.20545  24267126.559    24267126.7634   24267131.9694
       137.0004        142.0004
 -17204035.31149 -13374095.38348  21781569.307    21781569.5494   21781576.6574
       219.0004        220.0004
 -20686708.17949 -15832400.63847  20368983.625    20368983.5584   20368989.2774
       211.0004        210.0004
 21  2  2  0  2  0.0000000  0  9G08G07G01G09G21G03G16G27G04
 -23275722.11949 -18118198.22348  20161170.414    20161170.7964   20161177.8424
       212.0004        213.0004
  -5449049.03347  -4234749.79346  23844418.371    23844418.7654   23844421.6074
       160.0004        163.0004
  -3516242.53747  -2709477.42645  24106821.145    24106821.7984   24106835.1554
       143.0004        146.0004
 -18315680.69649 -14240011.98447  21070313.697    21070314.1364   21070320.6264
       207.0004        208.0004
  -7938424.30047  -6171218.27145  22740525.689    22740525.8294   22740530.7054
       156.0004        159.0004
  -1036545.83448   -787891.50946  24213244.312    24213245.8624   24213255.4184
       180.0004        181.0004
  -1428477.68847  -1086270.09445  24282222.367    24282222.0734   24282225.1454
       136.0004        142.0004
 -17126738.94249 -13313864.46248  21796278.039    21796278.3384   21796284.9354
       219.0004        218.0004
 -20656527.77749 -15808883.45747  20374726.167    20374726.5464   20374732.6604
       211.0004        210.0004
 21  2  2  0  2 30.0000000  0  9G08G07G01G09G21G03G16G27G04
 -23264303.67349 -18109300.70048  20163343.421    20163343.2824   20163351.2034
       212.0004        213.0004
  -5517507.06947  -4288093.68746  23831390.708    23831390.6344   23831395.6584
       161.0004        163.0004
  -3584984.36747  -2763042.20445  24093741.051    24093741.5824   24093753.1384
       144.0004        149.0004
 -18356504.96049 -14271823.07647  21062545.186    21062545.8844   21062551.7124
       208.0004        209.0004
  -7988796.78347  -6210469.47845  22730940.460    22730940.4714   22730945.0954
       156.0004        159.0004
   -979110.88748   -743137.13746  24224176.107    24224176.2144   24224185.2384
       182.0004        183.0004
  -1349300.64546  -1024573.69645  24297287.313    24297289.2584   24297292.4464
       132.0004        138.0004
 -17049016.03349 -13253301.13548  21811068.046    21811068.5374   21811074.7034
       218.0004        217.0004
 -20625793.11849 -15784934.36147  20380574.922    20380575.3084   20380581.0204
       211.0004        209.0004
 21  2  2  0  3  0.0000000  0  9G08G07G01G09G21G03G16G27G04
 -23252282.24449 -18099933.32847  20165630.460    20165630.9074   20165638.7824
       212.0004        212.0004
  -5586101.45847  -4341543.81046  23818336.082    23818337.8204   23818342.5604
       162.0004        163.0004
  -3653931.15547  -2816766.70445  24080621.925    24080621.6954   24080633.0834
       148.0004        152.0004
 -18396803.21049 -14303224.29347  21054876.516    21054876.8584   21054883.6444
       208.0004        209.0004
  -8039072.99947  -6249645.66045  22721372.602    22721371.7674   22721377.5044
       156.0004        158.0004
   -921856.89648   -698523.75746  24235070.054    24235070.6254   24235080.8654
       181.0004        181.0004
  -1270269.85346   -962991.24045  24312329.525    24312329.6824   24312329.0624
       133.0004        139.0004
 -16970868.69749 -13192407.08348  21825939.375    21825939.3614   21825946.4024
       218.0004        217.0004
 -20594504.57949 -15760553.67747  20386529.465    20386529.6354   20386535.3454
       211.0004        209.0004
 21  2  2  0  3 30.0000000  0  9G08G07G01G09G21G03G16G27G04
 -23239659.16849 -18090097.13748  20168033.280    20168033.3924   20168040.7574
       212.0004        213.0004
  -5654832.28547  -4395100.25346  23805258.866    23805259.4454   23805263.1484
       163.0004        165.0004
  -3723081.98347  -2870650.22345  24067462.248    24067462.1704   24067472.8184
       144.0004        147.0004
 -18436575.27849 -14334215.50547  21047308.759    21047309.1124   21047315.4374
       209.0004        209.0004
  -8089251.29047  -6288745.55845  22711823.687    22711824.4524   22711829.2724
       156.0004        157.0004
   -864787.09248   -654053.93146  24245927.652    24245929.1004   24245940.5514
       176.0004        175.0004
  -1191387.24047   -901524.30345  24327338.550    24327342.5754   24327339.3504
       136.0004        141.0004
 -16892300.98749 -13131185.47248  21840889.948    21840890.5134   21840897.5294
       218.0004        218.0004
 -20562664.47949 -15735743.20747  20392588.225    20392588.6564   20392594.1604
       211.0004        209.0004
 21  2  2  0  4  0.0000000  0  9G08G07G01G09G21G03G16G27G04
 -23226433.79049 -18079791.63248  20170550.004    20170550.2564   20170557.2424
       212.0004        213.0004
  -5723696.25547  -4448760.47846  23792155.312    23792155.2984   23792158.2494
       163.0004        164.0004
  -3792432.67847  -2924689.48545  24054264.202    24054264.9214   24054275.3124
       146.0004        151.0004
 -18475817.65649 -14364793.97647  21039841.703    21039841.6654   21039847.5584
       209.0004        209.0004
  -8139326.97747  -6327765.52845  22702294.849    22702295.0074   22702301.2004
       156.0004        158.0004
   -807901.30548   -609727.48246  24256755.026    24256755.3594   24256765.4434
       173.0004        173.0004
  -1112651.95046   -840172.19445  24342322.097    24342324.2554   24342321.6894
       134.0004        138.0004
 -16813313.57749 -13069636.83248  21855921.076    21855921.2944   21855928.1044
       218.0004        218.0004
 -20530271.82949 -15710502.18647  20398752.087    20398752.3434   20398758.2164
       210.0004        209.0004
 21  2  2  0  4 30.0000000  0  9G08G07G01G09G21G03G16G27G04
 -23212607.63149 -18069017.99847  20173180.661    20173180.9594   20173188.1584
       212.0004        212.0004
  -5792693.79447  -4502524.76845  23779024.195    23779024.2504   23779028.5664
       161.0004        162.0004
  -3861982.22547  -2978883.74245  24041030.359    24041031.5334   24041041.6674
       147.0004        151.0004
 -18514530.04049 -14394959.47347  21032474.015    21032474.5224   21032480.5234
       209.0004        209.0004
  -8189298.78147  -6366704.56045  22692785.157    22692785.9324   22692791.2084
       156.0004        158.0004
   -751202.65648   -565546.86146  24267545.042    24267545.7964   24267555.0674
       174.0004        175.0004
  -1034066.00446   -778936.33245  24357276.122    24357275.9884   24357280.1054
       130.0004        137.0004
 -16733910.36649 -13007764.20648  21871031.655    21871031.3244   21871037.8504
       218.0004        217.0004
 -20497328.82849 -15684832.33147  20405020.568    20405021.0854   20405027.0134
       210.0004        209.0004
 21  2  2  0  5  0.0000000  0  9G08G07G01G09G21G03G16G27G04
 -23198182.13749 -18057777.31847  20175925.762    20175926.0974   20175933.1914
       212.0004        212.0004
  -5861824.58947  -4556392.88046  23765869.223    23765870.2394   23765873.1614
       161.0004        163.0004
  -3931729.50547  -3033232.00745  24027756.007    24027756.2514   24027766.4174
       143.0004        145.0004
 -18552711.95549 -14424711.59347  21025208.037    21025208.5344   21025214.7314
       209.0004        209.0004
  -8239164.62347  -6405560.96645  22683296.156    22683295.9164   22683301.8784
       156.0004        159.0004
   -694693.93348   -521514.19146  24278298.209    24278298.6694   24278308.6424
       175.0004        176.0004
   -955630.96746   -717818.12945  24372202.512    24372201.3974   24372209.5634
       131.0004        139.0004
 -16654095.02849 -12945570.39848  21886219.066    21886219.7274   21886226.4474
       218.0004        218.0004
 -20463837.48449 -15658735.15847  20411394.242    20411394.4304   20411400.6254
       210.0004        209.0004
 21  2  2  0  5 30.0000000  0  9G08G07G01G09G21G03G16G27G04
 -23183156.79649 -18046069.24347  20178785.140    20178785.1624   20178792.4674
       212.0004        212.0004
  -5931087.18847  -4610363.72646  23752689.559    23752689.8714   23752693.3414
       163.0004        166.0004
  -4001671.27147  -3087731.84745  24014448.887    24014448.7414   24014458.4724
       145.0004        150.0004
 -18590361.01749 -14454048.51647  21018043.728    21018044.1534   21018050.2814
       208.0004        209.0004
  -8288920.39747  -6444331.63345  22673828.851    22673828.1894   22673832.9704
       157.0004        158.0004
   -638375.93248   -477630.19346  24289015.511    24289016.2844   24289025.5594
       174.0004        175.0004
   -877346.93046   -656817.58745  24387098.279    24387098.1684   24387102.8714
       130.0004        136.0004
 -16573869.35049 -12883056.86948  21901486.096    21901486.1694   21901492.6104
       218.0004        218.0004
 -20429797.91549 -15632210.82747  20417871.821    20417872.7964   20417877.5994
       210.0004        208.0004
 21  2  2  0  6  0.0000000  0  9G08G07G01G09G21G03G16G27G04
 -23167532.62249 -18033894.55447  20181757.987    20181758.0694   20181765.7714
       212.0004        212.0004
  -6000480.32047  -4664436.29346  23739483.394    23739484.3544   23739488.7804
       163.0004        164.0004
  -4071805.19447  -3142381.45445  24001102.153    24001101.2904   24001111.3704
       146.0004        149.0004
 -18627475.63549 -14482969.00347  21010980.455    21010981.1094   21010987.9684
       209.0004        209.0004
  -8338563.42847  -6483014.47145  22664381.743    22664381.9834   22664385.8194
       157.0004        158.0004
   -582250.43648   -433896.22946  24299693.119    24299694.6944   24299706.5144
       174.0004        175.0004
   -799214.13346   -595934.88745  24401969.505    24401967.2614   24401971.5854
       129.0004        136.0004
 -16493235.88849 -12820225.59248  21916829.896    21916830.6694   21916836.5194
       218.0004        217.0004
 -20395211.07849 -15605260.05247  20424452.888    20424453.8184   20424458.9154
       210.0004        209.0004
 21  2  2  0  6 30.0000000  0  9G08G07G01G09G21G03G16G27G04
 -23151310.90649 -18021254.23147  20184844.423    20184844.9974   20184852.3764
       212.0004        212.0004
  -6070002.85747  -4718609.65845  23726252.588    23726254.1154   23726258.5094
       162.0004        162.0004
  -4142129.12947  -3197179.07145  23987719.107    23987719.2634   23987729.6154
       144.0004        148.0004
 -18664054.49549 -14511471.99347  21004020.188    21004020.4854   21004027.3524
       209.0004        210.0004
  -8388091.07647  -6521607.37245  22654956.589    22654955.3634   22654963.0764
       157.0004        158.0004
   -526319.34348   -390313.68446  24310340.317    24310340.3644   24310350.7814
       175.0004        176.0004
   -721233.65446   -535170.89345  24416806.847    24416806.2454   24416808.2724
       129.0004        136.0004
 -16412197.49549 -12757078.76848  21932251.329    21932251.4554   21932257.8834
       217.0004        217.0004
 -20360078.12549 -15577883.72347  20431139.098    20431139.0824   20431144.9994
       210.0004        208.0004
 21  2  2  0  7  0.0000000  0  9G08G07G01G09G21G03G16G27G04
 -23134492.95949 -18008149.31347  20188045.318    20188045.3454   20188052.6714
       212.0004        212.0004
  -6139654.28447  -4772883.47146  23712998.243    23712999.7864   23713004.9994
       161.0004        163.0004
  -4212641.65147  -3252123.69545  23974301.803    23974302.0284   23974312.0554
       143.0004        147.0004
 -18700097.07249 -14539557.10147  20997162.143    20997162.2734   20997169.1094
       210.0004        211.0004
  -8437501.41247  -6560108.87845  22645554.094    22645552.4164   22645559.4774
       154.0004        155.0004
   -470585.25848   -346884.65146  24320944.350    24320944.9784   24320956.2864
       174.0004        174.0004
   -643407.22846   -474526.95345  24431616.116    24431615.6584   24431621.6694
       131.0004        138.0004
 -16330757.79349 -12693619.24348  21947747.950    21947748.5944   21947755.4354
       216.0004        216.0004
 -20324401.11249 -15550083.44147  20437927.563    20437928.1714   20437933.8914
       209.0004        207.0004
 21  2  2  0  7 30.0000000  0  9G08G07G01G09G21G03G16G27G04
 -23117079.20449 -17994580.16647  20191359.434    20191359.5934   20191366.4294
       212.0004        212.0004
  -6209433.07547  -4827256.56246  23699722.639    23699722.5064   23699727.2154
       164.0004        167.0004
  -4283339.89547  -3307213.06145  23960847.763    23960847.6784   23960857.1154
       143.0004        146.0004
 -18735601.39749 -14567222.83247  20990405.070    20990405.8144   20990412.2424
       210.0004        210.0004
  -8486790.80047  -6598516.13945  22636173.789    22636172.7494   22636180.1834
       154.0004        156.0004
   -415049.42348   -303610.12046  24331513.299    24331513.4304   24331523.8784
       172.0004        172.0004
   -565734.47246   -414002.74845  24446395.528    24446395.6124   24446401.6064
       126.0004        134.0004
 -16248918.87249 -12629848.66948  21963322.069    21963322.1904   21963328.5014
       216.0004        216.0004
 -20288180.51749 -15521859.62947  20444820.664    20444820.8754   20444826.5364
       209.0004        207.0004
 21  2  2  0  8  0.0000000  0  9G08G07G01G09G21G03G16G27G04
 -23099069.94649 -17980546.94447  20194785.979    20194786.2984   20194793.1854
       212.0004        212.0004
  -6279338.00648  -4881727.90046  23686419.639    23686420.5014   23686423.5884
       166.0004        167.0004
  -4354221.74047  -3362445.45045  23947358.809    23947360.5904   23947368.0404
       144.0004        149.0004
 -18770566.23049 -14594468.14047  20983751.931    20983752.4894   20983758.8624
       210.0004        210.0004
  -8535956.39747  -6636826.90845  22626818.349    22626817.4994   22626824.4144
       156.0004        159.0004
   -359713.60148   -260491.46146  24342042.907    24342043.9604   24342054.3384
       170.0004        171.0004
   -488216.56546   -353599.21745  24461149.019    24461147.4964   24461153.5704
       127.0004        135.0004
 -16166683.58849 -12565769.19448  21978970.780    21978970.6604   21978977.1034
       215.0004        215.0004
 -20251417.65149 -15493213.23047  20451816.211    20451816.7674   20451822.0634
       209.0004        207.0004
 21  2  2  0  8 30.0000000  0  9G08G07G01G09G21G03G16G27G04
 -23080467.66349 -17966051.64247  20198325.283    20198325.9214   20198333.4674
       211.0004        212.0004
  -6349369.05048  -4936297.54846  23673093.426    23673093.3164   23673097.6424
       165.0004        165.0004
  -4425285.80047  -3417819.82645  23933837.035    23933835.9974   23933844.4854
       145.0004        148.0004
 -18804991.20049 -14621292.78847  20977201.310    20977201.7344   20977208.2924
       210.0004        211.0004
  -8584996.68247  -6675040.05845  22617487.791    22617486.1254   22617492.2384
       157.0004        159.0004
   -304580.53148   -217530.80746  24352534.071    24352535.6154   24352545.4224
       171.0004        172.0004
   -410855.20546   -293317.63445  24475867.857    24475868.1854   24475873.2474
       127.0004        135.0004
 -16084055.66049 -12501383.79748  21994693.827    21994694.5214   21994701.1424
       215.0004        215.0004
 -20214114.63849 -15464145.94747  20458914.963    20458915.3924   20458920.6864
       209.0004        207.0004
 21  2  2  0  9  0.0000000  0  9G08G07G01G09G21G03G16G27G04
 -23061271.89949 -17951093.89747  20201978.420    20201979.0414   20201986.1634
       212.0004        212.0004
  -6419523.89347  -4990963.64745  23659741.954    23659741.5004   23659746.3234
       161.0004        161.0004
  -4496528.59947  -3473333.50845  23920279.620    23920279.8814   23920288.3774
       146.0004        149.0004
 -18838873.87549 -14647694.86747  20970753.569    20970753.7244   20970760.3844
       211.0004        211.0004
  -8633907.66547  -6713152.45745  22608179.068    22608177.7954   22608184.1614
       157.0004        159.0004
   -249650.78948   -174728.57846  24362987.126    24362988.5274   24362998.4314
       172.0004        173.0004
   -333649.52746   -233157.40044  24490558.477    24490559.3934   24490565.4054
       122.0004        131.0004
 -16001036.71449 -12436693.70548  22010493.013    22010492.7394   22010498.9224
       215.0004        215.0004
 -20176271.56749 -15434657.84347  20466115.975    20466116.3494   20466122.1074
       209.0004        207.0004
 21  2  2  0  9 30.0000000  0  9G08G07G01G09G21G03G16G27G04
 -23041484.28449 -17935674.95847  20205744.006    20205744.5604   20205751.6324
       211.0004        212.0004
  -6489801.85247  -5045725.65546  23646368.848    23646369.0424   23646373.4554
       161.0004        164.0004
  -4567948.39747  -3528985.06145  23906687.502    23906686.8664   23906698.3944
       145.0004        148.0004
 -18872213.55249 -14673673.83047  20964409.014    20964409.4204   20964416.0904
       211.0004        211.0004
  -8682686.79347  -6751162.09845  22598894.223    22598894.5724   22598901.5584
       155.0004        157.0004
   -194926.76148   -132086.63246  24373401.219    24373402.0994   24373411.2094
       171.0004        172.0004
   -256601.21746   -173119.78645  24505221.942    24505224.0644   24505227.0784
       126.0004        136.0004
 -15917630.11249 -12371701.53548  22026364.154    22026364.0444   22026370.8554
       215.0004        214.0004
 -20137890.26649 -15404750.32447  20473419.700    20473420.1334   20473425.8584
       209.0004        207.0004
 21  2  2  0 10  0.0000000  0  9G08G07G01G09G21G03G16G27G04
 -23021106.26649 -17919795.98047  20209622.440    20209622.5224   20209629.4294
       212.0004        212.0004
  -6560202.44147  -5100583.25046  23632973.179    23632973.0864   23632976.2724
       163.0004        164.0004
  -4639543.51047  -3584773.27445  23893063.196    23893063.5284   23893072.9534
       142.0004        146.0004
 -18905009.61649 -14699229.20547  20958167.804    20958168.3094   20958175.3094
       210.0004        211.0004
  -8731331.31647  -6789066.84345  22589639.374    22589638.8124   22589644.4914
       154.0004        156.0004
   -140410.76148    -89606.80646  24383775.888    24383775.8794   24383787.2314
       172.0004        174.0004
   -179711.68346   -113205.84345  24519856.490    24519856.9424   24519854.8914
       128.0004        135.0004
 -15833839.25849 -12306409.97448  22042309.184    22042308.9604   22042315.8554
       214.0004        214.0004
 -20098972.63249 -15374424.90347  20480825.649    20480826.0464   20480831.9014
       209.0004        207.0004
 21  2  2  0 10 30.0000000  0  9G08G07G01G09G21G03G16G27G04
 -23000138.28549 -17903457.28347  20213612.135    20213612.2744   20213619.2674
       211.0004        212.0004
  -6630723.85147  -5155534.96046  23619553.218    23619552.7554   23619557.5094
       162.0004        164.0004
  -4711310.92947  -3640695.74745  23879406.528    23879407.0664   23879414.8014
       141.0004        145.0004
 -18937260.12849 -14724359.47147  20952030.945    20952031.7474   20952037.9694
       211.0004        211.0004
  -8779838.77447  -6826864.79445  22580409.834    22580408.1024   22580414.0824
       155.0004        159.0004
    -86103.78448    -47289.86746  24394108.465    24394110.2634   24394123.1954
       175.0004        176.0004
   -102980.23546    -53415.10245  24534455.302    24534453.1684   24534458.6774
       126.0004        135.0004
 -15749666.25349 -12240820.61948  22058325.494    22058326.5034   22058333.2184
       214.0004        213.0004
 -20059519.26449 -15343682.02347  20488333.258    20488333.5604   20488339.8764
       209.0004        207.0004
 21  2  2  0 11  0.0000000  0  9G08G07G01G09G21G03G16G27G04
 -22978582.31749 -17886660.43747  20217713.346    20217713.9504   20217721.3904
       211.0004        211.0004
  -6701365.57547  -5210580.46346  23606110.264    23606110.8294   23606114.2214
       163.0004        165.0004
  -4783249.15947  -3696751.32545  23865716.915    23865717.9874   23865726.9464
       142.0004        146.0004
 -18968964.76549 -14749064.39247  20945998.007    20945998.2304   20946005.0234
       211.0004        211.0004
  -8828206.67047  -6864554.01645  22571205.641    22571204.4344   22571210.0444
       157.0004        159.0004
    -32008.34848     -5137.79046  24404403.355    24404404.4684   24404416.5474
       175.0004        175.0004
    -26408.60646      6251.07145  24549026.555    24549027.3054   24549032.0794
       126.0004        134.0004
 -15665114.76549 -12174936.35447  22074415.898    22074416.1524   22074422.8874
       213.0004        212.0004
 -20019532.33649 -15312523.38947  20495942.719    20495943.0664   20495948.8384
       208.0004        207.0004
 21  2  2  0 11 30.0000000  0  9G08G07G01G09G21G03G16G27G04
 -22956440.03149 -17869406.67447  20221927.547    20221927.7954   20221934.9554
       211.0004        211.0004
  -6772126.98247  -5265719.16346  23592645.622    23592644.9074   23592649.3984
       163.0004        166.0004
  -4855356.58547  -3752938.78345  23851994.345    23851994.7654   23852004.2874
       142.0004        146.0004
 -19000123.12449 -14773343.60347  20940068.509    20940069.0034   20940075.7314
       211.0004        211.0004
  -8876433.20047  -6902133.02145  22562026.478    22562026.5574   22562032.8704
       157.0004        160.0004
     21873.07548     36847.51946  24414656.880    24414658.5394   24414668.3264
       172.0004        171.0004
     50001.82346     65791.62845  24563569.462    24563567.0184   24563573.7724
       128.0004        136.0004
 -15580188.35349 -12108759.90047  22090576.013    22090576.7404   22090583.7854
       212.0004        211.0004
 -19979013.97049 -15280950.61647  20503653.185    20503653.4814   20503659.1524
       208.0004        207.0004
 21  2  2  0 12  0.0000000  0  9G08G07G01G09G21G03G16G27G04
 -22933711.09549 -17851695.81547  20226252.597    20226252.7784   20226260.2264
       211.0004        211.0004
  -6843005.98847  -5320949.53146  23579156.313    23579156.2524   23579161.3114
       164.0004        166.0004
  -4927629.37347  -3809255.04645  23838239.304    23838240.1014   23838252.5774
       141.0004        144.0004
 -19030732.58549 -14797195.13947  20934243.935    20934243.9834   20934250.8904
       210.0004        210.0004
  -8924513.94247  -6939598.46445  22552879.308    22552878.5894   22552882.7834
       158.0004        160.0004
     75540.24048     78665.89446  24424869.838    24424870.7444   24424881.7584
       169.0004        169.0004
    126251.78046    125207.18745  24578076.068    24578074.9234   24578084.6474
       127.0004        135.0004
 -15494888.37949 -12042292.39547  22106808.419    22106808.9834   22106815.9904
       211.0004        211.0004
 -19937964.06449 -15248963.68447  20511464.407    20511464.9564   20511470.7894
       208.0004        206.0004
 21  2  2  0 12 30.0000000  0  9G08G07G01G09G21G03G16G27G04
 -22910397.23849 -17833529.17047  20230688.868    20230689.2394   20230696.6304
       211.0004        211.0004
  -6914001.56347  -5376270.74946  23565646.235    23565646.2394   23565650.4744
       163.0004        165.0004
  -5000065.81047  -3865698.90245  23824454.380    23824456.4884   23824468.0814
       141.0004        146.0004
 -19060792.80549 -14820618.68347  20928523.739    20928523.9404   20928530.1904
       210.0004        210.0004
  -8972446.45247  -6976948.40145  22543757.951    22543756.5624   22543761.8014
       159.0004        162.0004
    128990.71548    120315.42446  24435041.368    24435041.9674   24435052.2774
       169.0004        171.0004
    202339.76246    184496.46945  24592555.732    24592557.3274   24592560.7394
       127.0004        134.0004
 -15409218.44049 -11975536.60147  22123110.754    22123111.0264   22123118.8194
       211.0004        211.0004
 -19896384.74349 -15216564.22147  20519376.421    20519376.9704   20519382.7644
       208.0004        206.0004
 21  2  2  0 13  0.0000000  0  9G08G07G01G09G21G03G16G27G04
 -22886498.96449 -17814907.11047  20235236.257    20235236.6484   20235244.7244
       211.0004        211.0004
  -6985111.51248  -5431681.06246  23552114.246    23552115.2024   23552119.7994
       165.0004        168.0004
  -5072662.75247  -3922267.76545  23810640.193    23810641.5844   23810651.8684
       143.0004        148.0004
 -19090301.78549 -14843612.66647  20922908.077    20922908.6124   20922915.2014
       210.0004        210.0004
  -9020227.24347  -7014180.09645  22534664.115    22534663.6254   22534668.6454
       159.0004        160.0004
    182223.70748    161795.51146  24445172.444    24445173.4124   24445182.7024
       172.0004        174.0004
    278266.41146    243660.11545  24607003.447    24607003.0504   24607007.9874
       128.0004        134.0004
 -15323180.54349 -11908494.06447  22139483.770    22139483.8994   22139491.3734
       211.0004        211.0004
 -19854276.59649 -15183752.66447  20527389.653    20527390.3154   20527395.7384
       207.0004        206.0004
 21  2  2  0 13 30.0000000  0  9G08G07G01G09G21G03G16G27G04
 -22862018.15549 -17795831.16347  20239894.945    20239895.4014   20239903.2024
       210.0004        211.0004
  -7056335.68748  -5487180.41946  23538560.902    23538561.5824   23538565.2774
       167.0004        169.0004
  -5145418.65147  -3978960.53145  23796797.579    23796798.3844   23796807.6284
       142.0004        146.0004
 -19119259.39949 -14866177.04847  20917397.440    20917398.0094   20917404.8124
       210.0004        210.0004
  -9067854.68347  -7051292.34545  22525600.527    22525600.2454   22525605.2524
       159.0004        161.0004
    235236.70248    203104.15746  24455260.465    24455261.0964   24455270.9874
       173.0004        173.0004
    354030.17146    302696.78345  24621421.416    24621422.1734   24621427.3964
       127.0004        135.0004
 -15236778.40449 -11841167.71547  22155926.033    22155925.8714   22155932.8184
       211.0004        211.0004
 -19811641.97449 -15150530.89547  20535502.612    20535503.0134   20535509.0324
       207.0004        206.0004
 21  2  2  0 14  0.0000000  0  9G08G07G01G09G21G03G16G27G04
 -22836956.48649 -17776302.59747  20244664.157    20244664.5674   20244671.9444
       210.0004        211.0004
  -7127673.04248  -5542767.97546  23524984.745    23524985.7294   23524990.5644
       167.0004        168.0004
  -5218331.25647  -4035775.41045  23782922.882    23782923.1654   23782932.3514
       143.0004        147.0004
 -19147664.75049 -14888311.09647  20911992.203    20911991.9854   20911999.1874
       209.0004        209.0004
  -9115326.01747  -7088282.94045  22516567.474    22516567.9844   22516572.3904
       160.0004        162.0004
    288027.93248    244239.96846  24465307.540    24465306.6984   24465317.7994
       171.0004        172.0004
    429629.97046    361605.65945  24635806.370    24635804.1854   24635812.4734
       125.0004        133.0004
 -15150015.01549 -11773559.88547  22172436.851    22172436.3564   22172443.3354
       211.0004        211.0004
 -19768482.48849 -15116900.14447  20543716.134    20543716.3904   20543722.2574
       207.0004        206.0004
 21  2  2  0 14 30.0000000  0  9G08G07G01G09G21G03G16G27G04
 -22811314.97749 -17756322.16247  20249543.481    20249543.7754   20249551.1384
       210.0004        211.0004
  -7199122.15148  -5598442.54746  23511388.921    23511389.4124   23511394.3514
       166.0004        168.0004
  -5291398.36347  -4092710.66745  23769016.308    23769017.4034   23769028.8624
       143.0004        147.0004
 -19175517.02849 -14910014.15247  20906692.668    20906693.0394   20906699.0264
       210.0004        211.0004
  -9162638.58547  -7125149.77246  22507565.038    22507563.8764   22507568.9254
       161.0004        163.0004
    340595.47048    285201.47346  24475308.811    24475309.7664   24475321.5874
       170.0004        171.0004
    505065.48946    420386.59745  24650163.795    24650164.3434   24650165.3194
       125.0004        133.0004
 -15062893.50749 -11705672.97047  22189013.913    22189014.5254   22189021.8994
       211.0004        211.0004
 -19724799.90849 -15082861.74847  20552028.168    20552028.6104   20552034.6354
       207.0004        206.0004
 21  2  2  0 15  0.0000000  0  9G08G07G01G09G21G03G16G27G04
 -22785095.56549 -17735891.43447  20254532.781    20254533.1854   20254540.6284
       210.0004        211.0004
  -7270682.89648  -5654204.14046  23497772.708    23497773.0914   23497777.1804
       167.0004        169.0004
  -5364618.06847  -4149764.81945  23755082.962    23755085.2394   23755094.4874
       143.0004        147.0004
 -19202815.84549 -14931285.95847  20901497.461    20901497.8134   20901504.1694
       211.0004        211.0004
  -9209789.83547  -7161890.93346  22498592.093    22498591.7154   22498596.3504
       162.0004        164.0004
    392937.17048    325987.01646  24485269.971    24485270.2094   24485281.8474
       168.0004        168.0004
    580335.65346    479038.71645  24664487.774    24664487.2464   24664490.9404
       127.0004        135.0004
 -14975417.29549 -11637509.69147  22205660.665    22205661.3874   22205667.6384
       210.0004        211.0004
 -19680596.31549 -15048417.38847  20560440.042    20560440.2404   20560446.2444
       207.0004        206.0004
 21  2  2  0 15 30.0000000  0  9G08G07G01G09G21G03G16G27G04
 -22758299.04449 -17715011.02247  20259632.399    20259632.5984   20259639.8024
       210.0004        211.0004
  -7342353.04848  -5710051.02046  23484134.041    23484135.3294   23484137.9514
       169.0004        171.0004
  -5437987.33047  -4206935.53145  23741122.924    23741123.3714   23741133.6124
       145.0004        149.0004
 -19229559.64349 -14952125.28147  20896407.952    20896408.3814   20896415.3024
       211.0004        211.0004
  -9256776.39347  -7198503.78846  22489651.462    22489650.1694   22489655.1434
       163.0004        165.0004
    445052.03448    366595.76846  24495187.857    24495188.7074   24495198.7074
       169.0004        171.0004
    655440.27746    537561.75145  24678778.795    24678779.2774   24678785.2474
       131.0004        139.0004
 -14887588.70449 -11569071.81747  22222375.040    22222374.6584   22222380.7464
       211.0004        210.0004
 -19635872.58749 -15013567.74047  20568950.322    20568951.1414   20568956.7334
       207.0004        205.0004
 21  2  2  0 16  0.0000000  0  9G08G07G01G09G21G03G16G27G04
 -22730926.70749 -17693681.91747  20264840.894    20264841.5124   20264848.4934
       210.0004        211.0004
  -7414131.48648  -5765982.26846  23470474.338    23470474.7184   23470478.9704
       169.0004        169.0004
  -5511503.97347  -4264221.07245  23727131.334    23727133.0794   23727143.2854
       146.0004        150.0004
 -19255747.70049 -14972531.55247  20891424.801    20891425.0614   20891431.5134
       210.0004        211.0004
  -9303596.14547  -7234986.65646  22480740.065    22480739.6484   22480744.4904
       162.0004        163.0004
    496938.18348    407026.30946  24505059.698    24505060.8844   24505071.8474
       168.0004        169.0004
    730378.37946    595955.04945  24693040.680    24693040.0964   24693044.5354
       134.0004        140.0004
 -14799410.76149 -11500361.73247  22239154.940    22239154.6924   22239160.3004
       210.0004        210.0004
 -19590630.54549 -14978314.20547  20577559.647    20577560.1434   20577565.8444
       206.0004        205.0004
 21  2  2  0 16 30.0000000  0  9G08G07G01G09G21G03G16G27G04
 -22702980.39049 -17671905.56047  20270159.099    20270159.3864   20270166.5804
       210.0004        210.0004
  -7486016.79748  -5821996.79246  23456795.310    23456796.0734   23456799.9194
       168.0004        170.0004
  -5585165.41547  -4321619.42945  23713114.858    23713115.3214   23713125.7204
       146.0004        151.0004
 -19281379.00149 -14992504.00647  20886547.839    20886547.9794   20886554.2204
       210.0004        211.0004
  -9350245.85647  -7271337.01946  22471861.949    22471862.8034   22471868.7374
       162.0004        163.0004
    548594.18048    447277.53046  24514890.454    24514891.6664   24514902.9534
       168.0004        170.0004
    805149.62846    654218.38445  24707266.829    24707267.4324   24707273.3114
       132.0004        138.0004
 -14710886.33149 -11431381.64447  22255999.104    22255999.6264   22256006.7134
       210.0004        210.0004
 -19544871.67649 -14942657.95847  20586267.545    20586267.8854   20586273.9544
       206.0004        205.0004
 21  2  2  0 17  0.0000000  0  8G08G07G01G09G21G03G27G04
 -22674458.92449 -17649681.03147  20275586.810    20275586.8974   20275593.8564
       210.0004        211.0004
  -7558005.94148  -5878092.22346  23443095.574    23443095.3674   23443100.4384
       168.0004        167.0004
  -5658967.36447  -4379127.29445  23699068.367    23699071.2164   23699081.8534
       147.0004        150.0004
 -19306450.90349 -15012040.56447  20881776.750    20881776.9954   20881783.2044
       211.0004        211.0004
  -9396720.88447  -7307551.30146  22463018.351    22463019.1994   22463025.6084
       163.0004        165.0004
    600020.21148    487349.55446  24524677.286    24524677.9934   24524690.3654
       169.0004        170.0004
 -14622016.51449 -11362132.45347  22272910.516    22272911.2274   22272917.9764
       211.0004        210.0004
 -19498595.83449 -14906598.86947  20595072.940    20595073.5204   20595079.8774
       205.0004        204.0004
 21  2  2  0 17 30.0000000  0  8G08G07G01G09G21G03G27G04
 -22645365.56749 -17627010.84347  20281122.648    20281123.1584   20281130.2184
       210.0004        210.0004
  -7630098.59848  -5934268.25446  23429376.388    23429377.2624   23429382.0724
       167.0004        169.0004
  -5732908.71147  -4436743.75045  23685002.015    23685001.4764   23685010.8444
       147.0004        150.0004
 -19330963.87449 -15031141.55447  20877111.530    20877112.1004   20877118.5314
       211.0004        211.0004
  -9443019.71047  -7343628.24146  22454208.483    22454208.9744   22454214.8654
       163.0004        164.0004
    651213.37948    527240.10446  24534418.853    24534419.5784   24534430.7584
       168.0004        169.0004
 -14532805.59649 -11292617.41847  22289886.844    22289887.7874   22289894.3184
       211.0004        210.0004
 -19451805.97949 -14870139.22047  20603977.297    20603977.7544   20603983.5404
       205.0004        204.0004
 21  2  2  0 18  0.0000000  0  8G08G07G01G09G21G03G27G04
 -22615702.70349 -17603896.92947  20286767.524    20286768.0914   20286774.6984
       210.0004        211.0004
  -7702295.42648  -5990525.52446  23415640.072    23415639.7454   23415644.2194
       171.0004        174.0004
  -5806988.49247  -4494468.09545  23670902.578    23670904.2644   23670913.4804
       148.0004        151.0004
 -19354918.63349 -15049807.63047  20872552.831    20872553.4224   20872559.9614
       211.0004        211.0004
  -9489141.08047  -7379566.93446  22445432.383    22445432.6964   22445437.3184
       163.0004        165.0004
    702170.53448    566946.74546  24544117.973    24544117.6254   24544128.0914
       167.0004        168.0004
 -14443257.93849 -11222840.03347  22306928.493    22306928.3304   22306934.8004
       211.0004        211.0004
 -19404505.32149 -14833281.58747  20612978.721    20612978.8974   20612984.4734
       205.0004        203.0004
 21  2  2  0 18 30.0000000  0  8G08G07G01G09G21G03G27G04
 -22585473.66749 -17580341.80447  20292520.178    20292520.3604   20292527.1124
       210.0004        211.0004
  -7774596.17448  -6046863.76146  23401881.017    23401881.2654   23401886.0944
       174.0004        174.0004
  -5881205.38647  -4552299.29745  23656780.307    23656781.0924   23656789.3644
       149.0004        152.0004
 -19378315.58349 -15068039.00747  20868101.043    20868101.3664   20868107.5474
       211.0004        211.0004
  -9535083.80047  -7415366.40046  22436689.643    22436689.0634   22436694.9224
       164.0004        165.0004
    752888.94048    606467.34246  24553767.731    24553768.4244   24553780.6554
       169.0004        171.0004
 -14353377.72049 -11152803.48347  22324031.006    22324031.4724   22324038.3774
       211.0004        210.0004
 -19356696.77249 -14796028.15847  20622075.500    20622076.2804   20622081.5554
       204.0004        203.0004
 21  2  2  0 19  0.0000000  0  8G08G07G01G09G21G03G27G04
 -22554677.28349 -17556344.61447  20298380.389    20298380.4774   20298387.9214
       210.0004        211.0004
  -7846996.96148  -6103279.94746  23388101.892    23388103.8224   23388107.5124
       172.0004        172.0004
  -5955554.60947  -4610233.61545  23642632.940    23642633.0354   23642642.0954
       149.0004        152.0004
 -19401151.65649 -15085833.35347  20863755.472    20863755.6274   20863762.3444
       211.0004        212.0004
  -9580842.01747  -7451022.11846  22427981.837    22427981.4444   22427988.5484
       164.0004        166.0004
    803369.40648    645802.49846  24563374.297    24563374.2054   24563386.4594
       167.0004        168.0004
 -14263165.61749 -11082508.33547  22341196.979    22341197.7834   22341205.3574
       210.0004        210.0004
 -19308379.73049 -14758378.52747  20631271.177    20631271.0294   20631276.2914
       204.0004        203.0004
 21  2  2  0 19 30.0000000  0  8G08G07G01G09G21G03G27G04
 -22523315.04949 -17531906.50947  20304348.358    20304348.8874   20304355.9284
       210.0004        211.0004
  -7919496.13348  -6159772.82746  23374308.743    23374308.5484   23374311.9104
       173.0004        174.0004
  -6030033.40747  -4668268.88745  23628459.875    23628460.5654   23628467.9824
       149.0004        153.0004
 -19423425.90649 -15103189.93147  20859517.083    20859517.3784   20859523.8414
       211.0004        212.0004
  -9626413.36247  -7486532.24046  22419310.675    22419310.2724   22419315.5554
       164.0004        165.0004
    853610.58947    684951.20646  24572932.823    24572933.9224   24572946.0334
       163.0004        164.0004
 -14172624.25149 -11011956.64147  22358427.502    22358427.5214   22358434.1154
       210.0004        209.0004
 -19259555.72549 -14720333.86747  20640560.967    20640561.5454   20640567.5304
       204.0004        203.0004
 21  2  2  0 20  0.0000000  0  8G08G07G01G09G21G03G27G04
 -22491389.69649 -17507029.58347  20310423.627    20310423.9864   20310431.2354
       211.0004        211.0004
  -7992094.12048  -6216342.66246  23360492.294    23360491.0094   23360496.2444
       171.0004        169.0004
  -6104640.81147  -4726404.37145  23614263.029    23614263.0464   23614271.4994
       150.0004        154.0004
 -19445139.16149 -15120109.32947  20855384.823    20855385.0004   20855391.9354
       211.0004        211.0004
  -9671796.37147  -7521895.55846  22410673.631    22410673.4214   22410678.6714
       164.0004        164.0004
    903609.48948    723911.15046  24582449.831    24582450.4044   24582460.9884
       165.0004        167.0004
 -14081758.17849 -10941151.87947  22375718.054    22375719.0164   22375725.0984
       208.0004        208.0004
 -19210228.04949 -14681896.70347  20649948.049    20649948.4484   20649954.3504
       204.0004        203.0004
 21  2  2  0 20 30.0000000  0  8G08G07G01G09G21G03G27G04
 -22458902.14149 -17481714.59447  20316605.484    20316605.7374   20316613.3184
       211.0004        211.0004
  -8064787.83548  -6272987.09546  23346659.110    23346659.3174   23346662.8364
       169.0004        170.0004
  -6179373.41847  -4784637.39445  23600042.694    23600042.5354   23600049.5254
       151.0004        155.0004
 -19466289.82349 -15136590.36647  20851360.186    20851360.2584   20851367.1194
       211.0004        212.0004
  -9716987.53147  -7557109.40846  22402075.129    22402074.3224   22402079.8164
       164.0004        165.0004
    953365.42248    762681.76646  24591919.008    24591919.4054   24591929.5084
       168.0004        171.0004
 -13990569.42549 -10870095.69147  22393070.883    22393071.4204   22393077.9064
       209.0004        208.0004
 -19160397.54649 -14643067.73847  20659430.713    20659430.8444   20659436.7044
       204.0004        203.0004
 21  2  2  0 21  0.0000000  0  8G08G07G01G09G21G03G27G04
 -22425854.61349 -17455963.25247  20322894.200    20322895.0454   20322901.5694
       210.0004        211.0004
  -8137577.62248  -6329706.41446  23332806.763    23332807.6064   23332812.1734
       170.0004        172.0004
  -6254229.48647  -4842966.67645  23585797.693    23585797.4964   23585805.2134
       153.0004        156.0004
 -19486878.14349 -15152633.20847  20847442.156    20847442.5054   20847448.9254
       211.0004        212.0004
  -9761984.74247  -7592172.11846  22393512.301    22393511.2984   22393517.4884
       164.0004        165.0004
   1002875.99548    801261.16546  24601340.132    24601340.4254   24601351.5174
       170.0004        172.0004
 -13899061.82549 -10798791.06447  22410483.491    22410484.3724   22410491.2484
       208.0004        207.0004
 -19110066.97549 -14603849.11247  20669007.519    20669008.6504   20669014.2794
       204.0004        202.0004
 21  2  2  0 21 30.0000000  0  8G08G07G01G09G21G03G27G04
 -22392248.34549 -17429776.55447  20329290.035    20329289.7494   20329297.0054
       210.0004        210.0004
  -8210461.41648  -6386498.97446  23318938.106    23318938.3874   23318943.2954
       171.0004        172.0004
  -6329206.04047  -4901389.78545  23571527.548    23571528.4984   23571537.5454
       153.0004        155.0004
 -19506903.02449 -15168237.01747  20843630.948    20843631.7624   20843638.6724
       211.0004        212.0004
  -9806784.39548  -7627080.90746  22384988.013    22384986.5154   22384991.6174
       165.0004        166.0004
   1052140.16348    839648.62046  24610714.524    24610714.8884   24610726.6994
       168.0004        170.0004
 -13807237.89249 -10727239.95247  22427957.602    22427958.3474   22427964.9984
       207.0004        207.0004
 -19059237.68349 -14564241.88347  20678680.696    20678680.8574   20678686.4824
       203.0004        202.0004
 21  2  2  0 22  0.0000000  0  8G08G07G01G09G21G03G27G04
 -22358083.70649 -17403154.73547  20335791.642    20335791.0104   20335798.2174
       210.0004        211.0004
  -8283436.18648  -6443362.38046  23305051.193    23305052.3514   23305056.2114
       172.0004        173.0004
  -6404298.76847  -4959903.45145  23557239.509    23557239.4204   23557246.9774
       152.0004        155.0004
 -19526362.19149 -15183399.98647  20839928.466    20839928.7724   20839935.7254
       212.0004        212.0004
  -9851382.56748  -7661832.66446  22376500.884    22376501.0984   22376504.5524
       165.0004        166.0004
   1101158.19748    877844.24246  24620042.869    24620043.1924   24620054.8334
       170.0004        171.0004
 -13715098.90749 -10655443.31847  22445492.022    22445491.8254   22445497.7604
       207.0004        207.0004
 -19007909.81549 -14524246.13447  20688447.600    20688447.9904   20688454.0124
       203.0004        202.0004
 21  2  2  0 22 30.0000000  0  8G08G07G01G09G21G03G27G04
 -22323360.16049 -17376097.43647  20342398.824    20342398.4644   20342405.7994
       210.0004        211.0004
  -8356498.27748  -6500293.87946  23291147.296    23291147.6024   23291151.8254
       171.0004        170.0004
  -6479503.26947  -5018504.21245  23542926.878    23542927.9024   23542936.6934
       151.0004        154.0004
 -19545253.12349 -15198120.20847  20836333.702    20836334.0594   20836340.6614
       212.0004        212.0004
  -9895774.61948  -7696423.81646  22368052.881    22368051.9224   22368058.0144
       165.0004        164.0004
   1149930.54048    915848.41146  24629323.592    24629324.4594   24629336.1514
       169.0004        170.0004
 -13622645.90049 -10583402.00547  22463085.165    22463085.0964   22463091.2814
       207.0004        206.0004
 -18956083.35549 -14483861.89547  20698309.840    20698310.1714   20698316.2224
       203.0004        201.0004
 21  2  2  0 23  0.0000000  0  8G08G07G01G09G21G03G27G04
 -22288084.09649 -17348609.59647  20349110.922    20349111.3954   20349118.5014
       210.0004        210.0004
  -8429651.71348  -6557296.58246  23277227.802    23277227.8104   23277231.1354
       170.0004        171.0004
  -6554822.15547  -5077194.16245  23528594.741    23528595.6664   23528603.8824
       152.0004        155.0004
 -19563580.59849 -15212401.37847  20832845.671    20832846.2524   20832853.3374
       212.0004        212.0004
  -9939962.80047  -7730856.12846  22359642.941    22359642.5714   22359647.9084
       164.0004        165.0004
   1198450.37148    953655.80446  24638555.493    24638556.3954   24638569.6124
       168.0004        168.0004
 -13529887.09549 -10511122.42547  22480736.938    22480736.7054   22480742.7694
       207.0004        207.0004
 -18903765.46249 -14443094.71547  20708265.311    20708265.8334   20708272.2024
       202.0004        201.0004
 21  2  2  0 23 30.0000000  0  8G08G07G01G09G21G03G27G04
 -22252257.69249 -17320692.89747  20355928.419    20355928.5954   20355936.3974
       210.0004        210.0004
  -8502894.65848  -6614368.95446  23263289.922    23263291.1834   23263295.3474
       172.0004        174.0004
  -6630252.61147  -5135970.97745  23514239.895    23514240.4334   23514251.1284
       153.0004        156.0004
 -19581343.78349 -15226242.80847  20829465.810    20829466.3254   20829472.7524
       212.0004        212.0004
  -9983943.81148  -7765126.99846  22351274.631    22351273.9934   22351279.7954
       165.0004        166.0004
   1246716.66248    991265.64846  24647740.839    24647742.4194   24647754.1354
       167.0004        168.0004
 -13436825.25049 -10438606.69347  22498446.210    22498446.1554   22498452.6374
       207.0004        207.0004
 -18850957.71149 -14401945.81547  20718315.112    20718315.3614   20718321.3754
       202.0004        201.0004
 21  2  2  0 24  0.0000000  0  8G08G07G01G09G21G03G27G04
 -22215881.96649 -17292348.14447  20362849.981    20362850.7534   20362858.4054
       210.0004        210.0004
  -8576225.01148  -6671509.45346  23249335.461    23249335.6264   23249339.0214
       171.0004        170.0004
  -6705791.48847  -5194832.31745  23499865.199    23499866.4964   23499876.0674
       154.0004        156.0004
 -19598541.70349 -15239643.76348  20826192.821    20826193.6074   20826200.1704
       212.0004        213.0004
 -10027714.93948  -7799234.30046  22342945.564    22342944.7954   22342949.0424
       165.0004        165.0004
   1294728.34548   1028677.09346  24656879.303    24656879.5864   24656892.5574
       170.0004        172.0004
 -13343462.85149 -10365856.73547  22516211.665    22516211.9334   22516218.6224
       207.0004        206.0004
 -18797661.62449 -14360416.38147  20728456.967    20728457.2864   20728463.1014
       203.0004        201.0004
 21  2  2  0 24 30.0000000  0  8G08G07G01G09G21G03G27G04
 -22178957.80849 -17263576.07547  20369877.329    20369877.6124   20369884.8294
       210.0004        210.0004
  -8649640.70848  -6728716.48746  23235365.297    23235365.3414   23235368.9224
       168.0004        170.0004
  -6781435.56347  -5253775.66345  23485470.862    23485472.3524   23485480.0994
       155.0004        157.0004
 -19615173.25849 -15252603.42748  20823028.674    20823028.7094   20823035.6044
       212.0004        213.0004
 -10071272.43347  -7833175.16546  22334655.779    22334655.7904   22334660.5474
       164.0004        166.0004
   1342484.66148   1065889.51246  24665965.861    24665967.0304   24665979.4354
       171.0004        172.0004
 -13249802.18049 -10292874.40147  22534034.463    22534035.0514   22534041.3624
       206.0004        205.0004
 -18743878.50249 -14318507.46747  20738690.963    20738692.0114   20738697.5184
       202.0004        201.0004
 21  2  2  0 25  0.0000000  0  8G08G07G01G09G21G03G27G04
 -22141487.26849 -17234378.23547  20377007.559    20377007.9694   20377015.0724
       210.0004        210.0004
  -8723140.13848  -6785988.74646  23221379.793    23221379.4674   23221383.3814
       171.0004        173.0004
  -6857182.12147  -5312798.81645  23471054.911    23471056.1074   23471065.3254
       152.0004        153.0004
 -19631237.95249 -15265121.35947  20819970.810    20819971.4624   20819978.3604
       212.0004        212.0004
 -10114613.73648  -7866947.55646  22326408.631    22326409.1004   22326412.7684
       165.0004        167.0004
   1389984.28548   1102901.94046  24675005.392    24675006.0214   24675018.1544
       170.0004        171.0004
 -13155846.18349 -10219661.92947  22551913.910    22551913.9294   22551920.7244
       205.0004        204.0004
 -18689610.23349 -14276220.50247  20749018.507    20749018.6124   20749024.5854
       202.0004        201.0004
 21  2  2  0 25 30.0000000  0  8G08G07G01G09G21G03G27G04
 -22103471.90449 -17204755.86147  20384241.510    20384241.8624   20384249.2874
       210.0004        210.0004
  -8796722.09648  -6843325.32746  23207375.532    23207376.5654   23207380.6604
       170.0004        169.0004
  -6933028.68647  -5371899.93445  23456622.472    23456623.3844   23456633.1744
       153.0004        156.0004
 -19646735.53449 -15277197.40147  20817022.209    20817022.5704   20817029.0044
       212.0004        212.0004
 -10157736.27748  -7900549.50746  22318203.465    22318202.3244   22318207.5654
       166.0004        167.0004
   1437225.64448   1139713.10646  24683995.735    24683995.9554   24684007.2614
       168.0004        169.0004
 -13061598.02349 -10146221.81047  22569848.857    22569849.2104   22569855.7234
       204.0004        204.0004
 -18634859.00849 -14233557.21447  20759437.217    20759437.4334   20759443.4644
       203.0004        201.0004
 21  2  2  0 26  0.0000000  0  8G08G07G01G09G21G03G27G04
 -22064912.37249 -17174709.46847  20391579.424    20391579.5474   20391586.6574
       209.0004        209.0004
  -8870383.96548  -6900724.17046  23193358.136    23193358.7194   23193362.8854
       169.0004        171.0004
  -7008971.42547  -5431075.99145  23442171.382    23442171.9034   23442181.6334
       153.0004        156.0004
 -19661664.48849 -15288830.34847  20814181.067    20814181.7024   20814188.4914
       212.0004        212.0004
 -10200636.10948  -7933977.90646  22310039.728    22310038.6794   22310043.4024
       165.0004        165.0004
   1484208.43248   1176322.80346  24692935.935    24692936.3784   24692948.7884
       167.0004        168.0004
 -12967059.54749 -10072555.46647  22587837.972    22587838.9504   22587845.5714
       204.0004        203.0004
 -18579625.67449 -14190518.25347  20769947.427    20769948.0294   20769954.1004
       202.0004        200.0004
 21  2  2  0 26 30.0000000  0  8G08G07G01G09G21G03G27G04
 -22025811.63849 -17144241.37247  20399020.166    20399020.3084   20399027.3954
       209.0004        210.0004
  -8944124.86048  -6958184.59946  23179326.594    23179327.1754   23179331.1584
       171.0004        172.0004
  -7085008.55347  -5490325.60545  23427702.468    23427703.6604   23427712.5344
       152.0004        155.0004
 -19676025.24149 -15300020.56448  20811448.686    20811449.2054   20811455.6804
       212.0004        213.0004
 -10243311.27747  -7967231.24746  22301918.613    22301918.2764   22301923.3954
       164.0004        165.0004
   1530930.60248   1212729.38746  24701827.733    24701828.3164   24701841.4944
       169.0004        171.0004
 -12872234.55749  -9998665.87847  22605882.638    22605883.0084   22605890.4114
       203.0004        203.0004
 -18523913.04249 -14147105.83847  20780549.254    20780549.6534   20780556.0404
       202.0004        200.0004
 21  2  2  0 27  0.0000000  0  8G08G07G01G09G21G03G27G04
 -21986172.05649 -17113353.35747  20406563.103    20406563.3124   20406570.3014
       209.0004        209.0004
  -9017943.85648  -7015705.87846  23165278.856    23165279.8304   23165283.7964
       170.0004        171.0004
  -7161137.89147  -5549647.08845  23413215.332    23413216.6454   23413225.3904
       154.0004        156.0004
 -19689818.08249 -15310768.21348  20808824.026    20808824.1554   20808830.8444
       213.0004        213.0004
 -10285759.16747  -8000307.48646  22293841.483    22293841.1354   22293845.1724
       164.0004        166.0004
   1577390.06348   1248931.25146  24710668.354    24710668.7444   24710682.6474
       168.0004        169.0004
 -12777126.61549  -9924555.78147  22623981.791    22623981.6054   22623988.8844
       203.0004        203.0004
 -18467723.78649 -14103321.99047  20791241.548    20791242.3304   20791247.9144
       202.0004        200.0004
 21  2  2  0 27 30.0000000  0  8G08G07G01G09G21G03G27G04
 -21945996.05049 -17082047.35647  20414207.621    20414208.0724   20414215.8724
       209.0004        209.0004
  -9091839.64248  -7073286.99046  23151218.138    23151218.5154   23151221.8414
       170.0004        172.0004
  -7237357.13747  -5609038.60445  23398712.566    23398712.5114   23398721.1844
       153.0004        155.0004
 -19703042.99249 -15321073.33248  20806306.914    20806307.4944   20806314.1894
       212.0004        213.0004
 -10327978.20947  -8033205.39345  22285804.755    22285803.9344   22285810.8644
       162.0004        162.0004
   1623585.27548   1284927.24446  24719457.661    24719458.7474   24719472.6754
       166.0004        168.0004
 -12681738.99049  -9850227.76147  22642134.541    22642133.7494   22642140.6534
       202.0004        203.0004
 -18411060.24749 -14059168.58547  20802025.153    20802025.3274   20802030.7694
       201.0004        200.0004
 21  2  2  0 28  0.0000000  0  8G08G07G01G09G21G03G27G04
 -21905284.94449 -17050324.39547  20421955.765    20421956.1044   20421963.1134
       209.0004        210.0004
  -9165810.36348  -7130926.47846  23137140.769    23137141.1874   23137146.3274
       171.0004        172.0004
  -7313663.30047  -5668497.87245  23384189.357    23384190.4164   23384199.9784
       151.0004        153.0004
 -19715699.46649 -15330935.51248  20803899.012    20803899.3204   20803905.8384
       213.0004        214.0004
 -10369964.76047  -8065922.10445  22277813.874    22277814.1674   22277821.0674
       160.0004        162.0004
   1669515.03948   1320716.38146  24728201.458    24728201.5754   24728213.8684
       169.0004        171.0004
 -12586074.49449  -9775683.99747  22660336.702    22660337.6824   22660344.6874
       202.0004        201.0004
 -18353924.34349 -14014647.08247  20812897.259    20812897.5834   20812903.8054
       202.0004        201.0004
 21  2  2  0 28 30.0000000  0  8G08G07G01G09G21G03G27G04
 -21864040.61849 -17018185.95747  20429803.217    20429803.9674   20429811.8344
       209.0004        209.0004
  -9239854.47948  -7188623.18046  23123050.495    23123051.1724   23123055.3284
       171.0004        172.0004
  -7390053.68047  -5728022.77345  23369654.707    23369654.1674   23369663.1464
       150.0004        153.0004
 -19727787.17449 -15340354.51648  20801598.680    20801599.0014   20801605.8684
       213.0004        213.0004
 -10411716.33747  -8098455.79446  22269874.106    22269873.5834   22269876.0394
       164.0004        169.0004
   1715178.18548   1356297.70346  24736890.568    24736891.4684   24736901.9084
       170.0004        170.0004
 -12490135.99349  -9700926.73547  22678594.688    22678594.0404   22678600.6444
       201.0004        200.0004
 -18296318.03849 -13969759.06247  20823859.180    20823859.9144   20823865.8824
       202.0004        201.0004
 21  2  2  0 29  0.0000000  0  8G08G07G01G09G21G03G27G04
 -21822264.77949 -16985633.37647  20437753.457    20437753.7784   20437760.9764
       209.0004        209.0004
  -9313970.35648  -7246375.83446  23108947.226    23108947.6674   23108951.5404
       171.0004        173.0004
