     2.11           OBSERVATION DATA    G (GPS)             RINEX VERSION / TYPE
teqc  2018Jun8                          20210202 03:10:42UTCPGM / RUN BY / DATE
Linux2.6.32-573.12.1.el6.x86_64|x86_64|gcc|Win64-MinGW64|=+ COMMENT
BIT 2 OF LLI FLAGS DATA COLLECTED UNDER A/S CONDITION       COMMENT
-Unknown-                                                   MARKER NAME
CRNO                                                        MARKER NUMBER
-Unknown-           -Unknown-                               OBSERVER / AGENCY
-Unknown-           ASHTECH             -Unknown-           REC # / TYPE / VERS
-Unknown-           -Unknown-                               ANT # / TYPE
   408074.7555 -6158364.6200  1605159.5447                  APPROX POSITION XYZ
        0.0000        0.0000        0.0000                  ANTENNA: DELTA H/E/N
     1     1                                                WAVELENGTH FACT L1/2
     7    L1    L2    C1    P1    P2    S1    S2            # / TYPES OF OBSERV
    30.0000                                                 INTERVAL
Forced Modulo Decimation to 30 seconds                      COMMENT
 SNR is mapped to RINEX snr flag value [1-9]                COMMENT
  L1: 1 -> 1;  90 -> 5; 210 -> 9                            COMMENT
  L2: 1 -> 1; 150 -> 5; 250 -> 9                            COMMENT
pseudorange smoothing corrections not applied               COMMENT
  2021     2     6     0     0   30.0000000     GPS         TIME OF FIRST OBS
                                                            END OF HEADER
 21  2  6  0  0 30.0000000  0  7G21G04G27G07G08G09G01
  -1239841.10548   -955450.69146  22020429.487    22020428.9454   22020433.6094
       174.0004        175.0004
   -488203.25448   -472647.07647  21266386.423    21266387.3004   21266392.7294
       194.0004        193.0004
   -274416.43648   -222971.40447  23324886.939    23324886.5394   23324893.8264
       189.0004        189.0004
  -1490704.26148  -1144062.61246  22621342.098    22621342.7524   22621346.5774
       180.0004        181.0004
   -602430.42844   -574324.95046  20728563.086
        74.0004        164.0004
   -959561.12949   -744930.96948  20781660.441    20781660.7154   20781667.1004
       214.0004        214.0004
  -1539450.59147  -1173615.54345  22877302.142    22877302.9494   22877310.6054
       160.0004        161.0004
 21  2  6  0  1  0.0000000  0  7G21G04G27G07G08G09G01
  -1272324.37648   -980762.31646  22014248.324    22014247.5284   22014252.6334
       175.0004        176.0004
   -414991.06148   -415598.62447  21280318.291    21280318.8434   21280325.0244
       194.0004        193.0004
   -170775.74848   -142212.42447  23344608.307    23344608.7524   23344615.8464
       188.0004        188.0004
  -1566058.58248  -1202780.28146  22607003.789    22607004.1524   22607006.5394
       181.0004        181.0004
   -544730.16344   -528993.23345  20739542.580
        74.0004        135.0004
   -950944.45149   -738216.66748  20783299.180    20783299.9054   20783306.6304
       213.0004        214.0004
  -1617120.34847  -1234137.40145  22862522.023    22862521.3664   22862530.3224
       160.0004        162.0004
 21  2  6  0  1 30.0000000  0  7G21G04G27G07G08G09G01
  -1304483.73348  -1005821.54346  22008128.579    22008127.6824   22008132.5274
       174.0004        174.0004
   -341400.87349   -358255.62247  21294323.034    21294322.9494   21294328.9404
       195.0004        193.0004
    -66970.44948    -61325.18447  23364361.605    23364362.2184   23364370.6144
       189.0004        190.0004
  -1641422.14848  -1261505.13046  22592662.521    22592662.4944   22592666.2444
       182.0004        183.0004
   -486577.04244   -483162.93244  20750608.240
        74.0004        115.0004
   -941771.39649   -731068.82648  20785045.609    20785045.9314   20785052.6664
       213.0004        214.0004
  -1694774.40247  -1294647.01846  22847745.089    22847745.6384   22847754.0614
       161.0004        164.0004
 21  2  6  0  2  0.0000000  0  7G21G04G27G07G08G09G01
  -1336315.64648  -1030625.60646  22002071.583    22002071.0294   22002075.6474
       174.0004        175.0004
   -267434.49949   -300619.48547  21308397.347    21308398.0834   21308403.9644
       195.0004        193.0004
     36997.31148     19688.64047  23384147.740    23384147.6534   23384154.0594
       191.0004        191.0004
  -1716791.76748  -1320234.66946  22578319.675    22578320.3414   22578325.0784
       184.0004        184.0004
   -427972.84748   -494764.33547  20761760.071                    20761767.8404
       194.0004        204.0004
   -932041.92049   -723487.41148  20786895.977    20786896.7574   20786903.7564
       213.0004        213.0004
  -1772408.96347  -1355141.43446  22832970.559    22832971.4764   22832980.3624
       162.0004        164.0004
 21  2  6  0  2 30.0000000  0  7G21G04G27G07G08G09G01
  -1367816.83048  -1055171.96046  21996076.279    21996075.7804   21996081.1944
       174.0004        175.0004
   -193093.74949   -242691.63747  21322544.006    21322544.6444   21322551.2174
       195.0004        193.0004
    141125.43748    100827.42747  23403963.382    23403962.8304   23403969.5214
       191.0004        192.0004
  -1792164.27848  -1378966.48046  22563976.991    22563977.9204   22563981.2594
       184.0004        184.0004
   -368919.09349   -448748.41047  20772998.517    20772999.1634   20773005.7344
       203.0004        205.0004
   -921756.01849   -715472.41848  20788854.107    20788854.4794   20788861.1264
       213.0004        213.0004
  -1850020.07447  -1415617.61446  22818202.034    22818202.3714   22818211.5224
       162.0004        164.0004
 21  2  6  0  3  0.0000000  0  7G21G04G27G07G08G09G01
  -1398984.06448  -1079458.09946  21990146.048    21990144.5894   21990150.2694
       174.0004        175.0004
   -118380.55449   -184473.56547  21336761.747    21336762.3174   21336768.3344
       195.0004        193.0004
    245411.95248    182089.65047  23423806.547    23423806.7224   23423814.4354
       191.0004        191.0004
  -1867537.59648  -1437698.90746  22549633.852    22549634.6814   22549638.2414
       184.0004        184.0004
   -309417.79149   -402383.73747  20784321.910    20784321.7274   20784328.5354
       205.0004        205.0004
   -910913.71649   -707023.86948  20790917.390    20790917.8554   20790924.4864
       213.0004        214.0004
  -1927603.81147  -1476072.44146  22803438.262    22803438.5744   22803448.3424
       163.0004        165.0004
 21  2  6  0  3 30.0000000  0  7G21G04G27G07G08G09G01
  -1429815.38048  -1103482.48246  21984277.604    21984277.4994   21984282.7274
       173.0004        174.0004
    -43297.85648   -125967.56747  21351049.527    21351050.1804   21351056.0064
       194.0004        192.0004
    349853.54348    263472.70547  23443681.990    23443682.1534   23443688.9204
       192.0004        191.0004
  -1942909.58248  -1496430.31546  22535291.011    22535291.1404   22535295.4734
       184.0004        184.0004
   -249471.63749   -355672.43347  20795728.676    20795728.7434   20795735.9924
       205.0004        205.0004
   -899516.15549   -698142.65048  20793085.902    20793086.4804   20793093.3754
       213.0004        214.0004
  -2005157.44247  -1536503.81746  22788680.090    22788681.5014   22788689.3514
       164.0004        165.0004
 21  2  6  0  4  0.0000000  0  7G21G04G27G07G08G09G01
  -1460309.02248  -1127243.75946  21978475.032    21978474.5194   21978480.1674
       173.0004        173.0004
     32151.02448    -67176.26147  21365406.774    21365407.2024   21365413.6554
       194.0004        193.0004
    454446.69048    344973.86347  23463584.805    23463585.0844   23463592.4184
       191.0004        191.0004
  -2018278.84148  -1555159.61246  22520949.186    22520948.7584   22520953.2224
       185.0004        186.0004
   -189084.19849   -308617.29647  20807219.719    20807220.0714   20807227.3054
       204.0004        204.0004
   -887564.83149   -688829.94248  20795360.527    20795360.8184   20795367.8694
       213.0004        213.0004
  -2082678.52147  -1596909.84046  22773928.209    22773929.2164   22773937.8814
       164.0004        166.0004
 21  2  6  0  4 30.0000000  0  7G21G04G27G07G08G09G01
  -1490462.51248  -1150739.93946  21972735.851    21972736.6414   21972742.3654
       173.0004        174.0004
    107963.34048     -8101.71847  21379833.700    21379833.6864   21379840.1564
       194.0004        192.0004
    559188.53548    426590.88747  23483517.409    23483516.8664   23483523.1814
       189.0004        189.0004
  -2093643.28548  -1613885.12246  22506606.743    22506607.5294   22506611.5254
       185.0004        185.0004
   -128257.88949   -261220.14047  20818794.909    20818795.1434   20818802.1894
       204.0004        204.0004
   -875060.67949   -679086.42548  20797739.740    20797740.3644   20797746.8434
       213.0004        214.0004
  -2160163.90648  -1657288.03146  22759183.933    22759184.2204   22759193.1274
       165.0004        167.0004
 21  2  6  0  5  0.0000000  0  7G21G04G27G07G08G09G01
  -1520274.07948  -1173969.72446  21967064.675    21967064.7224   21967069.8824
       173.0004        173.0004
    184136.01548     51253.59147  21394328.777    21394329.4204   21394335.0764
       193.0004        191.0004
    664075.84448    508321.24947  23503475.550    23503476.1764   23503483.0154
       190.0004        190.0004
  -2169001.22048  -1672605.60246  22492266.811    22492267.0044   22492271.1514
       184.0004        185.0004
    -66995.72549   -213483.40047  20830452.304    20830452.7894   20830459.7074
       203.0004        203.0004
   -862005.02849   -668913.20148  20800223.929    20800224.4704   20800231.6584
       213.0004        214.0004
  -2237610.93548  -1717636.34746  22744446.252    22744446.5064   22744454.7774
       166.0004        169.0004
 21  2  6  0  5 30.0000000  0  7G21G04G27G07G08G09G01
  -1549741.06648  -1196930.97846  21961456.189    21961455.7884   21961461.0504
       172.0004        173.0004
    260666.21348    110887.51347  21408892.562    21408892.9564   21408899.0584
       194.0004        193.0004
    769105.61348    590162.61147  23523462.996    23523462.8264   23523468.6424
       189.0004        188.0004
  -2244350.51748  -1731319.31546  22477928.872    22477928.7434   22477933.1834
       185.0004        186.0004
     -5300.51149   -165409.18047  20842192.430    20842193.3604   20842199.4674
       203.0004        204.0004
   -848398.89349   -658311.00648  20802813.535    20802813.9934   20802820.5964
       213.0004        214.0004
  -2315016.53448  -1777952.38146  22729716.676    22729717.6744   22729725.5094
       167.0004        169.0004
 21  2  6  0  6  0.0000000  0  7G21G04G27G07G08G09G01
  -1578861.71548  -1219622.37946  21955914.898    21955914.5524   21955920.0184
       172.0004        172.0004
    337550.91048    170797.66247  21423522.650    21423522.9114   21423529.7754
       194.0004        193.0004
    874274.67548    672112.51446  23543476.188    23543475.4094   23543482.0964
       187.0004        187.0004
  -2319689.58848  -1790025.08646  22463592.162    22463592.6044   22463595.8404
       185.0004        186.0004
     56825.05249   -116999.64247  20854015.573    20854015.5474   20854021.6004
       204.0004        205.0004
   -834243.62049   -647280.92848  20805507.362    20805507.6244   20805514.2224
       213.0004        214.0004
  -2392377.94948  -1838233.99546  22714995.987    22714996.1244   22715003.0194
       168.0004        170.0004
 21  2  6  0  6 30.0000000  0  7G21G04G27G07G08G09G01
  -1607632.99748  -1242041.53746  21950439.734    21950440.0734   21950445.5444
       172.0004        173.0004
    414787.88548    230982.31447  21438220.352    21438220.9564   21438227.5524
       194.0004        192.0004
    979580.67248    754169.13147  23563514.595    23563514.8514   23563521.4724
       188.0004        189.0004
  -2395015.56848  -1848720.65046  22449257.815    22449258.1644   22449262.5714
       186.0004        186.0004
    119378.94849    -68256.32747  20865918.669    20865918.6764   20865925.9124
       204.0004        204.0004
   -819539.65849   -635823.28448  20808305.233    20808305.7274   20808312.6024
       214.0004        214.0004
  -2469691.50948  -1898478.29746  22700282.827    22700283.6904   22700291.8914
       168.0004        170.0004
 21  2  6  0  7  0.0000000  0  7G21G04G27G07G08G09G01
  -1636052.00548  -1264186.19546  21945032.097    21945031.9434   21945037.4084
       172.0004        173.0004
    492375.36148    291440.08047  21452984.949    21452984.8864   21452991.1304
       193.0004        192.0004
   1085021.77048    836331.01947  23583579.046    23583579.7264   23583586.7554
       189.0004        190.0004
  -2470324.96148  -1907403.27946  22434926.986    22434927.6274   22434931.6464
       186.0004        186.0004
    182359.25249    -19180.77047  20877902.669    20877902.6944   20877910.3604
       203.0004        203.0004
   -804287.09949   -623938.17248  20811207.617    20811208.2024   20811214.7994
       214.0004        214.0004
  -2546953.09248  -1958682.11146  22685579.624    22685580.7294   22685589.5414
       169.0004        171.0004
 21  2  6  0  7 30.0000000  0  7G21G04G27G07G08G09G01
  -1664116.80048  -1286054.87246  21939691.052    21939691.7214   21939697.1544
       173.0004        174.0004
    570309.82148    352168.19647  21467815.525    21467815.3684   21467821.8214
       193.0004        191.0004
   1190594.39548    918595.37046  23603667.823    23603668.9444   23603675.8164
       187.0004        185.0004
  -2545617.08548  -1966072.46446  22420599.062    22420599.2414   22420604.2614
       186.0004        186.0004
    245763.05749     30224.78047  20889967.697    20889968.2414   20889976.2594
       202.0004        203.0004
   -788487.71149   -611626.98748  20814214.861    20814214.9204   20814221.1864
       214.0004        214.0004
  -2624160.24948  -2018843.54146  22670887.265    22670888.0314   22670896.8464
       170.0004        170.0004
 21  2  6  0  8  0.0000000  0  7G21G04G27G07G08G09G01
  -1691825.42648  -1307645.95646  21934418.602    21934418.1924   21934424.5674
       174.0004        174.0004
    648588.20848    413164.36547  21482711.180    21482711.4894   21482717.6394
       192.0004        191.0004
   1296295.29348   1000959.74246  23623782.088    23623783.5334   23623790.7004
       185.0004        185.0004
  -2620889.96748  -2024726.60246  22406274.711    22406275.3944   22406280.5464
       186.0004        186.0004
    309586.97549     79957.74247  20902113.262    20902113.7554   20902121.7324
       202.0004        203.0004
   -772142.89549   -598890.72948  20817324.059    20817324.7084   20817331.5824
       213.0004        213.0004
  -2701310.22348  -2078960.33846  22656205.382    22656206.6614   22656215.7134
       170.0004        170.0004
 21  2  6  0  8 30.0000000  0  7G21G04G27G07G08G09G01
  -1719174.32348  -1328956.77446  21929214.559    21929214.3894   21929219.4254
       174.0004        175.0004
    727209.06048    474427.33547  21497671.997    21497672.5584   21497678.7544
       192.0004        192.0004
   1402123.07848   1083422.91946  23643922.841    23643922.6524   23643928.5374
       185.0004        185.0004
  -2696139.86748  -2083362.89946  22391955.696    22391955.9314   22391959.7514
       186.0004        187.0004
    373829.31849    130016.69647  20914339.317    20914339.4914   20914345.9704
       203.0004        203.0004
   -755252.42349   -585729.34048  20820538.423    20820538.6474   20820545.7374
       213.0004        213.0004
  -2778398.47548  -2139029.11346  22641535.318    22641537.5464   22641546.2934
       169.0004        170.0004
 21  2  6  0  9  0.0000000  0  7G21G04G27G07G08G09G01
  -1746162.90748  -1349986.81346  21924079.573    21924078.8654   21924084.2654
       175.0004        176.0004
    806167.85648    535953.67747  21512696.616    21512697.6914   21512704.4944
       192.0004        191.0004
   1508073.06948   1165981.36346  23664083.240    23664083.4674   23664090.6714
       183.0004        183.0004
  -2771366.33548  -2141980.89546  22377640.122    22377640.6694   22377645.1014
       185.0004        186.0004
    438486.31749    180398.80747  20926642.332    20926642.8114   20926649.6834
       202.0004        202.0004
   -737819.19549   -572144.98548  20823856.036    20823856.6164   20823863.3074
       213.0004        213.0004
  -2855423.59148  -2199048.65146  22626880.450    22626880.2324   22626889.9304
       169.0004        172.0004
 21  2  6  0  9 30.0000000  0  7G21G04G27G07G08G09G01
  -1772789.06248  -1370734.45046  21919012.568    21919011.9674   21919017.3604
       176.0004        177.0004
    885461.77948    597741.12147  21527786.521    21527787.1484   21527793.4674
       192.0004        191.0004
   1614142.42848   1248632.77046  23684269.730    23684268.9084   23684273.5674
       184.0004        184.0004
  -2846567.36448  -2200579.11646  22363330.799    22363330.9834   22363334.8154
       186.0004        187.0004
    503555.09949    231101.74647  20939023.788    20939024.3344   20939031.8444
       201.0004        201.0004
   -719844.41049   -558138.67448  20827277.098    20827277.1674   20827283.9334
       213.0004        214.0004
  -2932382.46048  -2259016.60446  22612235.904    22612236.2314   22612243.7484
       170.0004        171.0004
 21  2  6  0 10  0.0000000  0  7G21G04G27G07G08G09G01
  -1799052.34648  -1391199.31946  21914014.674    21914013.9014   21914019.0824
       176.0004        177.0004
    965086.11348    659786.05047  21542939.255    21542939.1594   21542945.2934
       192.0004        190.0004
   1720326.47448   1331373.58646  23704476.206    23704475.7714   23704481.4964
       185.0004        186.0004
  -2921742.23748  -2259156.91246  22349024.936    22349025.4394   22349029.2384
       186.0004        186.0004
    569030.50749    282121.56047  20951483.399    20951483.7144   20951491.6834
       201.0004        201.0004
   -701331.14049   -543712.73748  20830799.294    20830799.7304   20830806.5494
       213.0004        213.0004
  -3009273.77348  -2318931.89146  22597603.715    22597603.9674   22597612.8784
       169.0004        170.0004
 21  2  6  0 10 30.0000000  0  7G21G04G27G07G08G09G01
  -1824950.87548  -1411379.97446  21909085.693    21909085.3454   21909091.2204
       176.0004        177.0004
   1045037.74348    722086.01847  21558153.007    21558153.4104   21558159.1344
       191.0004        190.0004
   1826622.16348   1414201.40846  23724704.541    23724702.9734   23724708.8064
       185.0004        184.0004
  -2996889.31448  -2317713.07546  22334724.546    22334724.8594   22334729.1104
       185.0004        185.0004
    634909.95849    333456.20047  20964020.063    20964020.0864   20964027.6864
       201.0004        201.0004
   -682280.89049   -528868.38748  20834424.888    20834425.1504   20834432.4734
       213.0004        214.0004
  -3086094.65648  -2378792.28046  22582984.297    22582984.5844   22582993.3424
       169.0004        170.0004
 21  2  6  0 11  0.0000000  0  7G21G04G27G07G08G09G01
  -1850478.29748  -1431271.48046  21904228.120    21904228.3504   21904233.2834
       177.0004        177.0004
   1125317.95548    784642.00347  21573428.808    21573430.5664   21573436.8074
       191.0004        190.0004
   1933030.68648   1497117.07946  23744952.338    23744951.4834   23744957.5384
       186.0004        187.0004
  -3072002.34548  -2376242.68746  22320430.755    22320431.3174   22320436.1964
       185.0004        187.0004
    701195.12449    385106.98647  20976633.786    20976633.9464   20976641.0154
       200.0004        201.0004
   -662690.78549   -513603.37748  20838153.142    20838153.2744   20838159.9154
       214.0004        214.0004
  -3162837.85948  -2438592.16146  22568379.799    22568380.8644   22568389.9294
       169.0004        170.0004
 21  2  6  0 11 30.0000000  0  7G21G04G27G07G08G09G01
  -1875633.39248  -1450872.85046  21899441.067    21899441.0604   21899447.4274
       177.0004        179.0004
   1205922.78148    847450.93647  21588768.864    21588768.8744   21588775.1504
       191.0004        190.0004
   2039548.05148   1580117.61846  23765219.504    23765219.6014   23765227.2724
       184.0004        182.0004
  -3147080.36348  -2434745.04647  22306145.296    22306145.4164   22306148.6114
       187.0004        188.0004
    767881.53949    437070.41247  20989323.985    20989324.4184   20989331.3654
       200.0004        200.0004
   -642563.26449   -497919.62348  20841982.718    20841983.3424   20841989.8874
       214.0004        214.0004
  -3239501.29248  -2498329.89546  22553792.552    22553792.3884   22553800.8524
       169.0004        171.0004
 21  2  6  0 12  0.0000000  0  8G21G30G04G27G07G08G09G01
  -1900414.21148  -1470182.53646  21894726.746    21894725.8254   21894731.7704
       178.0004        178.0004
   -343551.53057   -242950.79445  24256189.952                    24256197.2384
       143.0004        154.0004
   1286849.45048    910510.69447  21604167.630    21604168.7764   21604174.9994
       191.0004        189.0004
   2146171.59148   1663200.92046  23785507.914    23785508.5494   23785516.6884
       182.0004        182.0004
  -3222120.69048  -2493218.00146  22291864.584    22291864.7444   22291868.5714
       186.0004        186.0004
    834966.55749    489344.48447  21002089.500    21002089.8144   21002097.4734
       200.0004        200.0004
   -621899.55549   -481818.00848  20845914.880    20845915.2444   20845922.2474
       213.0004        214.0004
  -3316081.73948  -2558002.94146  22539219.925    22539220.1554   22539228.5424
       169.0004        170.0004
 21  2  6  0 12 30.0000000  0  8G21G30G04G27G07G08G09G01
  -1924818.73848  -1489199.03046  21890081.992    21890082.3404   21890086.8794
       178.0004        179.0004
   -427982.16147   -308740.88345  24240122.640    24240123.0694   24240130.1994
       150.0004        155.0004
   1368094.78548    973818.72947  21619629.198    21619629.2104   21619635.5174
       190.0004        189.0004
   2252898.26348   1746364.51546  23805818.535    23805818.5364   23805826.1094
       182.0004        182.0004
  -3297121.35748  -2551660.07546  22277592.197    22277593.1274   22277597.5764
       186.0004        186.0004
    902447.76749    541927.24147  21014931.054    21014931.0024   21014938.6494
       199.0004        200.0004
   -600701.26349   -465299.86748  20849948.805    20849949.2514   20849955.7874
       213.0004        213.0004
  -3392576.24648  -2617609.04546  22524662.679    22524663.0294   22524672.2724
       169.0004        170.0004
 21  2  6  0 13  0.0000000  0  8G21G30G04G27G07G08G09G01
  -1948848.00648  -1507923.10846  21885508.834    21885509.1764   21885514.0744
       178.0004        179.0004
   -512519.85647   -374614.36045  24224035.829    24224035.6144   24224043.0414
       152.0004        155.0004
   1449652.57648   1037370.24647  21635148.882    21635149.1204   21635155.0484
       190.0004        189.0004
   2359721.85748   1829603.71346  23826146.706    23826147.0034   23826152.9894
       181.0004        180.0004
  -3372083.61948  -2610072.21046  22263328.249    22263327.9034   22263331.9824
       186.0004        187.0004
    970318.52549    594813.57447  21027845.412    21027846.2684   21027853.7914
       199.0004        199.0004
   -578973.10349   -448368.82348  20854083.941    20854084.2754   20854090.6194
       213.0004        213.0004
  -3468985.03248  -2677148.32146  22510123.030    22510123.7434   22510132.4464
       169.0004        170.0004
 21  2  6  0 13 30.0000000  0  8G21G30G04G27G07G08G09G01
  -1972497.91648  -1526351.60246  21881009.004    21881008.6734   21881012.9014
       178.0004        178.0004
   -597160.91047   -440568.40145  24207929.578    24207929.2544   24207936.1854
       153.0004        156.0004
   1531522.25648   1101164.78947  21650727.870    21650728.5514   21650734.4804
       190.0004        189.0004
   2466641.83448   1912917.92246  23846492.919    23846493.7604   23846499.0654
       179.0004        180.0004
  -3447003.12248  -2668451.04946  22249071.439    22249071.4554   22249075.7824
       186.0004        187.0004
   1038578.16049    648002.88547  21040835.699    21040835.9974   21040843.0914
       199.0004        199.0004
   -556714.17449   -431024.21547  20858319.425    20858319.7804   20858326.0594
       212.0004        212.0004
  -3545302.61848  -2736616.54646  22495600.519    22495600.7174   22495608.8984
       169.0004        171.0004
 21  2  6  0 14  0.0000000  0  8G21G30G04G27G07G08G09G01
  -1995764.57548  -1544481.44346  21876580.766    21876580.2044   21876586.2754
       178.0004        178.0004
   -681902.64547   -506600.89945  24191802.442    24191803.1624   24191811.5424
       155.0004        158.0004
   1613702.28548   1165201.17047  21666366.417    21666366.9884   21666373.5664
       191.0004        191.0004
   2573656.83848   1996306.28546  23866857.081    23866857.6764   23866864.7374
       180.0004        181.0004
  -3521875.99748  -2726793.53246  22234822.732    22234822.6684   22234828.0534
       186.0004        186.0004
   1107225.83349    701494.58747  21053899.467    21053899.3364   21053906.1824
       199.0004        199.0004
   -533924.51449   -413266.04348  20862656.188    20862656.4774   20862663.3754
       212.0004        213.0004
  -3621524.42448  -2796010.13846  22481095.635    22481096.1384   22481104.1924
       169.0004        171.0004
 21  2  6  0 14 30.0000000  0  8G21G30G04G27G07G08G09G01
  -2018645.42448  -1562310.65346  21872226.301    21872226.4174   21872232.0614
       178.0004        179.0004
   -766742.75647   -572710.03745  24175658.646    24175659.4964   24175666.7474
       155.0004        157.0004
   1696190.67448   1229477.81447  21682063.078    21682063.8354   21682070.1694
       191.0004        190.0004
   2680764.92548   2079767.09546  23887239.618    23887239.9234   23887246.2844
       181.0004        182.0004
  -3596699.33948  -2785097.42547  22220584.372    22220585.1914   22220589.7764
       187.0004        188.0004
   1176258.92549    755286.61347  21067035.733    21067035.8724   21067042.8624
       199.0004        200.0004
   -510604.65649   -395094.73347  20867093.169    20867093.7454   20867100.4724
       212.0004        212.0004
  -3697646.32448  -2855325.89546  22466609.471    22466610.9594   22466619.5554
       170.0004        171.0004
 21  2  6  0 15  0.0000000  0  8G21G30G04G27G07G08G09G01
  -2041138.90448  -1579838.01546  21867946.339    21867945.4994   21867952.0854
       178.0004        178.0004
   -851680.45447   -638895.21545  24159495.348    24159495.9894   24159503.3564
       156.0004        158.0004
   1778983.92648   1293992.03847  21697818.082    21697818.8314   21697825.0154
       190.0004        189.0004
   2787962.81248   2163297.91646  23907638.263    23907638.0464   23907646.4784
       180.0004        180.0004
  -3671471.38148  -2843361.33547  22206355.816    22206356.4184   22206360.5174
       188.0004        189.0004
   1245674.28849    809376.52347  21080244.388    21080244.3794   21080252.5714
       199.0004        198.0004
   -486756.63349   -376511.85448  20871631.749    20871632.4554   20871638.9174
       212.0004        213.0004
  -3773665.70348  -2914561.74746  22452144.955    22452144.9954   22452152.1704
       170.0004        170.0004
 21  2  6  0 15 30.0000000  0  8G21G30G04G27G07G08G09G01
  -2063243.24048  -1597062.16946  21863739.251    21863739.5164   21863745.8844
       178.0004        178.0004
   -936714.84247   -705155.77045  24143314.889    24143315.0304   24143321.7234
       157.0004        159.0004
   1862078.69748   1358741.19147  21713631.433    21713632.0954   21713637.2574
       189.0004        188.0004
   2895247.20248   2246896.13146  23928054.173    23928053.6354   23928061.8174
       178.0004        178.0004
  -3746190.04948  -2901583.67147  22192137.468    22192137.7224   22192142.5174
       188.0004        189.0004
   1315468.90449    863761.92247  21093526.232    21093526.1344   21093534.0234
       197.0004        197.0004
   -462382.40849   -357518.96148  20876269.973    20876270.2734   20876277.4794
       213.0004        213.0004
  -3849579.83248  -2973715.59946  22437697.264    22437697.9994   22437706.4514
       169.0004        170.0004
 21  2  6  0 16  0.0000000  0  8G21G30G04G27G07G08G09G01
  -2084957.37148  -1613982.27046  21859609.424    21859609.0944   21859613.0954
       179.0004        179.0004
  -1021845.30247   -771491.18545  24127114.611    24127114.9644   24127121.8294
       157.0004        159.0004
   1945471.21548   1423722.34147  21729500.823    21729500.7124   21729506.8254
       190.0004        189.0004
   3002614.54748   2330558.95746  23948485.741    23948485.4104   23948492.5824
       177.0004        177.0004
  -3820853.82948  -2959763.27147  22177929.339    22177929.9914   22177934.1404
       188.0004        189.0004
   1385639.01449    918439.91647  21106878.913    21106878.9044   21106887.1394
       197.0004        198.0004
   -437484.30949   -338117.87947  20881007.990    20881008.4834   20881015.0164
       212.0004        212.0004
  -3925386.33448  -3032785.60546  22423271.944    22423273.3474   22423281.1494
       170.0004        171.0004
 21  2  6  0 16 30.0000000  0  8G21G30G04G27G07G08G09G01
  -2106279.17948  -1630596.61046  21855550.712    21855550.4134   21855555.9564
       178.0004        178.0004
  -1107070.44347   -837900.33945  24110896.884    24110896.7284   24110903.3664
       156.0004        159.0004
   2029158.64748   1488933.34847  21745425.374    21745425.5074   21745431.7944
       189.0004        188.0004
   3110062.02648   2414284.30546  23968933.035    23968932.3474   23968939.0964
       178.0004        178.0004
  -3895460.49148  -3017898.29546  22163732.727    22163732.6694   22163736.0984
       188.0004        187.0004
   1456181.36449    973408.01947  21120302.050    21120302.6114   21120310.8014
       197.0004        198.0004
   -412063.82649   -318309.67547  20885845.258    20885845.4704   20885852.4654
       212.0004        212.0004
  -4001081.91748  -3091769.12046  22408868.199    22408868.8024   22408878.1324
       170.0004        171.0004
 21  2  6  0 17  0.0000000  0  8G21G30G04G27G07G08G09G01
  -2127206.17948  -1646903.37146  21851566.879    21851567.0614   21851572.3644
       177.0004        177.0004
  -1192388.35547   -904381.79245  24094662.274    24094661.4114   24094667.9024
       156.0004        157.0004
   2113138.49348   1554372.16246  21761406.335    21761406.7094   21761412.3724
       189.0004        187.0004
   3217587.54948   2498070.39246  23989393.052    23989393.0604   23989400.1944
       175.0004        174.0004
  -3970007.15848  -3075986.60847  22149545.934    22149546.8074   22149551.2254
       187.0004        188.0004
   1527094.22949   1028664.79347  21133796.730    21133797.2604   21133805.1364
       197.0004        198.0004
   -386122.04249   -298095.31647  20890781.610    20890782.2114   20890788.8774
       212.0004        212.0004
  -4076662.89248  -3150663.37746  22394485.239    22394485.6744   22394494.5184
       171.0004        172.0004
 21  2  6  0 17 30.0000000  0  8G21G30G04G27G07G08G09G01
  -2147736.18848  -1662900.76246  21847661.061    21847661.0284   21847666.4944
       177.0004        177.0004
  -1277797.36747   -970934.26345  24078408.256    24078408.6314   24078414.5664
       155.0004        158.0004
   2197408.02348   1620036.73146  21777441.526    21777442.0904   21777448.7794
       188.0004        187.0004
   3325188.43348   2581915.20546  24009867.691    24009868.4704   24009875.2844
       172.0004        172.0004
  -4044491.58448  -3134026.40747  22135372.169    22135373.0174   22135377.4664
       189.0004        191.0004
   1598374.78049   1084208.08447  21147361.729    21147361.2814   21147369.1714
       197.0004        197.0004
   -359660.33249   -277475.80047  20895817.622    20895817.7074   20895824.3974
       212.0004        212.0004
  -4152125.85848  -3209465.67646  22380125.337    22380125.2124   22380134.0664
       171.0004        172.0004
 21  2  6  0 18  0.0000000  0  8G21G30G04G27G07G08G09G01
  -2167867.09348  -1678587.15546  21843831.535    21843830.3694   21843836.0674
       178.0004        178.0004
  -1363296.03647  -1037556.54145  24062139.288    24062138.6514   24062145.6564
       156.0004        159.0004
   2281964.45248   1685924.85246  21793532.201    21793532.9694   21793538.6744
       187.0004        186.0004
   3432862.08848   2665816.73646  24030357.892    24030358.6874   24030365.6694
       171.0004        173.0004
  -4118911.07848  -3192015.61047  22121211.028    22121212.0244   22121215.6774
       190.0004        192.0004
   1670020.12749   1140035.63147  21160994.519    21160994.8274   21161002.8674
       196.0004        196.0004
   -332680.20049   -256452.32247  20900951.523    20900951.9164   20900958.6644
       211.0004        212.0004
  -4227467.48848  -3268173.41146  22365787.241    22365788.3194   22365797.2664
       172.0004        173.0004
 21  2  6  0 18 30.0000000  0  8G21G30G04G27G07G08G09G01
  -2187596.86448  -1693960.99746  21840076.726    21840076.2244   21840081.4544
       178.0004        179.0004
  -1448882.45847  -1104247.23345  24045851.054    24045851.7604   24045859.8304
       157.0004        160.0004
   2366805.20348   1752034.52046  21809676.974    21809677.1414   21809683.4664
       187.0004        186.0004
   3540606.18948   2749773.15946  24050859.110    24050860.1794   24050867.7174
       172.0004        172.0004
  -4193262.93148  -3249952.10747  22107062.535    22107062.8774   22107067.0474
       191.0004        191.0004
   1742027.86649   1196145.55447  21174697.499    21174697.8644   21174705.3104
       196.0004        197.0004
   -305182.81349   -235025.80247  20906184.328    20906184.6314   20906190.9114
       211.0004        212.0004
  -4302684.09948  -3326783.75846  22351475.137    22351476.1234   22351483.7004
       172.0004        174.0004
 21  2  6  0 19  0.0000000  0  8G21G30G04G27G07G08G09G01
  -2206924.35048  -1709021.35746  21836398.629    21836397.9794   21836403.3024
       178.0004        178.0004
  -1534556.36547  -1171006.08546  24029548.412    24029549.0904   24029556.9814
       160.0004        163.0004
   2451926.07548   1818362.46346  21825875.207    21825875.8454   21825881.6254
       187.0004        186.0004
   3648416.73648   2833781.35546  24071377.029    24071376.6154   24071385.0024
       173.0004        175.0004
  -4267546.23048  -3307835.19147  22092927.406    22092927.3134   22092931.7814
       190.0004        190.0004
   1814394.10349   1252534.83847  21188468.329    21188468.5064   21188475.9994
       196.0004        197.0004
   -277171.09949   -213198.49347  20911514.666    20911514.8294   20911521.8924
       211.0004        211.0004
  -4377773.74648  -3385295.15546  22337186.293    22337186.6724   22337194.7114
       172.0004        174.0004
 21  2  6  0 19 30.0000000  0  8G21G30G04G27G07G08G09G01
  -2225847.41248  -1723766.59246  21832797.201    21832797.2034   21832802.6274
       178.0004        179.0004
  -1620315.84747  -1237831.62545  24013230.342    24013230.1614   24013236.3004
       161.0004        162.0004
   2537324.64248   1884906.79346  21842125.653    21842126.4354   21842132.0384
       186.0004        185.0004
   3756291.42948   2917839.55646  24091903.683    24091904.8514   24091911.0994
       174.0004        175.0004
  -4341758.19048  -3365662.68747  22078804.642    22078805.2824   22078809.9624
       190.0004        191.0004
   1887115.97349   1309201.24547  21202307.273    21202307.2274   21202314.4144
       196.0004        196.0004
   -248646.27649   -190971.37047  20916942.280    20916942.8034   20916949.9824
       211.0004        212.0004
  -4452732.69648  -3443704.70446  22322922.037    22322922.5364   22322930.7004
       173.0004        174.0004
 21  2  6  0 20  0.0000000  0  8G21G30G04G27G07G08G09G01
  -2244364.25548  -1738195.29846  21829273.814    21829273.6274   21829279.2594
       179.0004        180.0004
  -1706159.64247  -1304722.88845  23996893.589    23996893.7074   23996900.5774
       158.0004        158.0004
   2622997.67648   1951664.98146  21858428.305    21858428.9204   21858434.7314
       185.0004        184.0004
   3864227.47048   3001945.53546  24112442.516    24112443.8834   24112452.4244
       171.0004        171.0004
  -4415896.34648  -3423432.67847  22064696.757    22064697.3974   22064701.4304
       191.0004        192.0004
   1960190.54349   1366142.46447  21216212.560    21216212.6854   21216219.9614
       196.0004        195.0004
   -219610.26649   -168345.91347  20922467.818    20922468.4984   20922475.4024
       211.0004        212.0004
  -4527557.90848  -3502010.04946  22308682.697    22308682.6804   22308691.5064
       173.0004        175.0004
 21  2  6  0 20 30.0000000  0  8G21G30G04G27G07G08G09G01
  -2262473.40948  -1752306.30146  21825828.254    21825827.9244   21825833.7894
       179.0004        180.0004
  -1792086.64647  -1371678.96745  23980543.502    23980542.8654   23980548.5714
       155.0004        157.0004
   2708941.85548   2018634.49446  21874783.726    21874784.1474   21874789.6714
       185.0004        184.0004
   3972221.86148   3086097.03946  24132994.076    24132995.4744   24133001.6794
       172.0004        174.0004
  -4489958.63448  -3481143.52247  22050603.402    22050603.8924   22050607.2644
       192.0004        192.0004
   2033614.40949   1423355.87347  21230184.555    21230184.7244   21230192.2254
       195.0004        195.0004
   -190065.08949   -145323.68747  20928090.092    20928090.5384   20928097.4134
       211.0004        211.0004
  -4602246.48948  -3560208.91646  22294468.473    22294469.9624   22294479.5664
       173.0004        174.0004
 21  2  6  0 21  0.0000000  0  8G21G30G04G27G07G08G09G01
  -2280172.68348  -1766097.95746  21822459.984    21822459.5894   21822465.5504
       179.0004        179.0004
  -1878094.92147  -1438698.41745  23964175.870    23964176.3334   23964182.9744
       155.0004        158.0004
   2795154.64048   2085813.24146  21891188.573    21891189.4954   21891196.2114
       185.0004        184.0004
   4080272.18448   3170292.07146  24153555.431    24153556.7764   24153564.5784
       175.0004        176.0004
  -4563942.60848  -3538793.40547  22036524.201    22036524.7854   22036528.1604
       191.0004        191.0004
   2107385.23249   1480839.61247  21244222.532    21244223.1054   21244230.3664
       195.0004        195.0004
   -160012.13049   -121905.83447  20933809.113    20933809.5634   20933816.2394
       211.0004        211.0004
  -4676794.85248  -3618298.56046  22280283.495    22280284.1574   22280292.9254
       173.0004        174.0004
 21  2  6  0 21 30.0000000  0  8G21G30G04G27G07G08G09G01
  -2297459.24448  -1779567.97946  21819170.220    21819169.4254   21819174.8524
       179.0004        179.0004
  -1964182.21247  -1505779.41045  23947792.986    23947793.6854   23947801.2474
       156.0004        158.0004
   2881633.74048   2153199.54746  21907645.677    21907646.2894   21907652.3864
       185.0004        185.0004
   4188376.49648   3254529.16646  24174126.737    24174127.5924   24174134.6214
       173.0004        172.0004
  -4637844.98848  -3596379.66047  22022460.137    22022461.4504   22022465.7844
       191.0004        191.0004
   2181500.87749   1538592.07847  21258326.496    21258326.6904   21258334.7354
       195.0004        196.0004
   -129452.42249    -98093.07647  20939624.324    20939624.8894   20939632.0434
       211.0004        211.0004
  -4751198.94848  -3676275.76046  22266125.144    22266126.1284   22266135.0954
       174.0004        175.0004
 21  2  6  0 22  0.0000000  0  8G21G30G04G27G07G08G09G01
  -2314332.75648  -1792716.16846  21815958.556    21815958.7844   21815964.0644
       179.0004        179.0004
  -2050348.56247  -1572921.96645  23931396.156    23931395.7454   23931404.7154
       155.0004        157.0004
   2968374.75948   2220789.94246  21924151.429    21924152.2314   21924159.2184
       184.0004        183.0004
   4296530.75948   3338805.19046  24194708.519    24194709.3364   24194716.4344
       174.0004        175.0004
  -4711664.69048  -3653901.50347  22008414.059    22008414.0374   22008418.2494
       191.0004        192.0004
   2255957.21349   1596609.99047  21272495.434    21272495.6664   21272503.0974
       195.0004        196.0004
    -98389.23049    -73888.00547  20945535.064    20945535.9234   20945542.4884
       210.0004        210.0004
  -4825457.01648  -3734139.18246  22251995.088    22251995.5034   22252003.9574
       175.0004        176.0004
 21  2  6  0 22 30.0000000  0  8G21G30G04G27G07G08G09G01
  -2330789.91248  -1805539.88946  21812827.475    21812827.3084   21812833.0664
       180.0004        181.0004
  -2136590.75447  -1640123.60945  23914984.636    23914984.5924   23914992.8274
       154.0004        158.0004
   3055376.29048   2288583.35646  21940708.468    21940708.6574   21940714.7244
       184.0004        184.0004
   4404733.82348   3423119.25746  24215298.633    24215299.8374   24215305.9634
       175.0004        176.0004
  -4785397.96548  -3711355.96647  21994382.421    21994382.8384   21994387.6464
       192.0004        192.0004
   2330752.61449   1654892.15447  21286728.297    21286728.2524   21286736.0614
       195.0004        196.0004
    -66822.72449    -49290.70847  20951542.698    20951543.1254   20951549.5914
       211.0004        211.0004
  -4899564.18948  -3791884.98946  22237891.711    22237892.7074   22237901.8254
       175.0004        176.0004
 21  2  6  0 23  0.0000000  0  8G21G30G04G27G07G08G09G01
  -2346829.44548  -1818038.22446  21809776.765    21809775.6104   21809780.6554
       180.0004        181.0004
  -2222907.58947  -1707383.49245  23898559.944    23898560.6634   23898565.8054
       157.0004        160.0004
   3142634.94948   2356577.11246  21957312.403    21957312.2804   21957318.6814
       184.0004        183.0004
   4512982.64448   3507468.96046  24235898.245    24235899.1214   24235905.5794
       177.0004        177.0004
  -4859042.67548  -3768741.45847  21980369.410    21980369.2684   21980372.9574
       192.0004        192.0004
   2405883.74549   1713435.90147  21301023.935    21301024.5414   21301032.9004
       195.0004        194.0004
    -34755.14349    -24302.99347  20957644.904    20957645.1994   20957652.3354
       211.0004        212.0004
  -4973517.59748  -3849511.01246  22223819.935    22223820.1974   22223828.3154
       175.0004        175.0004
 21  2  6  0 23 30.0000000  0  8G21G30G04G27G07G08G09G01
  -2362451.50348  -1830211.24246  21806801.874    21806801.5624   21806807.7464
       180.0004        181.0004
  -2309299.68447  -1774701.97145  23882120.701    23882120.4634   23882126.8334
       158.0004        161.0004
   3230145.71448   2424767.29246  21973965.712    21973965.7714   21973972.2514
       184.0004        183.0004
   4621272.39348   3591850.60146  24256505.264    24256506.2674   24256512.4634
       177.0004        178.0004
  -4932598.36048  -3826057.56547  21966370.740    21966371.5184   21966375.6444
       192.0004        191.0004
   2481345.76548   1772237.46847  21315384.660    21315385.0184   21315392.7144
       194.0004        194.0004
     -2190.38949      1072.12747  20963841.529    20963842.2124   20963849.1954
       211.0004        212.0004
  -5047316.10248  -3907016.31646  22209776.704    22209776.6504   22209784.8064
       175.0004        177.0004
 21  2  6  0 24  0.0000000  0  9G21G30G04G27G07G08G09G01G17
  -2377651.72148  -1842055.57546  21803910.072    21803910.2654   21803914.9984
       180.0004        180.0004
  -2395762.77847  -1842075.79145  23865666.471    23865665.9264   23865673.2894
       157.0004        158.0004
   3317908.15648   2493153.60146  21990665.624    21990665.9394   21990673.3424
       183.0004        183.0004
   4729603.19548   3676264.16046  24277120.171    24277120.9264   24277127.4614
       178.0004        179.0004
  -5006059.94148  -3883300.37647  21952392.486    21952392.9914   21952396.1974
       191.0004        192.0004
   2557138.16049   1831296.46547  21329808.695    21329809.0624   21329815.4464
       195.0004        196.0004
     30872.24249     26835.19847  20970133.781    20970133.9064   20970140.4664
       211.0004        212.0004
  -5120953.79948  -3964396.33246  22195762.990    22195763.9654   22195773.4004
       175.0004        176.0004
  -1058563.93854   -798006.49945  24241669.917
        74.0004        138.0004
 21  2  6  0 24 30.0000000  0  9G21G30G04G27G07G08G09G01G17
  -2392429.49048  -1853570.71446  21801098.336    21801097.8244   21801103.7084
       180.0004        181.0004
  -2482296.68547  -1909504.79045  23849199.452    23849199.6684   23849207.1814
       155.0004        157.0004
   3405917.95348   2561732.65246  22007413.082    22007413.7974   22007420.7434
       183.0004        183.0004
   4837971.05348   3760706.64346  24297740.836    24297741.9574   24297748.3564
       175.0004        174.0004
  -5079426.20448  -3940468.89547  21938431.180    21938431.7714   21938435.7974
       192.0004        193.0004
   2633256.44049   1890609.40247  21344293.559    21344293.8884   21344300.8274
       196.0004        197.0004
     64429.51349     52983.71147  20976518.760    20976519.8364   20976525.7214
       211.0004        211.0004
  -5194428.73748  -4021649.54646  22181780.634    22181781.9024   22181790.1574
       176.0004        177.0004
  -1155980.73546   -873915.50045  24223129.278    24223131.5484   24223137.5494
       124.0004        136.0004
 21  2  6  0 25  0.0000000  0  9G21G30G04G27G07G08G09G01G17
  -2406784.02248  -1864756.00546  21798367.020    21798365.9974   21798370.8434
       181.0004        181.0004
  -2568900.38347  -1976988.15445  23832719.582    23832719.6514   23832726.2024
       153.0004        155.0004
   3494171.53548   2630501.68246  22024208.167    22024208.4674   22024214.7624
       184.0004        183.0004
   4946372.77548   3845175.54446  24318371.006    24318370.5884   24318375.6064
       174.0004        173.0004
  -5152695.50248  -3997561.82247  21924488.553    21924489.3864   21924493.3124
       193.0004        194.0004
   2709697.90349   1950174.21247  21358839.587    21358840.0254   21358846.8364
       195.0004        195.0004
     98478.96849     79515.77947  20982999.316    20982999.4704   20983005.6104
       211.0004        211.0004
  -5267738.22948  -4078773.77146  22167831.206    22167831.7704   22167838.6954
       176.0004        176.0004
  -1253179.86846   -949654.97245  24204634.313    24204634.7884   24204640.4954
       130.0004        138.0004
 21  2  6  0 25 30.0000000  0  9G21G30G04G27G07G08G09G01G17
  -2420714.33248  -1875610.78746  21795715.305    21795715.2064   21795719.7884
       180.0004        180.0004
  -2655573.31947  -2044525.50045  23816225.223    23816225.9204   23816232.3524
       152.0004        154.0004
   3582664.87548   2699457.51246  22041048.055    22041047.7364   22041054.9154
       183.0004        182.0004
   5054804.64448   3929667.87946  24339005.113    24339004.5904   24339010.6274
       171.0004        170.0004
  -5225866.59548  -4054578.26647  21910565.422    21910564.9524   21910568.9934
       194.0004        194.0004
   2786457.81548   2009987.11147  21373447.062    21373447.0984   21373453.9494
       194.0004        195.0004
    133017.62949    106428.99847  20989571.612    20989572.2084   20989577.7634
       211.0004        211.0004
  -5340880.08148  -4135767.42046  22153911.648    22153912.7744   22153922.2924
       176.0004        176.0004
  -1350159.56547  -1025223.41645  24186181.950    24186181.9974   24186187.0694
       139.0004        146.0004
 21  2  6  0 26  0.0000000  0  9G21G30G04G27G07G08G09G01G17
  -2434217.62048  -1886132.82646  21793144.964    21793145.2194   21793150.8134
       180.0004        181.0004
  -2742312.54747  -2112114.46245  23799719.023    23799719.9594   23799727.3504
       153.0004        155.0004
   3671396.28848   2768598.85946  22057932.436    22057932.5054   22057940.0164
       183.0004        182.0004
   5163265.40348   4014182.76546  24359644.565    24359644.3654   24359648.7364
       170.0004        171.0004
  -5298935.33648  -4111514.95047  21896658.647    21896659.6664   21896664.5464
       193.0004        193.0004
   2863534.89348   2070047.16847  21388113.611    21388113.8424   21388121.0274
       194.0004        195.0004
    168044.82849    133722.89447  20996236.145    20996236.7214   20996244.0564
       211.0004        210.0004
  -5413849.59848  -4192626.79346  22140026.180    22140026.9754   22140035.8344
       176.0004        177.0004
  -1446916.30847  -1100618.14145  24167769.688    24167768.4134   24167775.4624
       142.0004        147.0004
 21  2  6  0 26 30.0000000  0  9G21G30G04G27G07G08G09G01G17
  -2447291.07748  -1896319.91146  21790657.580    21790657.3714   21790663.6454
       180.0004        181.0004
  -2829115.26147  -2179752.91645  23783202.293    23783201.8824   23783209.5614
       155.0004        158.0004
   3760363.89448   2837924.25846  22074861.038    22074861.9404   22074868.7924
       183.0004        182.0004
   5271753.60948   4098719.06146  24380289.457    24380289.0934   24380294.8634
       171.0004        172.0004
  -5371898.14648  -4168369.08047  21882774.815    21882775.4044   21882780.0684
       193.0004        193.0004
   2940927.38148   2130353.00147  21402840.918    21402841.4104   21402848.4304
       194.0004        194.0004
    203559.79549    161396.89247  21002994.344    21002994.7654   21003002.3364
       210.0004        210.0004
  -5486642.44148  -4249348.47346  22126174.600    22126175.2254   22126185.3974
       176.0004        178.0004
  -1543447.19047  -1175836.87545  24149398.414    24149398.6564   24149406.0394
       143.0004        148.0004
 21  2  6  0 27  0.0000000  0  9G21G30G04G27G07G08G09G01G17
  -2459931.24948  -1906169.36246  21788252.446    21788252.3784   21788257.7154
       180.0004        180.0004
  -2915977.99447  -2247438.16545  23766673.433    23766673.2134   23766679.8504
       157.0004        159.0004
   3849566.52248   2907432.81246  22091836.943    22091837.5254   22091844.0754
       182.0004        182.0004
   5380268.52748   4183276.10046  24400937.401    24400937.9394   24400944.8584
       170.0004        171.0004
  -5444751.14648  -4225137.62247  21868912.039    21868912.2864   21868916.6004
       193.0004        193.0004
   3018633.71948   2190903.41647  21417628.519    21417628.5234   21417635.5864
       194.0004        194.0004
    239562.33049    189450.83147  21009845.729    21009846.1264   21009853.1464
       210.0004        211.0004
  -5559253.50248  -4305928.47546  22112357.881    22112358.1854   22112366.1524
       177.0004        178.0004
  -1639748.00547  -1250876.33545  24131073.197    24131073.0514   24131080.1244
       145.0004        149.0004
 21  2  6  0 27 30.0000000  0  9G21G30G04G27G07G08G09G01G17
  -2472137.56548  -1915680.77246  21785930.563    21785929.7214   21785935.0394
       180.0004        180.0004
  -3002900.34247  -2315169.84045  23750131.158    23750131.3154   23750140.2354
       158.0004        160.0004
   3938999.96248   2977121.17946  22108856.763    22108857.2884   22108862.5524
       183.0004        183.0004
   5488806.34248   4267850.99646  24421590.777    24421592.1034   24421598.1204
       170.0004        170.0004
  -5517492.44848  -4281819.16547  21855069.481    21855070.1974   21855074.2284
       193.0004        194.0004
   3096650.48348   2251695.68947  21432474.247    21432474.4114   21432481.5404
       194.0004        194.0004
    276049.20749    217882.14347  21016789.242    21016789.5644   21016796.2024
       210.0004        211.0004
  -5631680.65948  -4362365.22246  22098575.536    22098575.7154   22098583.6574
       177.0004        178.0004
  -1735817.59747  -1325735.64245  24112792.053    24112792.3064   24112797.6814
       147.0004        150.0004
 21  2  6  0 28  0.0000000  0  9G21G30G04G27G07G08G09G01G17
  -2483907.69648  -1924852.26946  21783690.460    21783690.5854   21783695.5884
       181.0004        181.0004
  -3089879.93247  -2382946.10545  23733581.102    23733580.4374   23733587.8044
       159.0004        161.0004
   4028661.96048   3046987.67846  22125918.316    22125918.7114   22125924.4924
       183.0004        182.0004
   5597365.35148   4352442.43146  24442249.314    24442250.3484   24442256.7894
       168.0004        168.0004
  -5590119.29449  -4338411.50347  21841249.833    21841250.2924   21841254.3734
       195.0004        195.0004
   3174974.92148   2312727.72747  21447377.749    21447378.8554   21447386.5234
       193.0004        193.0004
    313019.20949    246689.93447  21023824.149    21023824.6614   21023831.4914
       210.0004        210.0004
  -5703919.89748  -4418655.49446  22084827.919    22084829.0064   22084837.7204
       177.0004        178.0004
  -1831653.23647  -1400412.64045  24094554.454    24094555.1714   24094561.3134
       147.0004        152.0004
 21  2  6  0 28 30.0000000  0  9G21G30G04G27G07G08G09G01G17
  -2495241.83848  -1933684.06046  21781533.648    21781533.3364   21781538.8634
       182.0004        183.0004
  -3176916.78147  -2450767.02345  23717017.508    23717017.4004   23717024.3224
       158.0004        159.0004
   4118547.73348   3117028.52246  22143023.345    22143023.4014   22143029.4994
       184.0004        183.0004
   5705941.25548   4437046.96646  24462911.179    24462911.8824   24462918.0034
       167.0004        169.0004
  -5662630.53548  -4394913.76647  21827450.973    21827451.6014   21827456.1294
       194.0004        194.0004
   3253602.41648   2373995.89447  21462340.666    21462341.5414   21462348.7714
       193.0004        194.0004
    350468.42549    275871.13847  21030949.919    21030950.5714   21030958.0594
       209.0004        209.0004
  -5775969.66248  -4474798.15446  22071118.252    22071118.4334   22071128.2904
       178.0004        180.0004
  -1927254.91647  -1474907.33945  24076362.196    24076362.8844   24076369.6024
       150.0004        154.0004
 21  2  6  0 29  0.0000000  0  9G21G30G04G27G07G08G09G01G17
  -2506139.20948  -1942175.49546  21779459.784    21779459.0034   21779465.0924
       182.0004        182.0004
  -3264009.80347  -2518631.69045  23700444.463    23700444.6844   23700451.7114
       157.0004        158.0004
   4208653.70748   3187240.96646  22160169.618    22160169.9034   22160175.5744
       183.0004        182.0004
   5814530.70248   4521662.13346  24483574.723    24483575.2814   24483581.9374
       169.0004        171.0004
  -5735024.40348  -4451324.55747  21813674.940    21813675.3914   21813679.5964
       194.0004        194.0004
   3332529.58548   2435497.58547  21477361.012    21477361.0814   21477367.7974
       193.0004        194.0004
    388394.24849    305423.72547  21038166.919    21038167.5824   21038174.5934
       209.0004        209.0004
  -5847827.37948  -4530791.17046  22057442.948    22057444.0994   22057453.6454
       178.0004        179.0004
  -2022620.39847  -1549218.02145  24058216.071    24058216.0774   24058221.8664
       153.0004        156.0004
 21  2  6  0 29 30.0000000  0  9G21G30G04G27G07G08G09G01G17
  -2516595.72948  -1950323.42046  21777468.905    21777468.9924   21777475.2034
       181.0004        181.0004
  -3351155.21447  -2586537.16645  23683861.201    23683861.2924   23683868.6004
       157.0004        159.0004
   4298979.04948   3257624.34346  22177357.320    22177358.4144   22177364.0064
       181.0004        180.0004
   5923133.40648   4606287.56646  24504239.541    24504240.8024   24504248.8114
       167.0004        168.0004
  -5807296.44948  -4507640.42747  21799922.663    21799923.0504   21799926.9114
       194.0004        196.0004
   3411755.76448   2497232.28347  21492437.173    21492437.0884   21492444.2004
       193.0004        192.0004
    426796.71649    335347.72247  21045475.257    21045475.4394   21045482.3364
       209.0004        209.0004
  -5919487.45448  -4586630.17546  22043807.287    22043807.8904   22043815.0044
       178.0004        179.0004
  -2117744.93747  -1623340.94845  24040114.066    24040113.9814   24040119.1624
       153.0004        156.0004
 21  2  6  0 30  0.0000000  0  9G21G30G04G27G07G08G09G01G17
  -2526611.08948  -1958127.57646  21775564.009    21775563.5484   21775568.7324
       181.0004        180.0004
  -3438352.59547  -2654483.18945  23667268.898    23667268.4144   23667275.0914
       157.0004        159.0004
   4389519.34448   3328175.21046  22194586.597    22194587.5874   22194592.8694
       181.0004        180.0004
   6031745.46948   4690920.31446  24524908.834    24524909.4614   24524916.1284
       166.0004        166.0004
  -5879445.03049  -4563860.10147  21786192.783    21786192.7394   21786197.2774
       195.0004        195.0004
   3491276.43248   2559196.43247  21507568.024    21507568.7334   21507575.8384
       192.0004        191.0004
    465672.41649    365640.46447  21052873.220    21052873.7924   21052880.4014
       209.0004        209.0004
  -5990948.03248  -4642313.72646  22030207.695    22030207.9294   22030217.0894
       178.0004        178.0004
  -2212628.46247  -1697276.04545  24022058.632    24022058.8414   24022063.3044
       150.0004        152.0004
 21  2  6  0 30 30.0000000  0  9G21G30G04G27G07G08G09G01G17
  -2536184.67048  -1965587.48446  21773742.654    21773741.7004   21773746.0354
       181.0004        181.0004
  -3525600.66647  -2722468.68945  23650665.940    23650665.8494   23650672.3834
       159.0004        162.0004
   4480271.16548   3398890.93246  22211856.824    22211857.1014   22211862.9094
       180.0004        179.0004
   6140363.99848   4775558.14846  24545576.247    24545578.5514   24545587.0534
       166.0004        166.0004
  -5951468.20149  -4619982.03847  21772486.709    21772487.0774   21772491.5834
       195.0004        195.0004
   3571088.19348   2621387.42047  21522756.436    21522757.0134   21522763.7574
       191.0004        191.0004
    505018.75549    396299.95047  21060360.871    21060361.1044   21060367.3664
       209.0004        209.0004
  -6062206.22848  -4697839.58146  22016648.441    22016649.1864   22016657.9304
       178.0004        179.0004
  -2307268.93547  -1771021.84045  24004049.067    24004049.2734   24004054.1464
       149.0004        151.0004
 21  2  6  0 31  0.0000000  0  9G21G30G04G27G07G08G09G01G17
  -2545313.84448  -1972701.10446  21772005.502    21772004.6954   21772009.9194
       181.0004        182.0004
  -3612896.54647  -2790491.44845  23634053.015    23634053.6474   23634060.5094
       160.0004        162.0004
   4571232.68548   3469770.01446  22229165.600    22229165.9834   22229172.5984
       180.0004        180.0004
   6248987.79348   4860199.99746  24566247.112    24566248.6914   24566257.0974
       165.0004        167.0004
  -6023362.33948  -4676003.44147  21758805.702    21758806.3874   21758810.5564
       194.0004        194.0004
   3651189.00648   2683803.63947  21537999.489    21537999.9074   21538006.3964
       191.0004        192.0004
    544834.80749    427325.44347  21067937.106    21067937.5564   21067944.4404
       209.0004        209.0004
  -6133257.57448  -4753204.24646  22003126.813    22003127.9274   22003136.7764
       178.0004        179.0004
  -2401663.55247  -1844575.98745  23986086.097    23986086.1984   23986090.6924
       150.0004        154.0004
 21  2  6  0 31 30.0000000  0  8G21G30G04G07G08G09G01G17
  -2553997.88148  -1979467.88246  21770352.551    21770352.2254   21770356.0634
       181.0004        182.0004
  -3700239.50947  -2858550.89345  23617432.079    23617432.1384   23617439.4504
       159.0004        159.0004
   4662399.81348   3540809.32146  22246514.140    22246514.4084   22246520.7614
       179.0004        178.0004
