     2.11           OBSERVATION DATA    G (GPS)             RINEX VERSION / TYPE
teqc  2018Jun8                          20210202 03:10:36UTCPGM / RUN BY / DATE
Linux2.6.32-573.12.1.el6.x86_64|x86_64|gcc|Win64-MinGW64|=+ COMMENT
BIT 2 OF LLI FLAGS DATA COLLECTED UNDER A/S CONDITION       COMMENT
-Unknown-                                                   MARKER NAME
CRNO                                                        MARKER NUMBER
-Unknown-           -Unknown-                               OBSERVER / AGENCY
-Unknown-           ASHTECH             -Unknown-           REC # / TYPE / VERS
-Unknown-           -Unknown-                               ANT # / TYPE
   408078.0667 -6158373.0436  1605163.8779                  APPROX POSITION XYZ
        0.0000        0.0000        0.0000                  ANTENNA: DELTA H/E/N
     1     1                                                WAVELENGTH FACT L1/2
     7    L1    L2    C1    P1    P2    S1    S2            # / TYPES OF OBSERV
    30.0000                                                 INTERVAL
Forced Modulo Decimation to 30 seconds                      COMMENT
 SNR is mapped to RINEX snr flag value [1-9]                COMMENT
  L1: 1 -> 1;  90 -> 5; 210 -> 9                            COMMENT
  L2: 1 -> 1; 150 -> 5; 250 -> 9                            COMMENT
pseudorange smoothing corrections not applied               COMMENT
  2021     2     6     0     0   30.0000000     GPS         TIME OF FIRST OBS
                                                            END OF HEADER
 21  2  6  0  0 30.0000000  0  9G03G21G08G04G07G09G16G27G22
  -2315719.74248  -1777728.16046  23900588.438    23900588.8424   23900597.8214
       181.0004        181.0004
  -8767754.26047  -6666787.69545  23009924.265    23009923.6244   23009929.5604
       150.0004        152.0004
 -24109144.67349 -18772013.25248  20148259.641    20148260.0664   20148267.6314
       212.0004        213.0004
 -22725273.56949 -17686159.17048  20254902.382    20254903.1624   20254908.9774
       214.0004        213.0004
  -2990513.71247  -2312499.41945  24198142.645    24198143.1464   24198147.6334
       156.0004        158.0004
 -16846182.19449 -13107897.15647  21328071.442    21328072.6254   21328079.5664
       203.0004        202.0004
  -5687006.32447  -4377713.50245  23850560.409    23850561.0594   23850565.4304
       142.0004        145.0004
 -18440649.69549 -14353374.88647  21423470.382    21423470.3404   21423476.6804
       209.0004        212.0004
   -754115.94647   -259006.53945  24592179.113    24592178.1384   24592186.1694
       137.0004        142.0004
 21  2  6  0  1  0.0000000  0  9G03G21G08G04G07G09G16G27G22
  -2254102.07148  -1729714.42346  23912313.840    23912314.6114   23912323.5064
       182.0004        183.0004
  -8819615.24747  -6707198.77345  23000056.129    23000054.2084   23000060.9554
       151.0004        154.0004
 -24114204.86549 -18775956.23848  20147296.749    20147297.1834   20147304.6544
       212.0004        213.0004
 -22710309.53449 -17674498.88848  20257750.585    20257751.1754   20257756.4134
       214.0004        213.0004
  -3054907.37147  -2362676.25345  24185888.696    24185889.0824   24185895.3524
       156.0004        159.0004
 -16901010.08449 -13150620.18947  21317638.741    21317639.3434   21317645.6634
       202.0004        203.0004
  -5604243.56247  -4313222.99645  23866309.417    23866308.8264   23866315.0074
       140.0004        144.0004
 -18375645.61049 -14302722.35047  21435839.332    21435839.8394   21435846.6614
       213.0004        212.0004
   -704699.69847   -220500.47545  24601581.872    24601581.4744   24601589.7864
       137.0004        143.0004
 21  2  6  0  1 30.0000000  0  9G03G21G08G04G07G09G16G27G22
  -2192606.77948  -1681796.07346  23924015.274    23924016.3644   23924025.2054
       180.0004        180.0004
  -8871452.73747  -6747591.52945  22990189.960    22990189.4614   22990196.7794
       149.0004        152.0004
 -24118653.60049 -18779422.75547  20146450.290    20146450.4584   20146458.0794
       212.0004        212.0004
 -22694772.55249 -17662392.14448  20260706.321    20260707.1414   20260713.3154
       214.0004        213.0004
  -3119457.70447  -2412975.19745  24173604.505    24173604.9244   24173609.5194
       155.0004        156.0004
 -16955360.07749 -13192970.82447  21307296.614    21307296.9254   21307303.4644
       202.0004        203.0004
  -5521596.08847  -4248822.35345  23882037.169    23882037.3284   23882041.6174
       140.0004        143.0004
 -18310145.86449 -14251683.56548  21448303.660    21448303.9114   21448311.0734
       221.0004        226.0004
   -655511.15547   -182171.78345  24610944.217    24610943.1964   24610950.8524
       139.0004        145.0004
 21  2  6  0  2  0.0000000  0 10G03G21G08G04G01G07G09G16G27G22
  -2131236.19748  -1633974.89346  23935693.951    23935694.6214   23935703.2754
       177.0004        178.0004
  -8923263.51847  -6787963.50345  22980330.209    22980330.5114   22980337.0464
       148.0004        151.0004
 -24122490.78049 -18782412.73348  20145720.189    20145720.5354   20145727.8564
       212.0004        213.0004
 -22678662.95149 -17649839.18748  20263772.368    20263772.9504   20263778.8534
       214.0004        213.0004
  -1482691.81154  -1143375.57043  24412988.619
        74.0004         74.0004
  -3184164.58347  -2463396.09745  24161291.748    24161292.0604   24161295.7884
       152.0004        153.0004
 -17009230.25549 -13234947.57047  21297045.387    21297045.8964   21297051.6774
       203.0004        203.0004
  -5439065.18347  -4184512.54045  23897740.766    23897741.4414   23897747.6184
       139.0004        143.0004
 -18244152.85549 -14200260.42148  21460861.015    21460861.7084   21460869.3144
       225.0004        225.0004
   -606551.59047   -144021.63545  24620260.717    24620258.9084   24620266.4234
       141.0004        145.0004
 21  2  6  0  2 30.0000000  0 10G03G21G08G04G01G07G09G16G27G22
  -2069993.10748  -1586253.05246  23947348.959    23947350.2014   23947358.7294
       180.0004        182.0004
  -8975045.54647  -6828313.06045  22970478.244    22970477.7044   22970482.8864
       148.0004        153.0004
 -24125716.90649 -18784926.57648  20145106.574    20145106.7504   20145113.9854
       212.0004        213.0004
 -22661981.63149 -17636840.75247  20266946.404    20266947.1654   20266952.9784
       214.0004        212.0004
  -1513158.54044  -1167116.199 4                                  24407209.986
        74.0004        109.000
  -3249027.86847  -2513938.90945  24148947.846    24148949.0994   24148951.3024
       150.0004        152.0004
 -17062619.05549 -13276549.24047  21286885.623    21286886.2884   21286892.5264
       203.0004        203.0004
  -5356652.45147  -4120294.80745  23913426.441    23913424.9714   23913430.2154
       138.0004        143.0004
 -18177669.60149 -14148455.28948  21473512.835    21473513.2354   21473520.6714
       225.0004        225.0004
   -557822.32647   -106050.90845  24629531.245    24629531.3714   24629541.3914
       139.0004        143.0004
 21  2  6  0  3  0.0000000  0 10G03G21G08G04G01G07G09G16G27G22
  -2008879.45548  -1538632.07046  23958978.294    23958979.6074   23958989.2384
       183.0004        185.0004
  -9026796.29747  -6868638.25945  22960631.165    22960628.7044   22960634.5414
       148.0004        151.0004
 -24128331.55349 -18786963.94548  20144608.630    20144609.0014   20144616.2784
       212.0004        213.0004
 -22644728.66549 -17623396.87847  20270229.680    20270230.5764   20270236.3034
       213.0004        212.0004
  -1513158.54045  -1167116.199 4                                  24407209.986
       102.0004        109.000
  -3314046.51047  -2564602.77045  24136574.768    24136575.9044   24136581.3224
       150.0004        154.0004
 -17115524.25149 -13317774.06547  21276819.140    21276819.1534   21276825.1004
       203.0004        203.0004
  -5274359.33447  -4056170.29045  23929083.500    23929084.9094   23929088.5304
       137.0004        141.0004
 -18110698.12049 -14096269.71148  21486257.305    21486257.5054   21486264.2854
       225.0004        224.0004
   -509325.61047    -68261.28145  24638758.586    24638757.9104   24638768.3794
       135.0004        139.0004
 21  2  6  0  3 30.0000000  0  9G03G21G08G04G07G09G16G27G22
  -1947897.56648  -1491113.78646  23970582.066    23970582.9654   23970593.2494
       181.0004        180.0004
  -9078513.06747  -6908936.95545  22950786.940    22950787.8164   22950793.0274
       147.0004        149.0004
 -24130334.88749 -18788524.96348  20144227.537    20144227.7714   20144235.3654
       212.0004        213.0004
 -22626904.57749 -17609507.96847  20273621.954    20273622.1094   20273627.9304
       213.0004        212.0004
  -3379220.01147  -2615387.27145  24124174.409    24124173.6784   24124178.9204
       152.0004        156.0004
 -17167944.11049 -13358620.69147  21266843.961    21266843.8004   21266849.9784
       203.0004        203.0004
  -5192186.68047  -3992139.58045  23944722.599    23944722.3134   23944724.8074
       137.0004        142.0004
 -18043241.02649 -14043705.72748  21499093.771    21499093.8504   21499101.1274
       224.0004        224.0004
   -461062.15746    -30653.43145  24647943.620    24647943.3684   24647952.5934
       134.0004        139.0004
 21  2  6  0  4  0.0000000  0  9G03G21G08G04G07G09G16G27G22
  -1887049.49848  -1443699.77546  23982161.152    23982161.6834   23982172.1394
       178.0004        177.0004
  -9130192.72347  -6949206.73945  22940952.644    22940952.7964   22940958.6314
       146.0004        150.0004
 -24131726.48949 -18789609.30848  20143962.334    20143962.5604   20143970.6314
       212.0004        213.0004
 -22608509.53149 -17595174.16447  20277121.891    20277122.5404   20277128.5824
       213.0004        212.0004
  -3444547.69447  -2666291.92345  24111740.793    24111741.8264   24111746.8074
       154.0004        157.0004
 -17219876.44749 -13399087.44447  21256960.497    21256960.6744   21256967.9384
       202.0004        202.0004
  -5110135.63447  -3928203.69245  23960335.144    23960336.1914   23960339.2424
       139.0004        144.0004
 -17975300.54649 -13990765.09148  21512021.100    21512022.2674   21512029.7644
       224.0004        223.0004
   -413033.13347      6771.68945  24657084.214    24657084.3184   24657092.3734
       137.0004        144.0004
 21  2  6  0  4 30.0000000  0  9G03G21G08G04G07G09G16G27G22
  -1826337.23948  -1396391.58246  23993714.814    23993716.0724   23993723.8134
       176.0004        176.0004
  -9181832.98047  -6989445.83245  22931128.099    22931126.8454   22931131.9524
       148.0004        151.0004
 -24132506.39349 -18790217.00848  20143814.123    20143814.3274   20143822.1334
       212.0004        213.0004
 -22589543.90349 -17580395.73947  20280731.155    20280731.6914   20280737.6394
       213.0004        212.0004
  -3510028.67247  -2717316.03745  24099281.310    24099281.0984   24099286.7424
       154.0004        156.0004
 -17271319.27149 -13439172.74047  21247169.905    21247170.3914   21247178.5254
       201.0004        200.0004
  -5028207.30347  -3864363.42745  23975927.292    23975926.6814   23975928.5454
       139.0004        143.0004
 -17906878.98949 -13937449.58848  21525042.661    21525042.7534   21525049.9514
       223.0004        222.0004
   -365239.40147     44013.49045  24666180.160    24666179.3284   24666187.4124
       141.0004        147.0004
 21  2  6  0  5  0.0000000  0  9G03G21G08G04G07G09G16G27G22
  -1765764.22748  -1349191.87046  24005241.565    24005242.6324   24005250.7284
       175.0004        176.0004
  -9233432.38047  -7029653.07845  22921308.278    22921307.0834   22921311.9924
       148.0004        151.0004
 -24132676.43449 -18790349.49748  20143781.626    20143781.8124   20143789.4534
       212.0004        213.0004
 -22570009.36449 -17565174.01747  20284448.437    20284448.8854   20284454.7794
       213.0004        212.0004
  -3575663.41647  -2768459.96845  24086789.337    24086790.8274   24086796.6604
       155.0004        157.0004
 -17322271.83649 -13478876.02147  21237473.269    21237474.3914   21237482.6564
       200.0004        200.0004
  -4946404.15847  -3800620.66045  23991492.839    23991493.5054   23991496.4604
       140.0004        145.0004
 -17837980.03049 -13883762.08748  21538153.767    21538154.0154   21538161.0394
       223.0004        223.0004
   -317683.72947     81069.83045  24675229.243    24675229.7244   24675237.2744
       139.0004        143.0004
 21  2  6  0  5 30.0000000  0  9G03G21G08G04G07G09G16G27G22
  -1705331.76548  -1302101.70446  24016741.560    24016741.9584   24016752.4904
       175.0004        176.0004
  -9284987.30247  -7069825.66845  22911497.672    22911496.0584   22911502.9574
       148.0004        151.0004
 -24132235.05749 -18790005.56147  20143865.815    20143866.2084   20143873.4794
       212.0004        212.0004
 -22549905.46049 -17549508.63347  20288274.359    20288274.9264   20288280.6524
       213.0004        212.0004
  -3641450.07147  -2819722.28145  24074272.882    24074273.2124   24074277.1654
       155.0004        158.0004
 -17372731.40349 -13518195.16047  21227872.448    21227872.8124   21227880.5494
       201.0004        202.0004
  -4864726.19447  -3736975.47645  24007035.808    24007035.6264   24007039.2844
       140.0004        144.0004
 -17768605.29049 -13829703.84348  21551355.867    21551356.0494   21551362.8144
       223.0004        224.0004
   -270366.21847    117940.57745  24684235.858    24684233.1864   24684239.8784
       138.0004        142.0004
 21  2  6  0  6  0.0000000  0  9G03G21G08G04G07G09G16G27G22
  -1645042.78148  -1255123.36346  24028215.093    24028215.1124   24028224.5604
       177.0004        179.0004
  -9336495.70747  -7109962.02945  22901693.869    22901694.7184   22901699.7534
       150.0004        154.0004
 -24131183.63249 -18789186.25248  20144066.223    20144066.2964   20144073.3484
       212.0004        213.0004
 -22529233.54449 -17533400.63947  20292207.638    20292208.4294   20292214.3034
       213.0004        212.0004
  -3707389.15447  -2871103.36345  24061725.275    24061726.1304   24061730.3814
       156.0004        158.0004
 -17422696.87049 -13557129.27647  21218364.818    21218365.1324   21218372.5764
       202.0004        204.0004
  -4783175.57947  -3673429.52345  24022552.815    24022553.0294   24022558.7754
       139.0004        144.0004
 -17698758.06049 -13775277.41648  21564647.146    21564647.0184   21564654.0134
       223.0004        222.0004
   -223288.76047    154624.27245  24693193.388    24693192.2974   24693199.3004
       139.0004        144.0004
 21  2  6  0  6 30.0000000  0  9G03G21G08G04G07G09G16G27G22
  -1584898.13948  -1208257.44246  24039659.595    24039660.0484   24039668.6774
       176.0004        177.0004
  -9387953.97747  -7150059.30545  22891901.875    22891902.2064   22891908.7994
       151.0004        155.0004
 -24129520.88849 -18787890.60047  20144382.298    20144382.7394   20144389.9814
       212.0004        212.0004
 -22507992.99049 -17516849.55447  20296250.390    20296250.5844   20296255.9734
       213.0004        212.0004
  -3773478.69247  -2922601.65845  24049147.733    24049147.7774   24049153.6884
       155.0004        156.0004
 -17472165.29649 -13595676.08647  21208951.431    21208952.1444   21208958.8164
       203.0004        205.0004
  -4701752.38947  -3609982.86945  24038047.944    24038047.2844   24038052.4744
       138.0004        143.0004
 -17628439.67749 -13720483.86248  21578026.899    21578027.7364   21578035.2574
       222.0004        222.0004
   -176451.42547    191120.87345  24702105.699    24702104.7444   24702112.9574
       141.0004        146.0004
 21  2  6  0  7  0.0000000  0  9G03G21G08G04G07G09G16G27G22
  -1524900.26548  -1161505.93446  24051076.827    24051077.6464   24051086.2024
       176.0004        177.0004
  -9439359.24947  -7190115.26945  22882121.193    22882120.9394   22882126.2224
       151.0004        154.0004
 -24127247.36949 -18786119.01347  20144814.937    20144815.0434   20144822.5244
       212.0004        212.0004
 -22486184.34249 -17499855.79947  20300399.557    20300400.6934   20300406.2634
       213.0004        211.0004
  -3839717.75147  -2974216.47545  24036544.592    24036544.2024   24036548.4034
       155.0004        158.0004
 -17521134.79649 -13633834.13547  21199633.733    21199634.2324   21199640.4414
       205.0004        207.0004
  -4620457.65247  -3546636.29945  24053519.865    24053519.9674   24053523.4484
       138.0004        144.0004
 -17557652.57849 -13665325.06148  21591497.984    21591498.3874   21591505.9374
       222.0004        222.0004
   -129855.75647    227429.17045  24710970.328    24710969.3084   24710977.7154
       139.0004        141.0004
 21  2  6  0  7 30.0000000  0  9G03G21G08G04G07G09G16G27G22
  -1465052.70248  -1114871.51646  24062464.828    24062466.0884   24062475.9264
       177.0004        179.0004
  -9490710.48447  -7230129.15545  22872349.771    22872348.5954   22872354.0784
       151.0004        153.0004
 -24124364.72449 -18783872.78347  20145363.248    20145363.5884   20145371.0094
       212.0004        212.0004
 -22463809.93549 -17482421.19047  20304657.690    20304658.0654   20304663.8944
       213.0004        211.0004
  -3906107.55147  -3025948.78245  24023910.451    24023909.8474   24023915.4974
       154.0004        157.0004
 -17569605.29949 -13671603.36447  21190411.111    21190411.2144   21190416.7524
       207.0004        208.0004
  -4539294.10747  -3483391.97645  24068961.442    24068961.9844   24068966.9494
       136.0004        141.0004
 -17486401.11049 -13609804.42248  21605057.637    21605057.3404   21605064.4994
       222.0004        222.0004
    -83504.56747    263546.94145  24719791.945    24719790.3894   24719799.6194
       135.0004        139.0004
 21  2  6  0  8  0.0000000  0  9G03G21G08G04G07G09G16G27G22
  -1405356.35848  -1068354.93046  24073825.296    24073825.7484   24073835.6494
       179.0004        180.0004
  -9542003.75447  -7270097.84945  22862586.441    22862586.8434   22862593.8324
       151.0004        155.0004
 -24120871.48349 -18781150.76848  20146028.170    20146028.4714   20146035.8624
       212.0004        213.0004
 -22440868.89449 -17464545.05047  20309023.299    20309023.7984   20309029.3524
       213.0004        211.0004
  -3972645.99147  -3077796.87645  24011245.967    24011247.6884   24011252.6914
       153.0004        155.0004
 -17617573.53349 -13708981.20047  21181282.298    21181282.6034   21181288.5494
       207.0004        207.0004
  -4458261.39447  -3420249.59445  24084381.434    24084381.0694   24084386.7634
       135.0004        140.0004
 -17414686.37149 -13553922.79048  21618703.554    21618703.5524   21618711.3684
       222.0004        221.0004
    -37397.42047    299474.52945  24728568.500    24728567.5384   24728573.8174
       137.0004        142.0004
 21  2  6  0  8 30.0000000  0  9G03G21G08G04G07G09G16G27G22
  -1345812.94948  -1021957.56246  24085156.233    24085157.2124   24085167.2744
       181.0004        182.0004
  -9593236.30247  -7310019.26245  22852837.931    22852837.5344   22852844.5404
       153.0004        156.0004
 -24116768.11549 -18777953.33448  20146808.832    20146809.2974   20146816.7944
       212.0004        213.0004
 -22417361.61749 -17446227.69347  20313496.423    20313497.1214   20313502.6634
       213.0004        211.0004
  -4039331.53547  -3129759.59545  23998557.928    23998558.7004   23998564.0224
       155.0004        158.0004
 -17665037.47649 -13745966.09547  21172249.577    21172249.9524   21172255.8134
       205.0004        204.0004
  -4377360.53147  -3357209.95645  24099777.300    24099776.8654   24099781.0384
       135.0004        141.0004
 -17342510.57849 -13497681.90748  21632438.205    21632438.4804   21632445.7944
       221.0004        221.0004
      8464.76947    335211.20345  24737294.309    24737293.4694   24737300.2764
       136.0004        141.0004
 21  2  6  0  9  0.0000000  0  9G03G21G08G04G07G09G16G27G22
  -1286425.57548   -975681.75146  24096455.637    24096457.2364   24096467.5344
       179.0004        179.0004
  -9644406.40947  -7349891.96845  22843101.260    22843101.1714   22843106.7064
       153.0004        156.0004
 -24112055.81249 -18774281.39048  20147705.639    20147706.0974   20147713.4754
       212.0004        213.0004
 -22393289.71749 -17427470.36147  20318076.980    20318077.5594   20318083.4184
       213.0004        212.0004
  -4106164.86747  -3181837.49145  23985840.891    23985840.6824   23985845.4204
       155.0004        157.0004
 -17711996.35849 -13782557.40947  21163311.358    21163312.3624   21163320.1984
       203.0004        202.0004
  -4296593.26647  -3294274.38945  24115147.747    24115148.2274   24115150.0974
       136.0004        141.0004
 -17269877.32249 -13441084.55148  21646260.580    21646260.4504   21646267.4224
       221.0004        221.0004
     54080.19347    370755.60845  24745974.999    24745972.3434   24745981.7504
       137.0004        142.0004
 21  2  6  0  9 30.0000000  0  9G03G21G08G04G07G09G16G27G22
  -1227196.03548   -929528.92946  24107729.037    24107729.1884   24107738.9444
       178.0004        179.0004
  -9695510.42047  -7389713.20245  22833377.566    22833375.9834   22833382.1364
       153.0004        156.0004
 -24106734.82449 -18770135.14848  20148718.312    20148718.6224   20148725.7674
       212.0004        213.0004
 -22368653.74649 -17408273.50047  20322765.274    20322765.8014   20322771.5654
       212.0004        211.0004
  -4173144.66047  -3234029.53245  23973093.209    23973094.4484   23973098.6434
       154.0004        156.0004
 -17758448.30249 -13818753.70447  21154472.184    21154472.4514   21154480.7234
       202.0004        202.0004
  -4215960.88547  -3231443.94045  24130492.297    24130491.9404   24130496.3154
       138.0004        143.0004
 -17196789.05049 -13384132.62848  21660167.269    21660168.1974   21660175.5364
       221.0004        221.0004
     99447.74047    406106.90745  24754607.357    24754606.2894   24754615.0394
       138.0004        144.0004
 21  2  6  0 10  0.0000000  0  9G03G21G08G04G07G09G16G27G22
  -1168127.19348   -883501.37046  24118968.969    24118969.8014   24118978.4294
       177.0004        177.0004
  -9746546.91547  -7429481.83645  22823663.990    22823664.0244   22823669.5694
       153.0004        155.0004
 -24100805.94549 -18765515.23748  20149846.343    20149846.4764   20149854.1774
       212.0004        213.0004
 -22343455.03049 -17388638.14447  20327560.135    20327560.5244   20327566.5964
       212.0004        210.0004
  -4240270.39947  -3286335.28945  23960320.929    23960320.9004   23960324.6584
       153.0004        156.0004
 -17804392.09549 -13854554.05947  21145729.303    21145729.5414   21145738.2344
       202.0004        202.0004
  -4135464.67647  -3168719.61345  24145809.313    24145809.7794   24145814.2284
       137.0004        142.0004
 -17123248.92649 -13326828.63048  21674161.507    21674162.1634   21674169.8854
       220.0004        219.0004
    144565.62247    441263.61645  24763193.313    24763193.1004   24763201.6894
       140.0004        144.0004
 21  2  6  0 10 30.0000000  0  9G03G21G08G04G07G09G16G27G22
  -1109219.77848   -837599.56046  24130178.510    24130179.5594   24130187.0384
       175.0004        175.0004
  -9797511.84247  -7469194.68145  22813966.600    22813965.9324   22813972.2834
       151.0004        155.0004
 -24094268.60449 -18760421.19448  20151090.395    20151090.6834   20151098.4244
       212.0004        213.0004
 -22317693.10449 -17368563.92347  20332462.808    20332463.1494   20332469.1464
       212.0004        210.0004
  -4307540.67947  -3338753.66245  23947520.472    23947520.0964   23947524.7074
       155.0004        159.0004
 -17849824.94849 -13889956.26047  21137083.021    21137083.9544   21137092.7394
       202.0004        203.0004
  -4055104.58847  -3106101.34145  24161100.789    24161101.5634   24161105.0714
       137.0004        143.0004
 -17049258.38149 -13269173.64148  21688241.636    21688242.0384   21688249.7974
       220.0004        220.0004
    189434.03247    476225.97245  24771730.503    24771729.6154   24771739.6704
       140.0004        144.0004
 21  2  6  0 11  0.0000000  0  8G03G21G08G04G07G09G16G27
  -1050474.66148   -791824.21946  24141357.355    24141358.1014   24141367.7604
       177.0004        178.0004
  -9848401.85047  -7508849.15845  22804283.600    22804282.4144   22804288.6464
       154.0004        157.0004
 -24087121.34749 -18754851.88348  20152450.106    20152450.6244   20152458.6364
       212.0004        213.0004
 -22291367.59449 -17348050.53847  20337472.154    20337472.6534   20337478.3784
       211.0004        210.0004
  -4374953.57147  -3391283.15945  23934691.812    23934692.0824   23934697.4644
       158.0004        162.0004
 -17894743.95849 -13924958.07347  21128537.385    21128537.4804   21128544.6524
       202.0004        204.0004
  -3974880.31747  -3043588.88845  24176366.743    24176366.4084   24176373.5144
       135.0004        141.0004
 -16974818.91349 -13211168.84948  21702407.848    21702407.5754   21702415.1494
       220.0004        220.0004
 21  2  6  0 11 30.0000000  0  8G03G21G08G04G07G09G16G27
   -991894.50348   -746177.42246  24152504.737    24152505.8504   24152515.3674
       179.0004        180.0004
  -9899214.46347  -7548443.32845  22794613.593    22794612.8894   22794618.1534
       155.0004        157.0004
 -24079365.81849 -18748808.59248  20153926.066    20153926.4764   20153934.3294
       212.0004        213.0004
 -22264479.89549 -17327099.08747  20342588.826    20342589.4004   20342594.8834
       211.0004        209.0004
  -4442508.56347  -3443923.35745  23921835.310    23921836.6214   23921842.2324
       159.0004        161.0004
 -17939148.12849 -13959558.70947  21120088.428    21120088.1504   21120094.4514
       204.0004        205.0004
  -3894793.88546  -2981183.87745  24191607.985    24191609.1564   24191609.8404
       133.0004        141.0004
 -16899933.75849 -13152816.76248  21716657.546    21716658.0724   21716665.4734
       220.0004        219.0004
 21  2  6  0 12  0.0000000  0  8G03G21G08G04G07G09G16G27
   -933483.87848   -700662.75446  24163620.701    24163621.1514   24163630.7544
       179.0004        180.0004
  -9949949.11847  -7587976.76745  22784956.610    22784956.8644   22784962.5854
       153.0004        154.0004
 -24071004.76749 -18742293.47548  20155517.518    20155517.8334   20155524.9284
       212.0004        213.0004
 -22237033.23749 -17305712.08247  20347811.612    20347812.1524   20347817.9174
       211.0004        210.0004
  -4510206.94547  -3496675.32745  23908954.643    23908953.9144   23908958.6074
       159.0004        160.0004
 -17983038.23149 -13993758.78047  21111735.556    21111736.2104   21111742.3454
       205.0004        205.0004
  -3814848.57547  -2918888.81745  24206821.493    24206819.8954   24206825.7354
       135.0004        142.0004
 -16824607.96849 -13094121.32448  21730990.913    21730991.5734   21730998.9954
       219.0004        218.0004
 21  2  6  0 12 30.0000000  0  8G03G21G08G04G07G09G16G27
   -875244.36548   -655281.34946  24174702.270    24174703.0674   24174712.0044
       178.0004        178.0004
 -10000602.91647  -7627447.19645  22775319.384    22775318.7774   22775323.5224
       153.0004        157.0004
 -24062038.55649 -18735306.80048  20157223.278    20157223.9244   20157231.2034
       212.0004        213.0004
 -22209028.32249 -17283890.07147  20353141.204    20353141.5634   20353147.0184
       211.0004        210.0004
  -4578047.64647  -3549538.19045  23896044.349    23896044.4634   23896047.8854
       159.0004        160.0004
 -18026412.43749 -14027556.84947  21103481.471    21103482.1924   21103488.4934
       206.0004        207.0004
  -3735044.93747  -2856704.21945  24222006.733    24222007.3424   24222008.3184
       137.0004        144.0004
 -16748844.01049 -13035084.47148  21745408.875    21745409.2514   21745416.5614
       219.0004        219.0004
 21  2  6  0 13  0.0000000  0  8G03G21G08G04G07G09G16G27
   -817177.34748   -610034.43346  24185753.141    24185753.6534   24185763.5374
       178.0004        180.0004
 -10051172.49447  -7666851.99645  22765696.354    22765696.2454   22765701.3904
       155.0004        159.0004
 -24052467.02449 -18727848.44348  20159045.059    20159045.3604   20159052.5684
       212.0004        213.0004
 -22180465.12649 -17261633.03947  20358576.712    20358576.9224   20358582.5994
       211.0004        210.0004
  -4646029.70247  -3602511.20946  23883106.538    23883107.5734   23883111.6854
       160.0004        163.0004
 -18069268.32049 -14060951.03547  21095326.834    21095327.1434   21095333.6914
       207.0004        207.0004
  -3655382.97747  -2794629.94845  24237165.740    24237167.0034   24237170.6634
       138.0004        144.0004
 -16672643.75149 -12975707.62948  21759909.376    21759909.7374   21759916.9044
       219.0004        219.0004
 21  2  6  0 13 30.0000000  0  8G03G21G08G04G07G09G16G27
   -759284.83948   -564923.49246  24196768.822    24196769.8654   24196780.5854
       178.0004        180.0004
 -10101655.16947  -7706189.06845  22756088.919    22756088.4884   22756095.1014
       155.0004        158.0004
 -24042290.50449 -18719918.66848  20160981.626    20160981.8974   20160989.0914
       212.0004        213.0004
 -22151344.67249 -17238941.78447  20364117.894    20364118.5104   20364124.0444
       211.0004        210.0004
  -4714151.95547  -3655593.45546  23870145.061    23870145.0044   23870149.0614
       161.0004        163.0004
 -18111604.36449 -14093940.14947  21087269.962    21087270.4964   21087277.8034
       207.0004        208.0004
  -3575864.00747  -2732667.09645  24252298.498    24252298.3804   24252302.3644
       140.0004        145.0004
 -16596009.88449 -12915992.91548  21774492.197    21774492.6374   21774500.0064
       219.0004        218.0004
 21  2  6  0 14  0.0000000  0  8G03G21G08G04G07G09G16G27
   -701568.85748   -519950.10346  24207751.105    24207752.5724   24207762.4714
       177.0004        178.0004
 -10152048.24447  -7745456.33945  22746500.330    22746499.1214   22746505.7654
       157.0004        160.0004
 -24031509.74849 -18711518.04747  20163032.714    20163033.2284   20163040.4114
       212.0004        212.0004
 -22121667.97049 -17215817.07447  20369765.542    20369765.8364   20369771.4204
       211.0004        210.0004
  -4782413.52547  -3708784.23645  23857154.178    23857154.4074   23857159.2474
       161.0004        162.0004
 -18153419.14949 -14126523.07247  21079312.904    21079313.0944   21079320.3664
       207.0004        208.0004
  -3496489.17147  -2670816.55945  24267400.094    24267402.1194   24267405.9434
       137.0004        142.0004
 -16518945.25749 -12855942.54248  21789157.499    21789157.4554   21789164.7244
       219.0004        219.0004
 21  2  6  0 14 30.0000000  0  8G03G21G08G04G07G09G16G27
   -644030.86548   -475115.30446  24218703.312    24218703.5554   24218711.8114
       181.0004        183.0004
 -10202348.78847  -7784651.52645  22736928.088    22736927.3364   22736933.0624
       156.0004        157.0004
 -24020125.29949 -18702647.02847  20165198.855    20165199.2264   20165207.1124
       212.0004        212.0004
 -22091435.57249 -17192259.36847  20375517.740    20375518.3344   20375524.6494
       211.0004        210.0004
  -4850812.76347  -3762082.34146  23844138.783    23844139.0454   23844143.1614
       161.0004        163.0004
 -18194710.68749 -14158698.29047  21071455.704    21071456.0294   21071462.8264
       207.0004        207.0004
  -3417258.90447  -2609078.67145  24282479.888    24282479.2324   24282481.9714
       137.0004        144.0004
 -16441452.20549 -12795558.33748  21803903.788    21803904.0344   21803910.7974
       218.0004        217.0004
 21  2  6  0 15  0.0000000  0  8G03G21G08G04G07G09G16G27
   -586674.10848   -430421.86146  24229616.558    24229617.4704   24229627.0984
       181.0004        181.0004
 -10252555.10247  -7823773.25645  22727372.801    22727372.9304   22727377.8564
       156.0004        158.0004
 -24008138.24849 -18693306.44947  20167480.101    20167480.3834   20167488.3384
       212.0004        212.0004
 -22060649.48049 -17168270.21147  20381376.504    20381377.1164   20381382.9844
       210.0004        209.0004
  -4919350.03247  -3815487.97446  23831095.361    23831095.8684   23831100.4374
       162.0004        164.0004
 -18235478.60649 -14190465.49147  21063697.974    21063698.4404   21063704.5234
       207.0004        208.0004
  -3338175.13046  -2547454.93345  24297528.839    24297527.6814   24297532.7334
       134.0004        140.0004
 -16363534.45149 -12734843.18948  21818731.181    21818731.2114   21818738.1764
       217.0004        217.0004
 21  2  6  0 15 30.0000000  0  9G03G21G08G04G01G07G09G16G27
   -529499.20948   -385870.19546  24240495.116    24240496.0204   24240506.5274
       177.0004        176.0004
 -10302662.98147  -7862818.29345  22717837.985    22717838.3094   22717843.5494
       155.0004        157.0004
 -23995548.57349 -18683496.30547  20169876.194    20169876.6174   20169883.8154
       212.0004        212.0004
 -22029309.41049 -17143849.38547  20387340.698    20387341.1694   20387346.6434
       210.0004        209.0004
   -617728.80454   -458704.25744  24072999.727
        74.0004         95.0004
  -4988022.92347  -3868999.27446  23818026.790    23818028.1114   23818033.1514
       162.0004        164.0004
 -18275720.08349 -14221822.48547  21056039.999    21056040.3874   21056046.8064
       208.0004        208.0004
  -3259237.45747  -2485945.05145  24312550.817    24312550.0274   24312553.0844
       135.0004        140.0004
 -16285193.47149 -12673798.26148  21833639.816    21833639.3274   21833646.4974
       218.0004        218.0004
 21  2  6  0 16  0.0000000  0  9G03G21G08G04G01G07G09G16G27
   -472507.60248   -341461.15746  24251340.013    24251341.5014   24251351.1144
       173.0004        172.0004
 -10352669.70547  -7901784.51645  22708322.091    22708321.7164   22708327.7754
       156.0004        158.0004
 -23982356.71849 -18673216.91047  20172386.913    20172386.9524   20172394.0354
       212.0004        212.0004
 -21997416.33149 -17118997.63547  20393409.953    20393410.3584   20393415.5944
       210.0004        209.0004
   -686967.24946   -512655.95645  24059823.174                    24059834.2774
       126.0004        147.0004
  -5056830.36147  -3922615.41646  23804934.986    23804935.5094   23804938.9284
       163.0004        165.0004
 -18315433.53549 -14252768.01847  21048483.355    21048483.7264   21048490.1194
       208.0004        209.0004
  -3180446.43247  -2424549.46745  24327542.989    24327545.9014   24327546.1844
       137.0004        141.0004
 -16206431.88249 -12612425.57348  21848626.309    21848627.0674   21848634.1814
       218.0004        218.0004
 21  2  6  0 16 30.0000000  0  9G03G21G08G04G01G07G09G16G27
   -415702.82148   -297197.71346  24262152.282    24262152.3974   24262162.0534
       174.0004        175.0004
 -10402573.78547  -7940670.74645  22698825.270    22698825.5084   22698832.7154
       156.0004        158.0004
 -23968564.25249 -18662469.50547  20175010.689    20175011.1764   20175018.4684
       211.0004        212.0004
 -21964972.36249 -17093716.61747  20399583.254    20399583.7664   20399589.7204
       210.0004        209.0004
   -756405.80547   -566763.90845  24046611.957    24046611.0364   24046619.4814
       141.0004        148.0004
  -5125773.09747  -3976337.00646  23791815.237    23791816.0974   23791818.3904
       163.0004        163.0004
 -18354618.65249 -14283301.85847  21041027.156    21041026.9854   21041033.4394
       209.0004        210.0004
  -3101804.02546  -2363269.66945  24342506.902    24342508.5544   24342510.6614
       133.0004        138.0004
 -16127253.50749 -12550728.12848  21863693.878    21863694.2154   21863701.0554
       218.0004        217.0004
 21  2  6  0 17  0.0000000  0  9G03G21G08G04G01G07G09G16G27
   -359085.96648   -253080.82946  24272925.926    24272926.6434   24272935.8934
       175.0004        176.0004
 -10452371.18647  -7979473.87045  22689350.341    22689348.4124   22689354.4914
       156.0004        158.0004
 -23954171.35249 -18651254.24747  20177749.954    20177750.2474   20177757.3964
       212.0004        212.0004
 -21931977.82949 -17068006.59547  20405861.544    20405862.9054   20405868.1914
       209.0004        208.0004
   -826041.64447   -621025.53745  24033357.698    24033359.1444   24033367.5514
       142.0004        146.0004
  -5194848.95847  -4030162.30945  23778669.389    23778670.1334   23778673.1404
       161.0004        162.0004
 -18393273.21149 -14313422.28847  21033670.629    21033670.8514   21033677.4364
       209.0004        208.0004
  -3023310.67246  -2302105.95045  24357445.295    24357443.6044   24357449.4594
       131.0004        138.0004
 -16047660.40249 -12488707.51648  21878839.695    21878840.4144   21878846.9954
       218.0004        217.0004
 21  2  6  0 17 30.0000000  0  9G03G21G08G04G01G07G09G16G27
   -302659.40448   -209112.14746  24283663.920    24283663.8834   24283672.3214
       174.0004        174.0004
 -10502060.03947  -8018192.40445  22679895.235    22679893.8224   22679898.4214
       156.0004        159.0004
 -23939179.72849 -18639572.45147  20180602.919    20180602.9824   20180610.1914
       212.0004        212.0004
 -21898434.66149 -17041869.07047  20412245.417    20412245.6014   20412252.0404
       210.0004        209.0004
   -895873.47247   -675439.78645  24020070.648    24020070.9614   24020080.8474
       144.0004        149.0004
  -5264057.79047  -4084091.24646  23765500.813    23765501.8464   23765504.7124
       161.0004        164.0004
 -18431396.63749 -14343128.85947  21026415.401    21026415.9814   21026422.5064
       208.0004        208.0004
  -2944968.01246  -2241059.70645  24372352.559    24372354.0514   24372359.1084
       131.0004        138.0004
 -15967656.18549 -12426366.54748  21894064.155    21894064.5014   21894071.3444
       218.0004        218.0004
 21  2  6  0 18  0.0000000  0  9G03G21G08G04G01G07G09G16G27
   -246424.89448   -165293.15746  24294361.859    24294364.0604   24294374.0454
       171.0004        172.0004
 -10551637.74047  -8056824.31145  22670459.832    22670460.1764   22670464.8934
       157.0004        159.0004
 -23923589.67649 -18627424.34247  20183569.172    20183569.3174   20183577.0964
       212.0004        212.0004
 -21864343.60749 -17015304.61447  20418732.567    20418733.2154   20418738.2164
       209.0004        208.0004
   -965898.72447   -730004.79045  24006747.399    24006747.2354   24006754.5764
       145.0004        149.0004
  -5333397.67547  -4138122.29846  23752305.860    23752306.1764   23752309.8834
       163.0004        166.0004
 -18468987.20349 -14372420.20347  21019262.704    21019262.9534   21019269.5024
       208.0004        208.0004
  -2866776.35946  -2180131.15845  24387233.987    24387231.3144   24387235.4744
       129.0004        136.0004
 -15887243.19549 -12363707.06448  21909366.775    21909366.6524   21909372.8934
       217.0004        216.0004
 21  2  6  0 18 30.0000000  0  9G03G21G08G04G01G07G09G16G27
   -190384.33148   -121625.31846  24305028.625    24305029.0924   24305039.1754
       172.0004        173.0004
 -10601101.22747  -8095367.23045  22661047.386    22661045.9394   22661053.2154
       156.0004        156.0004
 -23907402.25049 -18614810.75047  20186649.470    20186649.5634   20186657.0554
       212.0004        212.0004
 -21829705.83349 -16988314.14447  20425323.717    20425324.4244   20425329.8494
       209.0004        208.0004
  -1036115.20747   -784718.78045  23993382.969    23993383.7194   23993393.2114
       145.0004        148.0004
  -5402868.18347  -4192255.13546  23739084.509    23739085.4674   23739090.5724
       164.0004        165.0004
 -18506043.53649 -14401295.26647  21012210.492    21012211.0184   21012217.6894
       208.0004        208.0004
  -2788736.74346  -2119321.01845  24402084.307    24402083.2544   24402087.9064
       126.0004        134.0004
 -15806424.25349 -12300731.24148  21924745.779    21924746.2394   21924752.5544
       217.0004        216.0004
 21  2  6  0 19  0.0000000  0  9G03G21G08G04G01G07G09G16G27
   -134539.87548    -78110.24546  24315655.197    24315656.0044   24315665.8664
       174.0004        175.0004
 -10650448.05847  -8133819.25845  22651656.916    22651657.0214   22651662.4284
       155.0004        156.0004
 -23890618.14849 -18601732.21747  20189843.754    20189843.8154   20189851.2754
       211.0004        212.0004
 -21794522.82749 -16960898.81947  20432018.796    20432019.1024   20432025.1694
       209.0004        208.0004
  -1106521.13147   -839580.42045  23979986.288    23979985.7704   23979996.1014
       143.0004        147.0004
  -5472468.55347  -4246489.16245  23725839.789    23725840.6564   23725845.2534
       162.0004        161.0004
 -18542564.68049 -14429753.28547  21005260.981    21005261.4384   21005268.2884
       208.0004        210.0004
  -2710850.16546  -2058630.19445  24416904.216    24416904.5654   24416907.5574
       127.0004        135.0004
 -15725202.51449 -12237441.56448  21940202.075    21940202.0884   21940208.8704
       216.0004        216.0004
 21  2  6  0 19 30.0000000  0  9G03G21G08G04G01G07G09G16G27
    -78892.42048    -34748.67746  24326243.964    24326244.8864   24326254.8024
       171.0004        172.0004
 -10699674.71747  -8172177.62545  22642287.387    22642286.5164   22642293.6424
       153.0004        157.0004
 -23873237.77749 -18588189.06147  20193150.774    20193151.1464   20193158.7074
       212.0004        212.0004
 -21758794.85849 -16933058.84547  20438817.233    20438817.7744   20438823.9824
       209.0004        207.0004
  -1177113.42047   -894587.29645  23966552.454    23966552.4294   23966561.7354
       144.0004        148.0004
  -5542196.92447  -4300822.93845  23712571.199    23712572.4854   23712576.8154
       160.0004        162.0004
 -18578548.31249 -14457792.47247  20998413.998    20998414.3774   20998420.9864
       210.0004        211.0004
  -2633116.48546  -1998058.52645  24431696.597    24431696.4984   24431702.2494
       131.0004        138.0004
 -15643579.82649 -12173839.45948  21955734.472    21955734.3794   21955740.9734
       216.0004        216.0004
 21  2  6  0 20  0.0000000  0  9G03G21G08G04G01G07G09G16G27
    -23444.66548      8457.27446  24336796.042    24336797.1924   24336806.6134
       172.0004        173.0004
 -10748779.08047  -8210440.69845  22632945.270    22632944.4714   22632950.9544
       156.0004        159.0004
 -23855263.26049 -18574182.92447  20196571.012    20196571.2804   20196578.8624
       211.0004        212.0004
 -21722523.97449 -16904795.81447  20445720.133    20445720.3754   20445725.9554
       208.0004        207.0004
  -1247890.59547   -949738.19845  23953083.927    23953085.0584   23953093.0884
       144.0004        149.0004
  -5612053.19047  -4355256.35546  23699278.972    23699279.6124   23699284.4144
       163.0004        166.0004
 -18613993.95849 -14485412.44047  20991668.734    20991668.9354   20991675.8284
       210.0004        210.0004
  -2555536.95946  -1937606.94745  24446459.408    24446459.4184   24446463.5584
       128.0004        134.0004
 -15561559.79549 -12109927.73048  21971342.009    21971342.0444   21971348.4284
       216.0004        215.0004
 21  2  6  0 20 30.0000000  0  9G03G21G08G04G01G07G09G16G27
     31801.60948     51506.18746  24347309.065    24347310.3204   24347320.0704
       172.0004        173.0004
 -10797758.72847  -8248606.61545  22623626.107    22623625.0854   22623629.7514
       157.0004        159.0004
 -23836695.07249 -18559714.19647  20200104.670    20200104.8754   20200112.4604
       211.0004        212.0004
 -21685711.48349 -16876110.77147  20452724.770    20452725.8214   20452731.1114
       209.0004        207.0004
  -1318850.52447  -1005031.48845  23939580.290    23939581.1054   23939589.3754
       145.0004        147.0004
  -5682035.87848  -4409788.29546  23685962.010    23685962.4914   23685966.7984
       166.0004        168.0004
 -18648900.42149 -14512612.28047  20985026.206    20985026.8184   20985033.4604
       209.0004        210.0004
  -2478112.82446  -1877276.46345  24461193.175    24461194.7884   24461199.7634
       128.0004        135.0004
 -15479145.35049 -12045708.66948  21987023.271    21987024.4324   21987031.6534
       215.0004        215.0004
 21  2  6  0 21  0.0000000  0  9G03G21G08G04G01G07G09G16G27
     86844.22048     94396.39446  24357781.973    24357783.8024   24357793.9314
       171.0004        172.0004
 -10846610.49447  -8286672.85845  22614327.147    22614326.8714   22614333.0984
       156.0004        157.0004
 -23817534.42949 -18544783.80747  20203751.011    20203751.0484   20203758.4304
       211.0004        212.0004
 -21648358.83749 -16847004.80547  20459832.710    20459833.5304   20459838.8734
       209.0004        207.0004
  -1389991.22447  -1060465.67445  23926043.735    23926043.1414   23926052.0844
       145.0004        149.0004
  -5752143.96347  -4464417.96646  23672621.710    23672621.6254   23672624.7674
       164.0004        165.0004
 -18683266.70749 -14539391.19047  20978486.411    20978486.8894   20978493.7674
       210.0004        211.0004
  -2400845.01246  -1817067.74745  24475894.488    24475894.6054   24475898.8664
       126.0004        135.0004
 -15396339.50449 -11981184.62348  22002782.426    22002782.4414   22002789.1794
       214.0004        214.0004
 21  2  6  0 21 30.0000000  0  9G03G21G08G04G01G07G09G16G27
    141682.15848    137127.16946  24368218.928    24368219.6104   24368227.6414
       171.0004        172.0004
 -10895331.35647  -8324637.09445  22605054.103    22605054.9204   22605061.0854
       154.0004        155.0004
 -23797781.90949 -18529392.21747  20207509.842    20207510.0844   20207517.2424
       211.0004        212.0004
 -21610466.76549 -16817478.51447  20467043.565    20467044.1484   20467049.9474
       209.0004        207.0004
  -1461309.84547  -1116038.45345  23912470.581    23912471.0314   23912481.9154
       145.0004        149.0004
  -5822375.74847  -4519143.99545  23659254.268    23659254.0894   23659259.3834
       160.0004        162.0004
 -18717090.98849 -14565747.75947  20972049.759    20972050.0704   20972057.1644
       210.0004        211.0004
  -2323733.57346  -1756980.92644  24490567.419    24490567.6904   24490576.4324
       122.0004        129.0004
 -15313144.55349 -11916357.37748  22018613.967    22018614.0484   22018620.8814
       215.0004        214.0004
 21  2  6  0 22  0.0000000  0  9G03G21G08G04G01G07G09G16G27
    196314.25148    179697.52646  24378615.223    24378615.7334   24378625.4994
       171.0004        172.0004
 -10943917.69247  -8362496.51445  22595811.689    22595809.8854   22595815.8184
       153.0004        156.0004
 -23777437.64349 -18513539.53547  20211380.741    20211381.2514   20211388.7024
       211.0004        211.0004
 -21572035.72149 -16787532.24447  20474356.466    20474357.0464   20474363.3254
       208.0004        207.0004
  -1532803.15347  -1171747.35745  23898865.613    23898866.2294   23898876.1014
       143.0004        147.0004
  -5892729.97947  -4573965.47546  23645867.516    23645867.3164   23645872.2044
       161.0004        163.0004
 -18750371.20049 -14591680.38247  20965716.863    20965717.4854   20965724.3364
       210.0004        210.0004
  -2246778.29646  -1697015.79845  24505214.204    24505213.4484   24505217.4124
       125.0004        133.0004
 -15229562.45649 -11851228.47248  22034518.433    22034518.9484   22034526.0134
       214.0004        214.0004
 21  2  6  0 22 30.0000000  0  9G03G21G08G04G01G07G09G16G27
    250736.68448    222104.45746  24388969.077    24388970.9874   24388983.7704
       173.0004        174.0004
 -10992368.95247  -8400250.69845  22586591.658    22586590.7774   22586595.2254
       154.0004        158.0004
 -23756504.60349 -18497228.05247  20215364.826    20215364.6574   20215372.0454
       211.0004        211.0004
 -21533069.23649 -16757168.75147  20481771.952    20481772.3604   20481778.1734
       208.0004        207.0004
  -1604471.20247  -1227592.45945  23885228.852    23885227.6014   23885236.9834
       141.0004        146.0004
  -5963207.38947  -4628882.89946  23632457.904    23632456.7644   23632461.4674
       163.0004        164.0004
 -18783108.33949 -14617189.82847  20959486.908    20959487.3284   20959494.4304
       210.0004        210.0004
  -2169982.27246  -1637174.71045  24519830.244    24519829.9384   24519829.4224
       125.0004        134.0004
 -15145598.23849 -11785801.79948  22050497.000    22050496.6914   22050503.7654
       213.0004        213.0004
 21  2  6  0 23  0.0000000  0  9G03G21G08G04G01G07G09G16G27
    304948.16848    264347.04546  24399287.497    24399287.9834   24399299.5874
       175.0004        176.0004
 -11040681.82347  -8437897.02445  22577397.549    22577397.2094   22577402.0054
       156.0004        158.0004
 -23734983.41749 -18480458.28047  20219459.525    20219459.7324   20219467.2904
       210.0004        211.0004
 -21493568.23949 -16726388.75847  20489288.416    20489289.1154   20489295.4394
       208.0004        207.0004
  -1676311.24847  -1283571.55145  23871557.138    23871558.2424   23871566.9874
       141.0004        146.0004
  -6033806.26747  -4683894.96146  23619022.127    23619022.4124   23619026.9004
       162.0004        164.0004
 -18815300.83149 -14642274.87447  20953360.961    20953361.7874   20953368.1734
       210.0004        210.0004
  -2093345.63846  -1577457.83545  24534409.876    24534411.3594   24534418.0034
       127.0004        134.0004
 -15061254.39449 -11720079.32047  22066547.400    22066547.1534   22066553.7374
       213.0004        212.0004
 21  2  6  0 23 30.0000000  0  9G03G21G08G04G01G07G09G16G27
    358947.09848    306423.98646  24409562.988    24409564.5954   24409574.0734
       171.0004        170.0004
 -11088853.37447  -8475433.22545  22568229.063    22568229.4184   22568235.7304
       156.0004        159.0004
 -23712875.31249 -18463231.17947  20223666.455    20223666.7354   20223674.5614
       210.0004        211.0004
 -21453533.92649 -16695193.19447  20496906.702    20496907.2944   20496913.3754
       208.0004        206.0004
  -1748320.77347  -1339682.74445  23857853.746    23857854.4104   23857863.4044
       142.0004        146.0004
  -6104525.51347  -4739000.85646  23605564.612    23605564.9164   23605569.2904
       163.0004        165.0004
 -18846947.35649 -14666934.50047  20947339.257    20947339.6244   20947346.1064
       210.0004        211.0004
  -2016868.86846  -1517865.56245  24548965.977    24548963.7194   24548968.0124
       128.0004        136.0004
 -14976533.50649 -11654063.03947  22082668.480    22082668.6554   22082675.3214
       212.0004        212.0004
 21  2  6  0 24  0.0000000  0  9G03G21G08G04G01G07G09G16G27
    412731.68348    348333.89746  24419799.116    24419799.2224   24419809.1064
       169.0004        170.0004
 -11136880.95647  -8512857.26345  22559092.278    22559091.3774   22559095.5554
       157.0004        159.0004
 -23690181.34749 -18445547.54947  20227984.760    20227985.2884   20227992.8424
       210.0004        210.0004
 -21412967.67049 -16663583.12847  20504626.869    20504627.2034   20504632.8024
       208.0004        207.0004
  -1820497.51447  -1395924.23045  23844118.848    23844119.4884   23844128.8794
       139.0004        143.0004
  -6175363.58147  -4794199.32646  23592084.330    23592084.7154   23592088.6054
       162.0004        164.0004
 -18878046.75949 -14691167.79447  20941421.037    20941421.4774   20941428.4944
       210.0004        211.0004
  -1940552.74146  -1458398.48245  24563485.188    24563484.1874   24563489.9064
       127.0004        135.0004
 -14891438.50549 -11587755.24547  22098861.553    22098861.5584   22098868.4214
       211.0004        211.0004
 21  2  6  0 24 30.0000000  0  9G03G21G08G04G01G07G09G16G27
    466301.30848    390076.37946  24429993.181    24429993.1084   24430002.1484
       169.0004        171.0004
 -11184760.68747  -8550166.09645  22549981.377    22549980.4384   22549984.5324
       158.0004        162.0004
 -23666901.73849 -18427407.57947  20232415.197    20232415.1614   20232422.8434
       210.0004        210.0004
 -21371869.92149 -16631558.90447  20512447.107    20512447.6564   20512453.4884
       207.0004        206.0004
  -1892838.08047  -1452293.36545  23830349.219    23830351.9804   23830363.0934
       137.0004        142.0004
  -6246318.26747  -4849488.66546  23578581.279    23578581.2644   23578587.1724
       163.0004        164.0004
 -18908596.99549 -14714973.17347  20935607.687    20935607.9024   20935614.4334
       210.0004        210.0004
  -1864396.83646  -1399056.21345  24577978.432    24577978.6174   24577982.2754
       126.0004        134.0004
 -14805971.19349 -11521157.32947  22115124.795    22115125.1224   22115132.7784
       211.0004        210.0004
 21  2  6  0 25  0.0000000  0  9G03G21G08G04G01G07G09G16G27
    519653.59148    431649.48446  24440145.777    24440146.4664   24440155.2254
       172.0004        174.0004
 -11232490.42847  -8587358.04645  22540897.105    22540896.4464   22540901.9924
       159.0004        162.0004
 -23643038.17849 -18408812.57947  20236956.026    20236956.3704   20236964.0544
       210.0004        211.0004
 -21330242.60349 -16599122.03847  20520367.958    20520368.8264   20520374.6274
       207.0004        205.0004
  -1965340.67647  -1508788.77345  23816553.592    23816555.8674   23816565.8724
       138.0004        143.0004
  -6317389.06447  -4904868.46946  23565056.749    23565057.6944   23565063.0664
       163.0004        165.0004
 -18938597.45749 -14738350.14647  20929898.671    20929898.7774   20929905.3434
       209.0004        209.0004
  -1788402.23646  -1339839.65345  24592438.169    24592437.9924   24592446.2324
       127.0004        135.0004
 -14720135.03549 -11454272.01647  22131458.352    22131458.9994   22131467.1074
       211.0004        211.0004
 21  2  6  0 25 30.0000000  0  9G03G21G08G04G01G07G09G16G27
    572787.47648    473052.38746  24450256.788    24450257.3214   24450267.1704
       174.0004        177.0004
 -11280066.78847  -8624430.46445  22531842.564    22531843.4394   22531848.6974
       159.0004        162.0004
 -23618591.24149 -18389763.01047  20241608.070    20241608.0324   20241616.1914
       210.0004        211.0004
 -21288086.80449 -16566273.36747  20528390.440    20528390.8734   20528396.8194
       207.0004        205.0004
  -2038002.46147  -1565408.23745  23802729.556    23802729.8864   23802738.8644
       142.0004        147.0004
  -6388574.67247  -4960337.74346  23551510.951    23551511.7244   23551516.5414
       164.0004        167.0004
 -18968046.68549 -14761297.58547  20924294.543    20924295.0354   20924301.7004
       209.0004        210.0004
  -1712569.26646  -1280749.00545  24606869.598    24606872.1044   24606875.3104
       127.0004        134.0004
 -14633932.41549 -11387101.13847  22147862.742    22147862.8404   22147870.5674
       211.0004        211.0004
 21  2  6  0 26  0.0000000  0  9G03G21G08G04G01G07G09G16G27
    625699.81348    514282.66946  24460325.527    24460325.8474   24460335.6834
       172.0004        171.0004
 -11327488.53047  -8661382.42345  22522819.505    22522819.3934   22522824.3894
       159.0004        161.0004
 -23593563.58949 -18370260.92147  20246370.514    20246370.7844   20246378.7184
       210.0004        210.0004
 -21245405.32949 -16533015.06947  20536512.223    20536512.6024   20536518.9834
       207.0004        206.0004
  -2110822.46347  -1622150.97145  23788872.228    23788872.7524   23788881.9824
       143.0004        148.0004
  -6459874.52948  -5015896.05046  23537943.494    23537943.7544   23537948.1904
       166.0004        168.0004
 -18996944.99949 -14783815.73647  20918795.035    20918795.6154   20918802.3854
       209.0004        209.0004
  -1636899.87346  -1221785.86645  24621270.508    24621269.8454   24621274.0304
       127.0004        134.0004
 -14547367.63749 -11319648.05247  22164336.049    22164335.8824   22164343.3734
       210.0004        210.0004
 21  2  6  0 26 30.0000000  0  9G03G21G08G04G01G07G09G16G27
    678388.70248    555338.82846  24470351.650    24470352.1804   24470363.3694
       171.0004        172.0004
 -11374752.79547  -8698211.66045  22513826.470    22513825.4864   22513830.4314
       160.0004        162.0004
 -23567956.73249 -18350307.52047  20251243.809    20251243.7144   20251251.2024
       210.0004        210.0004
 -21202199.94149 -16499348.53647  20544734.328    20544734.8574   20544740.7374
       207.0004        206.0004
  -2183798.59847  -1679015.38745  23774983.285    23774984.2964   23774994.8474
       143.0004        147.0004
  -6531288.36348  -5071543.16446  23524352.276    23524353.4354   23524358.4854
       166.0004        167.0004
 -19025291.77249 -14805904.12547  20913400.911    20913400.9474   20913408.1174
       208.0004        208.0004
  -1561394.83046  -1162950.81745  24635636.578    24635636.5144   24635644.0664
       126.0004        133.0004
 -14460443.82449 -11251915.20947  22180875.792    22180876.8904   22180884.1774
       210.0004        211.0004
 21  2  6  0 27  0.0000000  0  9G03G21G08G04G01G07G09G16G27
    730853.75948    596220.59346  24480334.210    24480335.7064   24480346.8274
       169.0004        170.0004
 -11421855.21147  -8734914.79046  22504862.767    22504862.6674   22504867.5104
       161.0004        164.0004
 -23541770.34649 -18329902.52547  20256226.285    20256226.8314   20256234.2134
       209.0004        210.0004
 -21158470.92249 -16465273.97147  20553055.728    20553056.3284   20553061.9984
       207.0004        205.0004
  -2256927.16747  -1735998.59445  23761067.365    23761068.1834   23761077.7474
       142.0004        146.0004
  -6602812.90648  -5127276.53246  23510743.163    23510743.0364   23510747.8854
       167.0004        168.0004
 -19053084.58849 -14827560.86547  20908112.277    20908112.8544   20908119.3884
       209.0004        210.0004
  -1486053.42946  -1104243.25044  24649975.605    24649973.9744   24649977.2584
       122.0004        131.0004
 -14373162.60249 -11183903.87047  22197485.167    22197486.0114   22197492.8884
       210.0004        210.0004
 21  2  6  0 27 30.0000000  0  9G03G21G08G04G01G07G09G16G27
    783092.36948    636925.86346  24490277.047    24490277.5504   24490286.7274
       169.0004        170.0004
 -11468794.71947  -8771491.00046  22495930.842    22495929.5894   22495934.7364
       162.0004        164.0004
 -23515007.44749 -18309048.31447  20261319.298    20261319.6474   20261327.1054
       209.0004        210.0004
 -21114220.72549 -16430793.30647  20561476.112    20561476.7304   20561482.4674
       206.0004        205.0004
  -2330206.59547  -1793099.36345  23747122.785    23747124.7804   23747134.3844
       144.0004        148.0004
  -6674448.15348  -5183096.17746  23497112.211    23497112.4794   23497116.6684
       167.0004        170.0004
 -19080323.44449 -14848785.95147  20902928.928    20902929.2444   20902936.0974
       210.0004        210.0004
  -1410877.27646  -1045664.39945  24664280.204    24664280.3674   24664284.8584
       126.0004        135.0004
 -14285527.77949 -11115617.00047  22214162.791    22214162.7964   22214169.3544
       210.0004        210.0004
 21  2  6  0 28  0.0000000  0  9G03G21G08G04G01G07G09G16G27
    835102.41548    677453.05346  24500173.333    24500173.9134   24500183.9594
       168.0004        170.0004
 -11515568.82447  -8807938.28746  22487027.862    22487027.7884   22487032.5374
       162.0004        163.0004
 -23487669.38049 -18287745.90847  20266521.498    20266521.8354   20266529.5504
       210.0004        210.0004
