     2.11           OBSERVATION DATA    G (GPS)             RINEX VERSION / TYPE
teqc  2018Jun8                          20210202 03:10:46UTCPGM / RUN BY / DATE
Linux2.6.32-573.12.1.el6.x86_64|x86_64|gcc|Win64-MinGW64|=+ COMMENT
BIT 2 OF LLI FLAGS DATA COLLECTED UNDER A/S CONDITION       COMMENT
-Unknown-                                                   MARKER NAME
CRNO                                                        MARKER NUMBER
-Unknown-           -Unknown-                               OBSERVER / AGENCY
-Unknown-           ASHTECH             -Unknown-           REC # / TYPE / VERS
-Unknown-           -Unknown-                               ANT # / TYPE
   408078.7968 -6158375.3901  1605162.3903                  APPROX POSITION XYZ
        0.0000        0.0000        0.0000                  ANTENNA: DELTA H/E/N
     1     1                                                WAVELENGTH FACT L1/2
     7    L1    L2    C1    P1    P2    S1    S2            # / TYPES OF OBSERV
    30.0000                                                 INTERVAL
Forced Modulo Decimation to 30 seconds                      COMMENT
 SNR is mapped to RINEX snr flag value [1-9]                COMMENT
  L1: 1 -> 1;  90 -> 5; 210 -> 9                            COMMENT
  L2: 1 -> 1; 150 -> 5; 250 -> 9                            COMMENT
pseudorange smoothing corrections not applied               COMMENT
  2021     1    31     0     0   30.0000000     GPS         TIME OF FIRST OBS
                                                            END OF HEADER
 21  1 31  0  0 30.0000000  0  9G21G30G08G07G17G09G01G04G14
 -15631588.88348 -12173234.43646  21752955.564    21752954.9744   21752960.2014
       183.0004        184.0004
  -4411209.29447  -3421920.99346  23590054.466    23590054.7184   23590062.1094
       160.0004        163.0004
 -16503872.66949 -12835980.87347  21580168.392    21580168.5064   21580174.8244
       207.0004        210.0004
 -16621215.49449 -12937631.36347  21556890.943    21556891.0974   21556895.2054
       197.0004        197.0004
  -2222363.12747  -1699255.56245  23852927.571    23852927.3454   23852934.8114
       155.0004        158.0004
 -17387045.85649 -13517715.59347  21106123.695    21106124.1554   21106131.7394
       209.0004        209.0004
 -13860481.23648 -10777246.62246  21946894.330    21946894.9784   21946903.4724
       180.0004        182.0004
 -11872073.43448  -9225345.78246  22324673.491    22324674.1034   22324679.6674
       179.0004        179.0004
  -1723444.86946  -1328777.41945                  23605167.4314   23605170.2774
       132.0004        143.0004
 21  1 31  0  1  0.0000000  0  9G21G30G08G07G17G09G01G04G14
 -15638724.77848 -12178794.84946  21751598.039    21751597.6844   21751602.1454
       184.0004        185.0004
  -4498874.80247  -3490231.75945  23573372.434    23573371.7684   23573379.2444
       161.0004        162.0004
 -16422687.66049 -12772719.82247  21595617.134    21595617.5584   21595624.5334
       211.0004        210.0004
 -16692146.45349 -12992902.22547  21543392.643    21543393.1894   21543396.8204
       196.0004        196.0004
  -2315015.05747  -1771451.77945  23835296.469    23835296.7604   23835302.3564
       155.0004        156.0004
 -17344169.11549 -13484305.16147  21114283.505    21114284.0614   21114290.9324
       209.0004        210.0004
 -13930497.57348 -10831804.78446  21933570.956    21933571.6114   21933579.5154
       181.0004        182.0004
 -11779771.78448  -9153422.41546  22342236.779    22342237.7554   22342244.7924
       178.0004        178.0004
  -1756613.49347  -1354623.04145  23598857.256    23598857.3384   23598860.5304
       139.0004        145.0004
 21  1 31  0  1 30.0000000  0  9G21G30G08G07G17G09G01G04G14
 -15645408.33548 -12184002.78646  21750326.588    21750325.7314   21750331.4484
       184.0004        185.0004
  -4586580.15447  -3558573.56546  23556682.705    23556682.6874   23556689.1034
       161.0004        164.0004
 -16341230.22549 -12709246.47848  21611118.208    21611118.4824   21611125.5294
       220.0004        224.0004
 -16762931.47749 -13048059.38347  21529922.808    21529923.1314   21529927.2444
       196.0004        196.0004
  -2407404.57747  -1843443.55245  23817714.511    23817714.8144   23817721.7564
       155.0004        156.0004
 -17300840.27549 -13450542.43647  21122529.392    21122529.4454   21122536.0294
       209.0004        210.0004
 -14000288.12948 -10886187.01746  21920289.631    21920290.2734   21920298.0954
       181.0004        180.0004
 -11687283.76648  -9081353.84746  22359835.967    22359837.5774   22359845.2054
       177.0004        177.0004
  -1783814.34247  -1375818.44445  23593681.091    23593681.1524   23593687.9234
       141.0004        146.0004
 21  1 31  0  2  0.0000000  0  9G21G30G08G07G17G09G01G04G14
 -15651637.19148 -12188856.41246  21749140.511    21749139.8604   21749146.6024
       185.0004        185.0004
  -4674322.92947  -3626944.54346  23539985.465    23539985.6334   23539992.9214
       163.0004        165.0004
 -16259502.73449 -12645562.70648  21626671.324    21626671.2104   21626677.6244
       224.0004        225.0004
 -16833567.40649 -13103100.35147  21516480.227    21516481.2294   21516485.6954
       196.0004        196.0004
  -2499529.04347  -1915228.77945  23800184.687    23800184.4934   23800190.0204
       154.0004        157.0004
 -17257060.98949 -13416428.71447  21130859.647    21130860.2584   21130866.8694
       209.0004        209.0004
 -14069848.98748 -10940390.26146  21907052.356    21907053.4584   21907061.3894
       180.0004        182.0004
 -11594611.79048  -9009141.93846  22377471.832    22377472.5094   22377479.5924
       176.0004        176.0004
  -1810961.39747  -1396971.95545  23588514.164    23588515.1374   23588523.6284
       145.0004        150.0004
 21  1 31  0  2 30.0000000  0  9G21G30G08G07G17G09G01G04G14
 -15657409.22748 -12193354.07846  21748041.536    21748041.4804   21748047.2654
       184.0004        184.0004
  -4762100.49747  -3695342.60446  23523280.954    23523281.2284   23523289.8004
       164.0004        166.0004
 -16177507.36049 -12581670.20948  21642274.536    21642274.3744   21642280.8244
       225.0004        224.0004
 -16904050.75649 -13158022.42847  21503068.767    21503069.1204   21503073.5194
       197.0004        197.0004
  -2591385.25547  -1986804.98545  23782703.491    23782704.8484   23782710.7694
       155.0004        157.0004
 -17212832.66749 -13381965.09247  21139276.048    21139276.3654   21139283.3724
       209.0004        209.0004
 -14139175.97748 -10994411.26346  21893860.844    21893861.3764   21893869.7894
       182.0004        182.0004
 -11501757.91948  -8936788.29346  22395143.022    22395142.7484   22395149.4564
       176.0004        177.0004
  -1838055.06147  -1418083.88745  23583358.941    23583359.7744   23583367.7264
       151.0004        155.0004
 21  1 31  0  3  0.0000000  0  9G21G30G08G07G17G09G01G04G14
 -15662723.94948 -12197495.40946  21747030.231    21747030.3544   21747035.8964
       184.0004        184.0004
  -4849911.69048  -3763766.86946  23506571.395    23506571.5144   23506579.5904
       165.0004        167.0004
 -16095247.95849 -12517571.96248  21657926.122    21657927.1154   21657934.0274
       224.0004        223.0004
 -16974379.56049 -13212824.07547  21489685.283    21489685.5304   21489690.2694
       197.0004        197.0004
  -2682972.06747  -2058171.28045  23765273.384    23765275.0994   23765282.7184
       153.0004        154.0004
 -17168158.37649 -13347153.95047  21147776.633    21147777.2494   21147785.1994
       209.0004        210.0004
 -14208266.50948 -11048248.02546  21880713.212    21880713.3134   21880721.7414
       182.0004        184.0004
 -11408725.95148  -8864295.86346  22412846.504    22412846.6524   22412852.2244
       177.0004        178.0004
  -1865097.31147  -1439155.74945  23578213.041    23578214.0574   23578220.9454
       154.0004        157.0004
 21  1 31  0  3 30.0000000  0  9G21G30G08G07G17G09G01G04G14
 -15667579.12348 -12201278.62246  21746107.481    21746106.3974   21746111.4194
       184.0004        184.0004
  -4937754.11447  -3832215.45446  23489855.802    23489855.9064   23489863.1544
       164.0004        166.0004
 -16012726.67749 -12453269.64548  21673629.492    21673630.2324   21673637.3554
       223.0004        222.0004
 -17044550.53249 -13267502.74947  21476332.692    21476333.4544   21476336.7204
       197.0004        198.0004
  -2774286.90347  -2129325.60145  23747898.215    23747898.6204   23747906.0244
       151.0004        154.0004
 -17123039.86449 -13311996.67747  21156363.844    21156363.7244   21156370.4634
       210.0004        210.0004
 -14277116.70148 -11101897.49746  21867610.109    21867611.2964   21867619.9304
       182.0004        182.0004
 -11315518.26948  -8791666.50146  22430582.110    22430583.0204   22430588.0774
       176.0004        175.0004
  -1892088.83647  -1460188.05745  23573076.669    23573077.3484   23573082.4804
       154.0004        156.0004
 21  1 31  0  4  0.0000000  0  9G21G30G08G07G17G09G01G04G14
 -15671973.99948 -12204703.19346  21745272.033    21745270.1494   21745274.7194
       184.0004        184.0004
  -5025626.34748  -3900687.32846  23473135.047    23473134.8294   23473141.2854
       165.0004        166.0004
 -15929946.98949 -12388766.00048  21689383.042    21689383.1234   21689390.0124
       223.0004        223.0004
 -17114561.53049 -13322056.76547  21463010.206    21463010.4224   21463014.6364
       198.0004        199.0004
  -2865328.00147  -2200266.67445  23730574.905    23730575.0734   23730579.9444
       154.0004        158.0004
 -17077479.96849 -13276495.48347  21165032.617    21165033.4054   21165040.6874
       210.0004        210.0004
 -14345723.77948 -11155357.55346  21854555.402    21854556.1344   21854564.0264
       182.0004        183.0004
 -11222138.42548  -8718903.00146  22448352.412    22448352.6724   22448358.6134
       176.0004        176.0004
  -1919031.43647  -1481182.26645  23567949.941    23567950.5114   23567955.4074
       154.0004        156.0004
 21  1 31  0  4 30.0000000  0  9G21G30G08G07G17G09G01G04G14
 -15675908.28648 -12207768.85646  21744522.065    21744521.4624   21744525.2854
       183.0004        183.0004
  -5113527.13348  -3969181.41746  23456408.144    23456407.4834   23456414.6844
       165.0004        166.0004
 -15846912.11749 -12324063.50548  21705184.683    21705184.6634   21705190.8074
       224.0004        224.0004
 -17184410.52349 -13376484.54047  21449717.332    21449718.0294   21449723.0664
       198.0004        198.0004
  -2956093.92447  -2270993.31645  23713303.094    23713303.0774   23713307.8204
       156.0004        159.0004
 -17031481.58149 -13240652.59247  21173786.053    21173786.2124   21173793.6974
       209.0004        209.0004
 -14414084.91948 -11208625.96746  21841546.573    21841547.4944   21841555.4924
       182.0004        182.0004
 -11128589.86548  -8646008.02946  22466154.665    22466154.7274   22466160.2004
       176.0004        176.0004
  -1945926.87047  -1502139.69845  23562831.368    23562832.0764   23562836.7644
       153.0004        155.0004
 21  1 31  0  5  0.0000000  0  9G21G30G08G07G17G09G01G04G14
 -15679380.42048 -12210474.38246  21743860.018    21743860.6564   21743865.1994
       183.0004        183.0004
  -5201454.55747  -4037696.28446  23439675.640    23439675.0204   23439682.3254
       164.0004        165.0004
 -15763625.35049 -12259164.71748  21721034.267    21721033.8654   21721039.3774
       224.0004        223.0004
 -17254094.95649 -13430784.11647  21436457.507    21436458.1934   21436462.1614
       198.0004        198.0004
  -3046582.70547  -2341503.95945  23696083.028    23696083.2784   23696089.1504
       156.0004        159.0004
 -16985047.11349 -13204469.89947  21182622.455    21182622.8404   21182629.7464
       209.0004        209.0004
 -14482196.91948 -11261700.21546  21828585.318    21828586.0924   21828594.9824
       182.0004        182.0004
 -11034875.68648  -8572984.01546  22483986.469    22483987.4954   22483994.1494
       176.0004        176.0004
  -1972776.42147  -1523061.38345  23557722.229    23557723.1934   23557727.5964
       156.0004        158.0004
 21  1 31  0  5 30.0000000  0  9G21G30G08G07G17G09G01G04G14
 -15682387.78548 -12212817.78646  21743287.733    21743287.6424   21743292.9164
       183.0004        183.0004
  -5289405.45347  -4106229.40546  23422936.889    23422937.7804   23422945.4864
       163.0004        164.0004
 -15680088.26549 -12194070.87548  21736929.366    21736929.5934   21736936.1594
       223.0004        221.0004
 -17323610.70349 -13484952.24047  21423229.805    21423229.6684   21423233.6254
       198.0004        198.0004
  -3136791.29647  -2411796.29545  23678916.529    23678916.9374   23678923.9584
       158.0004        160.0004
 -16938177.61749 -13167948.23247  21191540.890    21191542.0664   21191548.5544
       209.0004        209.0004
 -14550055.09048 -11314576.69946  21815672.270    21815672.7834   21815681.5334
       182.0004        184.0004
 -10940997.48848  -8499832.18446  22501850.847    22501851.2174   22501858.5094
       176.0004        176.0004
  -1999579.99147  -1543947.24145  23552621.772    23552622.1524   23552627.7104
       156.0004        158.0004
 21  1 31  0  6  0.0000000  0  9G21G30G08G07G17G09G01G04G14
 -15684928.97748 -12214797.89946  21742805.393    21742805.1564   21742809.9784
       184.0004        185.0004
  -5377377.57147  -4174779.06846  23406197.668    23406198.2164   23406205.4234
       163.0004        166.0004
 -15596303.40949 -12128783.96448  21752871.989    21752872.5984   21752880.2664
       222.0004        221.0004
 -17392954.94549 -13538986.69647  21410032.407    21410033.3924   21410038.1014
       197.0004        198.0004
  -3226716.95547  -2481868.18845  23661805.645    23661805.4214   23661811.8264
       158.0004        160.0004
 -16890875.22249 -13131089.21747  21200543.226    21200542.9944   21200549.9914
       209.0004        209.0004
 -14617655.83648 -11367252.58946  21802808.981    21802809.3664   21802818.4394
       183.0004        184.0004
 -10846957.98048  -8426554.65546  22519746.886    22519747.1594   22519753.1764
       176.0004        177.0004
  -2026338.56447  -1564798.04045  23547529.981    23547529.9744   23547535.3164
       154.0004        155.0004
 21  1 31  0  6 30.0000000  0  9G21G30G08G07G17G09G01G04G14
 -15687004.67848 -12216415.31146  21742410.825    21742410.3704   21742415.7844
       186.0004        186.0004
  -5465371.05147  -4243345.38046  23389452.578    23389453.1144   23389461.0024
       164.0004        166.0004
 -15512276.05649 -12063308.11148  21768862.365    21768862.8224   21768870.1784
       222.0004        222.0004
 -17462126.97749 -13592886.97747  21396870.791    21396871.0094   21396874.8594
       198.0004        198.0004
  -3316359.80447  -2551719.71845  23644747.629    23644747.2104   23644751.9424
       158.0004        161.0004
 -16843144.37149 -13093896.35347  21209625.512    21209626.0194   21209632.6744
       209.0004        209.0004
 -14684997.96848 -11419726.93946  21789993.502    21789994.0564   21790003.1724
       184.0004        184.0004
 -10752762.22848  -8353155.38346  22537671.285    22537671.7994   22537679.0144
       176.0004        177.0004
  -2053055.37647  -1585616.30845  23542443.981    23542445.4634   23542451.2034
       154.0004        156.0004
 21  1 31  0  7  0.0000000  0  9G21G30G08G07G17G09G01G04G14
 -15688612.50448 -12217668.13646  21742104.368    21742104.1174   21742109.9624
       187.0004        187.0004
  -5553382.36247  -4311925.60946  23372705.059    23372704.9804   23372712.1304
       163.0004        164.0004
 -15428007.13249 -11997644.00748  21784898.814    21784899.1374   21784905.4054
       222.0004        221.0004
 -17531122.37449 -13646649.63447  21383742.250    21383742.5464   21383745.0764
       199.0004        199.0004
  -3405716.48147  -2621348.25045  23627742.602    23627742.9574   23627748.6444
       160.0004        162.0004
 -16794985.89449 -13056370.27047  21218789.740    21218789.8084   21218796.8294
       208.0004        208.0004
 -14752076.52448 -11471995.92446  21777228.950    21777230.2744   21777238.6474
       185.0004        186.0004
 -10658411.57148  -8279635.40746  22555626.598    22555626.5904   22555632.2904
       176.0004        176.0004
  -2079730.08747  -1606401.77145  23537369.075    23537369.9984   23537376.1894
       158.0004        161.0004
 21  1 31  0  7 30.0000000  0  9G21G30G08G07G17G09G01G04G14
 -15689751.81748 -12218555.90847  21741887.318    21741886.5704   21741893.4714
       187.0004        188.0004
  -5641410.44247  -4380518.90745  23355953.330    23355954.4784   23355961.1594
       161.0004        162.0004
 -15343500.62749 -11931794.78448  21800980.687    21800980.6664   21800986.5934
       222.0004        221.0004
 -17599939.53749 -13700273.39447  21370645.925    21370646.5424   21370649.5634
       199.0004        199.0004
  -3494785.64147  -2690752.71845  23610791.270    23610791.9664   23610798.3134
       160.0004        161.0004
 -16746403.09549 -13018513.55547  21228034.865    21228035.1834   21228042.4844
       208.0004        209.0004
 -14818889.08948 -11524057.64546  21764514.751    21764515.7844   21764524.1384
       184.0004        184.0004
 -10563909.84648  -8205997.69246  22573608.425    22573609.0264   22573614.9474
       176.0004        176.0004
  -2106364.71047  -1627155.99746  23532300.500    23532301.0204   23532306.8384
       162.0004        165.0004
 21  1 31  0  8  0.0000000  0  9G21G30G08G07G17G09G01G04G14
 -15690420.78948 -12219077.14347  21741759.396    21741760.2204   21741765.9844
       188.0004        188.0004
  -5729452.45447  -4449123.02346  23339200.496    23339200.9414   23339208.0314
       163.0004        166.0004
 -15258758.44049 -11865761.90748  21817106.517    21817106.5214   21817112.4484
       221.0004        220.0004
 -17668574.57649 -13753755.23247  21357584.912    21357585.4864   21357589.7494
       199.0004        199.0004
  -3583564.39347  -2759930.90145  23593899.136    23593899.0674   23593903.4954
       159.0004        160.0004
 -16697397.43349 -12980327.31747  21237360.304    21237360.6224   21237367.5144
       208.0004        208.0004
 -14885431.34848 -11575908.72846  21751851.890    21751853.3424   21751861.5574
       184.0004        185.0004
 -10469259.02248  -8132243.83046  22591620.139    22591620.1914   22591626.6244
       176.0004        176.0004
  -2132959.61148  -1647879.27446  23527240.267    23527241.2564   23527246.3904
       165.0004        167.0004
 21  1 31  0  8 30.0000000  0  9G21G30G08G07G17G09G01G04G14
 -15690619.59648 -12219232.03047  21741722.707    21741721.8774   21741729.1764
       188.0004        189.0004
  -5817507.57948  -4517737.35546  23322444.246    23322443.7404   23322451.2664
       165.0004        166.0004
 -15173785.00049 -11799548.83648  21833275.417    21833275.9514   21833282.4674
       221.0004        220.0004
 -17737026.24749 -13807094.19247  21344558.599    21344559.1114   21344562.9934
       199.0004        198.0004
  -3672052.33047  -2828882.48645  23577059.655    23577059.4784   23577064.7424
       156.0004        157.0004
 -16647972.80549 -12941814.63347  21246765.636    21246765.7934   21246772.7634
       207.0004        207.0004
 -14951701.45348 -11627547.74846  21739243.380    21739243.0364   21739250.3324
       186.0004        187.0004
 -10374463.52148  -8058377.21146  22609659.202    22609659.5064   22609666.6504
       176.0004        175.0004
  -2159517.33848  -1668573.57046  23522186.643    23522187.1134   23522192.7784
       165.0004        166.0004
 21  1 31  0  9  0.0000000  0  9G21G30G08G07G17G09G01G04G14
 -15690347.01248 -12219019.59447  21741774.053    21741773.3504   21741780.6204
       189.0004        188.0004
  -5905574.02048  -4586360.52146  23305685.218    23305684.9634   23305693.2734
       165.0004        168.0004
 -15088582.73249 -11733157.45348  21849489.298    21849489.4384   21849496.2234
       220.0004        220.0004
 -17805292.03349 -13860288.30147  21331567.907    21331568.6154   21331572.8224
       199.0004        199.0004
  -3760247.32347  -2897605.81045  23560275.944    23560276.4374   23560281.5124
       156.0004        159.0004
 -16598131.75149 -12902977.45647  21256249.562    21256249.9084   21256257.0554
       207.0004        207.0004
 -15017696.16348 -11678972.17846  21726683.034    21726683.4934   21726692.5504
       186.0004        186.0004
 -10279526.33948  -7984400.19846  22627725.227    22627725.8334   22627732.5574
       175.0004        176.0004
  -2186039.20747  -1689239.95146  23517139.843    23517139.7754   23517145.5424
       164.0004        165.0004
 21  1 31  0  9 30.0000000  0  9G21G30G08G07G17G09G01G04G14
 -15689600.90148 -12218438.17747  21741915.198    21741915.2094   21741922.9394
       188.0004        188.0004
  -5993648.70348  -4654990.09946  23288925.108    23288925.5204   23288933.0604
       166.0004        167.0004
 -15003154.01149 -11666589.62048  21865745.717    21865746.1314   21865752.9134
       221.0004        220.0004
 -17873367.91049 -13913334.42747  21318614.330    21318614.3444   21318618.5694
       199.0004        199.0004
  -3848146.72247  -2966098.81145  23543550.540    23543550.6074   23543555.2424
       159.0004        162.0004
 -16547875.68849 -12863816.88347  21265813.276    21265813.5014   21265820.9134
       207.0004        207.0004
 -15083411.08048 -11730178.58246  21714177.569    21714178.5994   21714186.9404
       185.0004        186.0004
 -10184449.35848  -7910314.25846  22645817.824    22645817.8734   22645823.8834
       174.0004        174.0004
  -2212525.26447  -1709878.38946  23512099.352    23512099.8074   23512105.7304
       163.0004        164.0004
 21  1 31  0 10  0.0000000  0  9G21G30G08G07G17G09G01G04G14
 -15688380.72348 -12217487.36046  21742147.402    21742147.2074   21742153.9884
       187.0004        187.0004
  -6081730.04848  -4723624.86246  23272164.697    23272163.9314   23272171.3204
       165.0004        166.0004
 -14917502.16049 -11599847.91648  21882044.782    21882045.0134   21882051.6584
       220.0004        219.0004
 -17941251.34249 -13966230.60447  21305695.029    21305695.8694   21305700.9134
       199.0004        199.0004
  -3935748.75047  -3034360.07845  23526879.324    23526879.6914   23526885.4204
       160.0004        161.0004
 -16497207.45649 -12824335.15847  21275454.797    21275455.4284   21275462.6284
       207.0004        207.0004
 -15148843.31848 -11781164.72446  21701727.003    21701727.2784   21701735.6414
       186.0004        186.0004
 -10089235.94648  -7836121.99646  22663936.885    22663937.4054   22663943.3544
       174.0004        175.0004
  -2238977.24947  -1730490.27846  23507066.914    23507066.8504   23507072.9444
       164.0004        166.0004
 21  1 31  0 10 30.0000000  0  9G21G30G08G07G17G09G01G04G14
 -15686685.87948 -12216166.69146  21742470.188    21742469.9694   21742476.1304
       186.0004        186.0004
  -6169816.36848  -4792263.54946  23255402.507    23255402.2684   23255409.0734
       167.0004        169.0004
 -14831630.33449 -11532934.79848  21898384.899    21898385.4124   21898392.4614
       219.0004        218.0004
 -18008940.25849 -14018975.20947  21292815.293    21292815.5734   21292819.8594
       199.0004        199.0004
  -4023051.50047  -3102388.15545  23510267.346    23510267.6244   23510272.0814
       159.0004        160.0004
 -16446130.02449 -12784534.56947  21285174.491    21285174.9834   21285182.3154
       207.0004        206.0004
 -15213989.94648 -11831928.31546  21689329.301    21689330.1324   21689339.3194
       186.0004        187.0004
  -9993889.38048  -7761825.98946  22682080.449    22682080.8984   22682087.1574
       173.0004        173.0004
  -2265396.66648  -1751076.80446  23502037.790    23502038.9714   23502043.7184
       166.0004        167.0004
 21  1 31  0 11  0.0000000  0  9G21G30G08G07G17G09G01G04G14
 -15684515.12348 -12214475.16946  21742883.651    21742883.1854   21742889.0014
       186.0004        186.0004
  -6257905.42348  -4860904.33146  23238637.141    23238638.3704   23238647.1584
       168.0004        169.0004
 -14745540.82649 -11465852.07048  21914767.561    21914767.7414   21914774.8404
       218.0004        218.0004
 -18076432.06649 -14071566.23047  21279971.826    21279972.4274   21279976.5994
       199.0004        200.0004
  -4110053.53247  -3170181.88445  23493711.303    23493711.1364   23493714.7034
       156.0004        157.0004
 -16394645.70349 -12744416.92447  21294971.288    21294971.6984   21294978.6484
       205.0004        205.0004
 -15278847.49448 -11882466.64446  21676987.921    21676988.1314   21676996.3524
       186.0004        186.0004
  -9898412.46648  -7687428.41246  22700248.772    22700249.2444   22700256.0144
       171.0004        170.0004
  -2291784.52648  -1771638.73646  23497016.758    23497017.0254   23497022.5664
       166.0004        167.0004
 21  1 31  0 11 30.0000000  0  9G21G30G08G07G17G09G01G04G14
 -15681866.63748 -12212411.38546  21743387.368    21743387.4014   21743392.4164
       185.0004        184.0004
  -6345994.61548  -4929545.23246  23221874.632    23221875.3404   23221882.3854
       166.0004        166.0004
 -14659235.94849 -11398601.51348  21931191.831    21931191.5774   21931198.0754
       219.0004        219.0004
 -18143723.10749 -14124000.80447  21267166.729    21267167.2194   21267171.3954
       199.0004        200.0004
  -4196751.86747  -3237738.95545  23477211.862    23477212.9474   23477219.1044
       155.0004        158.0004
 -16342756.41949 -12703983.71747  21304846.070    21304846.3644   21304853.3594
       206.0004        206.0004
 -15343412.09348 -11932776.69546  21664701.714    21664702.9144   21664710.3664
       186.0004        187.0004
  -9802807.50548  -7612931.04146  22718442.106    22718442.2964   22718448.7224
       170.0004        170.0004
  -2318141.43848  -1792176.53546  23492001.450    23492002.4164   23492006.9894
       165.0004        166.0004
 21  1 31  0 12  0.0000000  0  9G21G30G08G07G17G09G01G04G14
 -15678739.24148 -12209974.43046  21743982.295    21743982.3654   21743986.8974
       184.0004        184.0004
  -6434081.85648  -4998184.63046  23205113.625    23205113.8594   23205121.1004
       167.0004        169.0004
 -14572718.91949 -11331185.64748  21947655.595    21947655.3864   21947661.3594
       219.0004        218.0004
 -18210810.43049 -14176276.63747  21254400.290    21254400.8884   21254405.4284
       200.0004        200.0004
  -4283144.59747  -3305057.90245  23460771.814    23460772.7754   23460780.0544
       159.0004        162.0004
 -16290464.68449 -12663236.92047  21314796.511    21314796.9544   21314804.2394
       206.0004        206.0004
 -15407680.41048 -11982855.88446  21652471.824    21652472.4174   21652480.5114
       186.0004        186.0004
  -9707077.43748  -7538336.20146  22736658.773    22736658.5594   22736664.7984
       170.0004        170.0004
  -2344468.50548  -1812691.09046  23486991.311    23486992.2024   23486997.5704
       166.0004        167.0004
 21  1 31  0 12 30.0000000  0  9G21G30G08G07G17G09G01G04G14
 -15675133.21948 -12207164.52546  21744668.663    21744668.5164   21744672.8094
       183.0004        182.0004
  -6522166.08448  -5066821.66446  23188351.762    23188351.5914   23188359.6464
       169.0004        171.0004
 -14485993.48049 -11263607.37648  21964158.107    21964158.3544   21964165.3124
       219.0004        218.0004
 -18277692.38049 -14228392.42547  21241672.917    21241673.7994   21241678.0484
       200.0004        200.0004
  -4369230.83547  -3372138.00645  23444390.317    23444389.9014   23444396.7114
       158.0004        160.0004
 -16237774.12449 -12622179.35847  21324823.074    21324823.7864   21324831.4274
       206.0004        206.0004
 -15471650.21648 -12032702.47046  21640298.546    21640299.0344   21640307.4714
       186.0004        187.0004
  -9611226.21148  -7463646.96546  22754898.237    22754899.0754   22754904.9164
       170.0004        171.0004
  -2370767.94748  -1833184.12846  23481986.797    23481987.0584   23481992.7504
       165.0004        165.0004
 21  1 31  0 13  0.0000000  0  9G21G30G08G07G17G09G01G04G14
 -15671047.33948 -12203980.70446  21745447.065    21745446.7594   21745450.5594
       183.0004        184.0004
  -6610244.44548  -5135454.15246  23171592.069    23171591.6874   23171597.6014
       170.0004        171.0004
 -14399061.95849 -11195868.51348  21980700.499    21980700.7394   21980708.0234
       218.0004        217.0004
 -18344365.51449 -14280345.51247  21228986.485    21228986.6774   21228990.2514
       200.0004        201.0004
  -4455008.07947  -3438977.34245  23428067.313    23428068.1504   23428073.7164
       158.0004        161.0004
 -16184686.54349 -12580812.40347  21334925.858    21334926.1674   21334933.7464
       206.0004        207.0004
 -15535317.43448 -12082313.26646  21628182.375    21628183.3884   21628191.6984
       186.0004        187.0004
  -9515255.97848  -7388864.97346  22773162.186    22773161.6964   22773167.0384
       170.0004        171.0004
  -2397040.23847  -1853655.98846  23476986.990    23476987.4654   23476992.1754
       163.0004        164.0004
 21  1 31  0 13 30.0000000  0  9G21G30G08G07G17G09G01G04G14
 -15666481.42848 -12200422.83846  21746316.595    21746315.7614   21746319.5734
       183.0004        184.0004
  -6698315.72348  -5204081.14046  23154832.527    23154831.5334   23154839.0844
       170.0004        172.0004
 -14311927.99749 -11127971.93148  21997280.993    21997281.6084   21997288.7024
       218.0004        217.0004
 -18410827.97249 -14332134.44247  21216338.597    21216339.0424   21216343.2674
       201.0004        201.0004
  -4540475.30147  -3505575.11045  23411803.978    23411804.0464   23411808.5954
       160.0004        162.0004
 -16131205.35049 -12539138.76447  21345103.210    21345103.4194   21345110.4814
       206.0004        206.0004
 -15598679.64848 -12131686.40646  21616124.851    21616126.3094   21616134.4114
       186.0004        187.0004
  -9419170.53348  -7313993.23246  22791444.539    22791445.3264   22791451.6234
       169.0004        169.0004
  -2423287.36747  -1874108.28346  23471993.074    23471992.1974   23471998.3234
       163.0004        164.0004
 21  1 31  0 14  0.0000000  0  9G21G30G08G07G17G09G01G04G14
 -15661433.37848 -12196489.27546  21747275.875    21747276.1724   21747278.8774
       183.0004        183.0004
  -6786377.02548  -5272700.31146  23138073.939    23138074.0594   23138080.8474
       171.0004        172.0004
 -14224593.42249 -11059919.01248  22013900.331    22013900.8714   22013907.5764
       217.0004        217.0004
 -18477076.01749 -14383756.29747  21203732.222    21203732.9094   21203736.6024
       201.0004        202.0004
  -4625630.15247  -3571929.48445  23395598.939    23395599.1704   23395603.5694
       160.0004        162.0004
 -16077332.38749 -12497159.84047  21355354.161    21355355.0064   21355361.8744
       206.0004        206.0004
 -15661732.83348 -12180818.74446  21604126.784    21604127.7454   21604135.6334
       187.0004        187.0004
  -9322971.97348  -7239033.33546  22809751.645    22809751.1274   22809758.5784
       167.0004        167.0004
  -2449509.77947  -1894541.29446  23467002.169    23467002.7764   23467007.9014
       163.0004        165.0004
 21  1 31  0 14 30.0000000  0  9G21G30G08G07G17G09G01G04G14
 -15655902.65848 -12192179.60446  21748327.473    21748328.0654   21748331.3034
       182.0004        182.0004
  -6874426.24248  -5341310.08046  23121318.947    23121318.7564   23121326.3894
       171.0004        172.0004
 -14137061.13949 -10991712.02748  22030557.081    22030557.5514   22030564.6164
       217.0004        217.0004
 -18543107.00449 -14435209.01347  21191166.924    21191167.4334   21191171.0884
       201.0004        201.0004
  -4710470.60647  -3638038.85046  23379455.301    23379456.3304   23379460.4414
       163.0004        166.0004
 -16023070.28649 -12454877.68547  21365680.670    21365680.9194   21365688.0334
       205.0004        206.0004
 -15724473.75148 -12229707.75147  21592188.133    21592188.5464   21592197.0974
       187.0004        188.0004
  -9226663.26748  -7163987.60346  22828077.825    22828079.1854   22828085.3594
       167.0004        169.0004
  -2475708.65147  -1914955.94746  23462017.883    23462018.0634   23462023.1504
       164.0004        166.0004
 21  1 31  0 15  0.0000000  0  9G21G30G08G07G17G09G01G04G14
 -15649887.92648 -12187492.77346  21749473.036    21749473.0914   21749475.9794
       182.0004        182.0004
  -6962460.88348  -5409908.48646  23104566.828    23104566.4164   23104573.5704
       171.0004        172.0004
 -14049334.03649 -10923353.23648  22047252.143    22047251.9144   22047258.3244
       217.0004        216.0004
 -18608917.95249 -14486490.27147  21178643.101    21178643.4154   21178647.8094
       201.0004        201.0004
  -4794993.97947  -3703901.14346  23363369.400    23363370.7334   23363375.5114
       163.0004        164.0004
 -15968421.26049 -12412294.02947  21376080.458    21376080.4294   21376087.1464
       205.0004        205.0004
 -15786898.74148 -12278350.57847  21580309.512    21580310.3114   21580317.8994
       188.0004        189.0004
  -9130246.92648  -7088857.99046  22846426.032    22846426.2964   22846432.7814
       168.0004        169.0004
  -2501884.60147  -1935352.77146  23457036.056    23457037.4064   23457041.5614
       163.0004        163.0004
 21  1 31  0 15 30.0000000  0  9G21G30G08G07G17G09G01G04G14
 -15643389.38448 -12182428.94846  21750709.879    21750709.1734   21750713.3514
       182.0004        182.0004
  -7050480.01648  -5478494.81846  23087816.466    23087817.5314   23087823.5634
       169.0004        169.0004
 -13961415.65749 -10854845.40548  22063981.770    22063982.0754   22063989.0984
       216.0004        215.0004
 -18674507.07549 -14537598.67447  21166160.991    21166162.2224   21166166.8914
       201.0004        202.0004
  -4879200.17647  -3769516.30346  23347346.736    23347346.5894   23347351.8314
       163.0004        165.0004
 -15913389.15649 -12369411.88547  21386552.443    21386552.8264   21386559.3124
       205.0004        204.0004
 -15849005.71648 -12326745.60547  21568491.362    21568491.4804   21568498.9734
       189.0004        189.0004
  -9033727.05748  -7013647.71346  22864794.654    22864794.3764   22864800.0824
       168.0004        169.0004
  -2528040.14347  -1955733.70246  23452057.629    23452058.6914   23452064.7884
       161.0004        163.0004
 21  1 31  0 16  0.0000000  0  9G21G30G08G07G17G09G01G04G14
 -15636406.57948 -12176987.78146  21752037.318    21752037.7864   21752042.0914
       182.0004        182.0004
  -7138481.93348  -5547067.75246  23071070.606    23071070.2064   23071077.5244
       169.0004        171.0004
 -13873309.56249 -10786191.30248  22080747.251    22080748.0254   22080754.8774
       215.0004        215.0004
 -18739871.83549 -14588532.24547  21153723.891    21153723.9024   21153727.6364
       201.0004        201.0004
  -4963087.83447  -3834883.25446  23331383.872    23331383.6784   23331388.9244
       164.0004        167.0004
 -15857977.10049 -12326233.66347  21397096.861    21397097.0084   21397103.9494
       204.0004        204.0004
 -15910791.96348 -12374890.71947  21556732.498    21556733.1904   21556740.9544
       188.0004        188.0004
  -8937107.03148  -6938359.39746  22883179.145    22883180.1684   22883185.9644
       169.0004        170.0004
  -2554176.90147  -1976099.95945  23447084.426    23447084.6014   23447091.9604
       160.0004        160.0004
 21  1 31  0 16 30.0000000  0  9G21G30G08G07G17G09G01G04G14
 -15628936.99548 -12171167.30246  21753459.717    21753459.4704   21753463.8134
       183.0004        184.0004
  -7226462.33048  -5615623.88746  23054328.344    23054328.4214   23054335.9964
       171.0004        172.0004
 -13785015.96649 -10717391.09148  22097549.339    22097549.6264   22097556.3414
       215.0004        215.0004
 -18805007.41049 -14639287.23447  21141329.167    21141329.2804   21141332.8444
       201.0004        201.0004
  -5046652.86848  -3899998.79446  23315480.862    23315481.5334   23315487.6444
       165.0004        165.0004
 -15802185.50249 -12282759.69447  21407713.120    21407713.4524   21407720.9384
       204.0004        204.0004
 -15972252.05648 -12422781.66747  21545037.205    21545038.4634   21545045.5474
       188.0004        188.0004
  -8840387.58348  -6862993.60946  22901584.608    22901584.4134   22901591.7454
       170.0004        170.0004
  -2580293.81547  -1996450.74145  23442113.160    23442114.7804   23442120.6794
       158.0004        160.0004
 21  1 31  0 17  0.0000000  0  9G21G30G08G07G17G09G01G04G14
 -15620981.17548 -12164967.95046  21754972.715    21754973.1854   21754977.8574
       183.0004        184.0004
  -7314420.17748  -5684162.44446  23037590.954    23037590.3964   23037599.1544
       172.0004        172.0004
 -13696539.49949 -10648448.39548  22114386.326    22114386.1454   22114392.8864
       215.0004        214.0004
 -18869912.67049 -14689862.77447  21128977.639    21128978.3234   21128982.5814
       202.0004        202.0004
  -5129895.12347  -3964862.82246  23299640.037    23299641.0484   23299646.2874
       164.0004        166.0004
 -15746018.23849 -12238993.01947  21418402.437    21418402.1974   21418409.0234
       204.0004        204.0004
 -16033383.85048 -12470416.81147  21533405.172    21533405.1044   21533412.4504
       188.0004        188.0004
  -8743572.73948  -6787553.49146  22920007.352    22920008.0084   22920014.7784
       169.0004        169.0004
  -2606393.13647  -2016787.87045  23437147.280    23437148.3264   23437153.4664
       158.0004        159.0004
 21  1 31  0 17 30.0000000  0  9G21G30G08G07G17G09G01G04G14
 -15612537.41248 -12158388.35946  21756579.793    21756579.5654   21756584.5584
       184.0004        184.0004
  -7402352.91048  -5752681.44746  23020858.036    23020857.4274   23020864.8604
       172.0004        173.0004
 -13607882.51249 -10579365.01848  22131257.107    22131256.7554   22131263.4334
       214.0004        213.0004
 -18934583.85349 -14740255.89147  21116671.409    21116671.7764   21116675.8594
       202.0004        203.0004
  -5212811.76148  -4029473.12946  23283861.516    23283862.1814   23283867.6214
       165.0004        167.0004
 -15689477.53549 -12194935.32247  21429160.356    21429160.9964   21429168.5984
       203.0004        204.0004
 -16094183.73148 -12517793.32547  21521835.577    21521835.9574   21521842.9554
       188.0004        189.0004
  -8646664.94748  -6712040.94446  22938447.884    22938448.8814   22938455.3884
       168.0004        168.0004
  -2632475.64647  -2037111.84845  23432185.178    23432186.1374   23432190.8474
       158.0004        161.0004
 21  1 31  0 18  0.0000000  0  9G21G30G08G07G17G09G01G04G14
 -15603606.58648 -12151429.25546  21758279.703    21758279.4974   21758284.6404
       185.0004        185.0004
  -7490259.88048  -5821180.37846  23004129.744    23004130.0104   23004137.2134
       172.0004        172.0004
 -13519048.89049 -10510144.01547  22148160.971    22148160.5544   22148168.0904
       213.0004        211.0004
 -18999019.66149 -14790465.62847  21104409.389    21104410.0674   21104413.6364
       202.0004        202.0004
  -5295402.52648  -4093829.48246  23268146.202    23268146.0164   23268151.4294
       167.0004        169.0004
 -15632567.65849 -12150589.97647  21439990.436    21439991.0004   21439998.5314
       203.0004        204.0004
 -16154650.04848 -12564909.91747  21510328.107    21510328.3744   21510336.8644
       188.0004        188.0004
  -8549668.67848  -6636459.43846  22956906.190    22956907.0304   22956911.9444
       168.0004        169.0004
  -2658543.97247  -2057424.79145  23427224.330    23427224.8624   23427230.5514
       160.0004        162.0004
 21  1 31  0 18 30.0000000  0  9G21G30G08G07G17G09G01G04G14
 -15594187.97548 -12144090.06246  21760072.553    21760071.7424   21760076.9454
       185.0004        185.0004
  -7578138.63748  -5889657.34446  22987407.235    22987407.2424   22987413.6254
       172.0004        172.0004
 -13430041.41549 -10440787.54447  22165096.627    22165097.9894   22165105.7884
       211.0004        211.0004
 -19063217.33149 -14840489.79047  21092193.504    21092193.2224   21092197.4044
       202.0004        202.0004
  -5377665.84748  -4157930.72746  23252491.128    23252490.7444   23252498.7624
       167.0004        168.0004
 -15575291.09149 -12105958.89747  21450889.495    21450889.7764   21450897.4714
       203.0004        202.0004
 -16214779.39748 -12611763.91747  21498884.604    21498885.4274   21498894.0864
       187.0004        188.0004
  -8452586.60848  -6560811.07946  22975381.601    22975381.4264   22975386.8324
       168.0004        169.0004
  -2684599.16847  -2077727.49245  23422265.916    23422266.3404   23422271.5014
       160.0004        162.0004
 21  1 31  0 19  0.0000000  0 10G21G30G08G22G07G17G09G01G04G14
 -15584280.04948 -12136369.56646  21761957.474    21761956.8724   21761962.2684
       185.0004        186.0004
  -7665986.06448  -5958109.85946  22970690.521    22970690.8484   22970697.5144
       172.0004        175.0004
 -13340862.04449 -10371297.12447  22182068.455    22182068.6124   22182075.8044
       212.0004        211.0004
  -2021591.11254
        74.0004
 -19127172.99449 -14890325.36447  21080022.063    21080022.9314   21080027.2734
       203.0004        203.0004
  -5459599.05748  -4221774.71746  23236898.751    23236899.4954   23236906.9144
       166.0004        166.0004
 -15517649.52349 -12061043.38947  21461858.545    21461859.3934   21461866.0194
       202.0004        203.0004
 -16274567.50348 -12658352.02947  21487509.098    21487509.8974   21487517.8454
       189.0004        192.0004
  -8355420.62848  -6485097.33346  22993870.034    22993870.9504   22993877.6224
       168.0004        168.0004
  -2710641.26047  -2098019.99645  23417311.913    23417311.6414   23417316.0474
       161.0004        162.0004
 21  1 31  0 19 30.0000000  0 11G21G28G30G08G22G07G17G09G01G04G14
 -15573883.09548 -12128268.01946  21763935.661    21763935.5164   21763941.2294
       186.0004        186.0004
   1406007.12554   1418387.467 2                                  24702658.895
        74.0004         27.000
  -7753800.79248  -6026536.92246  22953980.751    22953979.6344   22953986.4164
       173.0004        173.0004
 -13251514.64449 -10301675.77447  22199071.470    22199070.9754   22199078.2034
       212.0004        212.0004
  -2021591.11244
        74.0004
 -19190884.93649 -14939971.03047  21067898.469    21067898.9004   21067903.0494
       202.0004        202.0004
  -5541201.10348  -4285360.69646  23221370.497    23221371.1074   23221377.5484
       165.0004        166.0004
 -15459646.62249 -12015846.34347  21472896.853    21472897.1624   21472903.7964
       202.0004        203.0004
 -16334012.10948 -12704672.50247  21476199.547    21476199.6014   21476205.5304
       193.0004        195.0004
  -8258174.47548  -6409321.13246  23012375.094    23012376.4744   23012382.7984
       167.0004        168.0004
  -2736672.29147  -2118303.91945  23412357.423    23412358.2664   23412362.6024
       161.0004        161.0004
 21  1 31  0 20  0.0000000  0 10G21G30G08G22G07G17G09G01G04G14
 -15562995.50948 -12119784.16746  21766007.130    21766007.2484   21766012.8764
       186.0004        186.0004
  -7841579.82248  -6094936.14046  22937274.120    22937275.1294   22937283.0474
       170.0004        171.0004
 -13162000.92449 -10231924.82247  22216104.036    22216104.2844   22216112.4694
       212.0004        212.0004
  -2021591.11244
        74.0004
 -19254349.12449 -14989423.64747  21055822.324    21055822.6594   21055826.1584
       202.0004        203.0004
  -5622469.44547  -4348686.65946  23205906.753    23205906.9574   23205911.4594
       164.0004        165.0004
 -15401284.19249 -11970369.13047  21484002.285    21484002.6164   21484009.8054
       202.0004        202.0004
 -16393109.15148 -12750722.15047  21464952.157    21464952.9934   21464958.6804
       194.0004        193.0004
  -8160850.16948  -6333484.03346  23030896.549    23030896.3804   23030903.5374
       167.0004        168.0004
  -2762692.53747  -2138579.41045  23407405.843    23407405.3174   23407410.8774
       158.0004        158.0004
 21  1 31  0 20 30.0000000  0 10G21G28G30G08G07G17G09G01G04G14
 -15551616.60248 -12110917.48346  21768172.840    21768172.4554   21768178.0814
       186.0004        187.0004
   -144148.90854   -104643.752 3                                  23701053.155
        74.0004         74.000
  -7929320.83148  -6163305.74446  22920578.252    22920577.4274   22920586.0714
       170.0004        170.0004
 -13072323.63249 -10162046.42147  22233169.822    22233169.9084   22233177.2684
       211.0004        210.0004
 -19317563.18449 -15038681.33647  21043792.302    21043792.5184   21043797.0874
       203.0004        203.0004
  -5703402.62247  -4411751.41746  23190505.975    23190506.2294   23190511.0564
       163.0004        163.0004
 -15342565.03649 -11924613.95347  21495175.568    21495176.4344   21495184.0134
       202.0004        203.0004
 -16451855.51848 -12796498.52047  21453771.081    21453770.9564   21453780.0024
       191.0004        188.0004
  -8063450.59248  -6257588.27246  23049430.204    23049431.5074   23049436.9154
       167.0004        168.0004
  -2788703.12247  -2158847.37145  23402455.455    23402455.9394   23402461.5544
       157.0004        158.0004
 21  1 31  0 21  0.0000000  0 10G21G28G30G08G07G17G09G01G04G14
 -15539746.36448 -12101667.92446  21770431.568    21770432.0124   21770436.9174
       187.0004        187.0004
   -161278.51844   -117991.304 4                                  23697766.571
        74.0004        131.000
  -8017022.12848  -6231644.41946  22903888.794    22903889.6064   22903897.0494
       169.0004        170.0004
 -12982485.75149 -10092042.89047  22250265.400    22250265.5884   22250272.8644
       210.0004        210.0004
 -19380524.58149 -15087742.15947  21031811.246    21031811.5314   21031815.8044
       203.0004        203.0004
  -5783999.52347  -4474554.18146  23175169.868    23175169.0044   23175172.6324
       163.0004        163.0004
 -15283492.40249 -11878583.34047  21506417.558    21506417.7894   21506424.6094
       202.0004        203.0004
 -16510248.54248 -12841999.53546  21442658.009    21442658.8974   21442668.6394
       187.0004        187.0004
  -7965979.06348  -6181636.43946  23067979.401    23067978.9904   23067985.2924
       167.0004        167.0004
  -2814705.64647  -2179109.06845  23397507.364    23397508.3584   23397513.8744
       157.0004        158.0004
 21  1 31  0 21 30.0000000  0 10G21G28G30G08G07G17G09G01G04G14
 -15527384.45548 -12092035.24646  21772784.909    21772784.1714   21772789.3474
       187.0004        187.0004
   -176869.69946   -130140.32045  23694794.760                    23694802.2054
       117.0004        139.0004
  -8104681.69648  -6299950.57446  22887207.290    22887208.1414   22887216.8944
       170.0004        172.0004
 -12892490.83049 -10021916.97447  22267391.097    22267390.8514   22267398.4354
       210.0004        211.0004
 -19443230.71649 -15136604.08847  21019878.723    21019879.3754   21019883.2134
       203.0004        203.0004
  -5864258.49047  -4537093.65045  23159895.809    23159896.0674   23159897.8474
       160.0004        160.0004
 -15224069.27849 -11832279.61147  21517724.695    21517725.1424   21517732.8284
       202.0004        202.0004
 -16568285.22248 -12887222.89847  21431614.280    21431615.9024   21431624.3554
       187.0004        188.0004
  -7868438.75448  -6105631.02646  23086540.269    23086540.8464   23086546.6404
       166.0004        167.0004
  -2840701.51647  -2199365.58545  23392561.972    23392562.8024   23392566.1444
       156.0004        158.0004
 21  1 31  0 22  0.0000000  0 10G21G28G30G08G07G17G09G01G04G14
 -15514530.20948 -12082018.93946  21775230.632    21775230.1194   21775235.2684
       187.0004        186.0004
   -191934.87046   -141879.43145  23691928.719    23691928.5184   23691933.7354
       132.0004        141.0004
  -8192297.03648  -6368222.24146  22870534.942    22870535.4144   22870543.0334
       171.0004        173.0004
 -12802341.31549  -9951670.59747  22284543.709    22284545.2584   22284553.2724
       210.0004        210.0004
 -19505678.49149 -15185264.68247  21007995.619    21007995.6494   21008000.0534
       203.0004        203.0004
  -5944177.62147  -4599368.28245  23144686.888    23144687.9364   23144689.8614
       157.0004        159.0004
 -15164298.19549 -11785704.74247  21529099.389    21529099.8014   21529106.9564
       202.0004        203.0004
 -16625962.17548 -12932165.95547  21420639.924    21420641.0604   21420648.5544
       189.0004        191.0004
  -7770832.17647  -6029573.97646  23105113.712    23105114.5234   23105120.9324
       164.0004        164.0004
  -2866691.57147  -2219617.54845  23387615.826    23387616.0404   23387620.8064
       156.0004        158.0004
 21  1 31  0 22 30.0000000  0 10G21G28G30G08G07G17G09G01G04G14
 -15501183.56848 -12071618.93946  21777770.121    21777769.9924   21777775.1264
       187.0004        187.0004
   -206979.45047   -153602.46445  23689064.895    23689064.8944   23689070.6434
       135.0004        141.0004
  -8279866.35948  -6436458.07046  22853871.580    22853871.5254   22853880.1164
       171.0004        172.0004
 -12712040.26949  -9881306.15147  22301729.209    22301729.3514   22301736.8204
       209.0004        209.0004
 -19567865.71849 -15233722.26547  20996161.109    20996161.6084   20996166.0034
       203.0004        203.0004
  -6023755.71647  -4661377.19245  23129544.445    23129544.3324   23129548.2024
       159.0004        161.0004
 -15104182.41549 -11738861.27747  21540539.397    21540539.3494   21540546.2604
       202.0004        202.0004
 -16683276.76148 -12976826.66147  21409734.429    21409735.2514   21409742.0084
       191.0004        193.0004
  -7673162.71847  -5953467.90946  23123699.108    23123699.8954   23123706.2044
       162.0004        164.0004
  -2892677.33647  -2239866.21045  23382669.519    23382670.2134   23382675.2114
       154.0004        155.0004
 21  1 31  0 23  0.0000000  0 10G21G28G30G08G07G17G09G01G04G14
 -15487346.11748 -12060836.49546  21780403.206    21780402.8054   21780408.1304
       186.0004        187.0004
   -222006.77547   -165312.05245  23686206.815    23686205.6174   23686210.2614
       136.0004        142.0004
  -8367389.42648  -6504657.83146  22837216.635    22837216.9804   22837224.4654
       172.0004        174.0004
 -12621592.55649  -9810827.41847  22318941.110    22318940.9454   22318948.4094
       208.0004        208.0004
 -19629791.53449 -15281976.15147  20984377.392    20984378.0134   20984382.1934
       203.0004        204.0004
  -6102993.38847  -4723120.77545  23114464.236    23114464.6774   23114470.6784
       159.0004        162.0004
 -15043726.71449 -11691752.94647  21552043.484    21552043.8834   21552050.6604
       202.0004        203.0004
 -16740227.84848 -13021204.12047  21398897.847    21398898.0434   21398904.9604
       193.0004        194.0004
  -7575435.26647  -5877316.65446  23142296.714    23142297.1214   23142303.3004
       162.0004        163.0004
  -2918662.06247  -2260114.02545  23377725.435    23377725.5194   23377731.8624
       153.0004        156.0004
 21  1 31  0 23 30.0000000  0 10G21G28G30G08G07G17G09G01G04G14
 -15473015.17148 -12049669.50746  21783130.241    21783130.4834   21783134.8514
       187.0004        187.0004
   -237016.33647   -177007.77945  23683348.962    23683349.8814   23683354.3014
       138.0004        143.0004
  -8454861.58348  -6572817.95246  22820570.590    22820571.1224   22820578.2924
       171.0004        172.0004
 -12530998.56849  -9740234.69247  22336180.318    22336180.3494   22336187.9504
       208.0004        207.0004
 -19691450.88449 -15330022.39047  20972643.733    20972644.1254   20972648.7324
       204.0004        203.0004
  -6181886.78947  -4784596.11846  23099453.286    23099453.2534   23099459.4514
       163.0004        168.0004
 -14982931.59049 -11644380.13147  21563612.543    21563613.2474   21563619.7184
       203.0004        204.0004
 -16796809.99648 -13065294.08847  21388129.915    21388130.4304   21388137.2734
       193.0004        193.0004
  -7477650.24847  -5801120.54846  23160903.790    23160905.2734   23160912.2464
       162.0004        163.0004
  -2944644.39847  -2280359.97145  23372780.749    23372781.3274   23372787.0874
       155.0004        158.0004
 21  1 31  0 24  0.0000000  0 10G21G28G30G08G07G17G09G01G04G14
 -15458189.86848 -12038117.30246  21785951.708    21785951.1194   21785956.4234
       187.0004        187.0004
   -252009.22747   -188690.52145  23680495.705    23680496.2884   23680502.2714
       140.0004        143.0004
  -8542280.15248  -6640936.32246  22803936.922    22803936.9634   22803944.1974
       174.0004        177.0004
 -12440261.15549  -9669530.21547  22353447.521    22353447.3414   22353453.9844
       207.0004        207.0004
 -19752840.47549 -15377858.43447  20960961.412    20960962.0324   20960966.5484
       203.0004        203.0004
  -6260434.00048  -4845801.68246  23084505.381    23084505.8574   23084512.7004
       167.0004        169.0004
 -14921799.48949 -11596744.73147  21575245.564    21575245.7174   21575253.2564
       203.0004        203.0004
 -16853019.73048 -13109093.86547  21377432.474    21377433.0324   21377441.1534
       193.0004        192.0004
  -7379810.14147  -5724881.53546  23179523.507    23179523.3424   23179530.5924
       162.0004        164.0004
  -2970625.04547  -2300604.58845  23367837.663    23367837.8224   23367842.9104
       156.0004        160.0004
 21  1 31  0 24 30.0000000  0 10G21G28G30G08G07G17G09G01G04G14
 -15442868.79748 -12026178.77746  21788867.766    21788867.1794   21788871.9034
       187.0004        187.0004
   -266986.09247   -200360.78445  23677647.030    23677647.3174   23677651.2284
       140.0004        144.0004
  -8629642.08448  -6709010.54246  22787311.894    22787311.8384   22787319.6224
       176.0004        177.0004
 -12349381.59249  -9598714.97547  22370741.375    22370741.3974   22370748.0444
       207.0004        207.0004
 -19813956.71249 -15425481.48147  20949332.072    20949332.5064   20949336.2734
       203.0004        204.0004
  -6338631.94448  -4906735.11646  23069623.290    23069624.7684   23069632.1084
       167.0004        169.0004
 -14860332.39149 -11548848.28947  21586942.280    21586942.8744   21586949.4684
       203.0004        203.0004
 -16908853.13248 -13152600.39447  21366807.795    21366808.1484   21366816.3724
       191.0004        191.0004
  -7281917.00147  -5648601.20046  23198152.037    23198152.3434   23198159.5444
       163.0004        164.0004
  -2996604.32447  -2320848.14745  23362892.963    23362893.4904   23362898.4494
       158.0004        160.0004
 21  1 31  0 25  0.0000000  0 10G21G28G30G08G07G17G09G01G04G14
 -15427051.12548 -12013853.30346  21791876.906    21791876.7324   21791881.5414
       187.0004        186.0004
   -281947.81347   -212019.23245  23674800.343    23674800.0094   23674806.1044
       141.0004        146.0004
  -8716944.68648  -6777038.54546  22770698.623    22770699.1204   22770705.8484
       177.0004        178.0004
 -12258362.83149  -9527791.25947  22388060.782    22388060.9754   22388068.2404
       207.0004        206.0004
 -19874796.25649 -15472888.91947  20937754.673    20937754.8974   20937758.9124
       203.0004        203.0004
  -6416479.26348  -4967395.33546  23054810.675    23054811.4054   23054818.8844
       171.0004        173.0004
 -14798532.74849 -11500692.73747  21598703.240    21598703.0734   21598709.5414
       202.0004        202.0004
 -16964306.71048 -13195810.96347  21356254.342    21356255.2124   21356263.5264
       190.0004        190.0004
  -7183973.29247  -5572281.45446  23216790.327    23216791.0934   23216798.1024
       164.0004        165.0004
  -3022582.93247  -2341091.18545  23357949.388    23357950.1584   23357956.8914
       159.0004        161.0004
 21  1 31  0 25 30.0000000  0 10G21G28G30G08G07G17G09G01G04G14
 -15410737.40548 -12001141.29346  21794980.526    21794981.1514   21794985.6204
       186.0004        186.0004
   -296897.16047   -223668.05445  23671953.840    23671954.3464   23671959.8534
       142.0004        146.0004
  -8804186.47948  -6845019.13946  22754097.546    22754097.7404   22754103.9914
       177.0004        178.0004
 -12167207.70549  -9456761.28747  22405406.272    22405406.7494   22405415.0174
       206.0004        205.0004
 -19935357.45449 -15520079.44347  20926228.996    20926230.2824   20926234.8214
       203.0004        204.0004
  -6493975.59248  -5027782.02946  23040064.246    23040064.7394   23040071.0894
       172.0004        174.0004
 -14736404.29249 -11452280.94347  21610524.752    21610525.2754   21610532.2204
       202.0004        203.0004
 -17019378.26748 -13238723.82447  21345773.973    21345775.3594   21345784.0054
       190.0004        190.0004
  -7085982.65647  -5495925.12746  23235437.623    23235437.5784   23235443.4944
       162.0004        163.0004
  -3048562.86647  -2361335.26745  23353005.400    23353006.6384   23353011.7334
       158.0004        160.0004
 21  1 31  0 26  0.0000000  0 10G21G28G30G08G07G17G09G01G04G14
 -15393927.91448 -11988042.97046  21798180.853    21798180.1234   21798184.9664
       186.0004        186.0004
   -311835.90647   -235308.60045  23669110.790    23669111.0484   23669117.6514
       143.0004        147.0004
  -8891365.57948  -6912950.90146  22737508.840    22737508.5784   22737515.1064
       180.0004        182.0004
 -12075919.83449  -9385627.89247  22422777.968    22422778.3294   22422786.6944
       205.0004        205.0004
 -19995637.87949 -15567051.19547  20914759.559    20914759.8014   20914763.1944
       203.0004        204.0004
  -6571119.18848  -5087893.87046  23025384.916    23025385.0754   23025391.2034
       173.0004        174.0004
 -14673950.25249 -11403615.46547  21622409.763    21622409.9814   21622417.5244
       202.0004        202.0004
 -17074065.18448 -13281336.97847  21335368.576    21335368.9034   21335377.4554
       190.0004        190.0004
  -6987948.34347  -5419534.75645  23254090.681    23254091.7774   23254099.0894
       160.0004        160.0004
  -3074545.61547  -2381581.53545  23348061.599    23348061.9144   23348066.2614
       157.0004        160.0004
 21  1 31  0 26 30.0000000  0 10G21G28G30G08G07G17G09G01G04G14
 -15376622.27948 -11974558.03046  21801473.379    21801472.4194   21801477.8954
       186.0004        185.0004
   -326765.20947   -246941.75745  23666271.473    23666271.3544   23666275.5304
       145.0004        150.0004
  -8978479.33348  -6980831.73646  22720931.731    22720931.8074   22720938.1564
       181.0004        182.0004
 -11984501.83149  -9314393.08547  22440175.538    22440175.4514   22440182.8334
       205.0004        206.0004
 -20055634.02549 -15613801.44947  20903342.837    20903343.1104   20903346.3994
       204.0004        204.0004
  -6647908.69048  -5147729.78046  23010771.343    23010771.2734   23010778.5424
       172.0004        172.0004
 -14611173.20649 -11354698.28747  21634355.422    21634355.7184   21634363.2454
       201.0004        201.0004
 -17128364.03748 -13323647.74947  21325035.938    21325036.8764   21325044.8574
       190.0004        191.0004
  -6889872.79947  -5343112.29445  23272755.034    23272755.3104   23272762.3024
       160.0004        161.0004
  -3100531.84647  -2401830.50846  23343117.309    23343117.6044   23343122.7954
       160.0004        163.0004
 21  1 31  0 27  0.0000000  0 10G21G28G30G08G07G17G09G01G04G14
