     2.11           OBSERVATION DATA    G (GPS)             RINEX VERSION / TYPE
teqc  2018Jun8                          20210202 03:10:43UTCPGM / RUN BY / DATE
Linux2.6.32-573.12.1.el6.x86_64|x86_64|gcc|Win64-MinGW64|=+ COMMENT
BIT 2 OF LLI FLAGS DATA COLLECTED UNDER A/S CONDITION       COMMENT
-Unknown-                                                   MARKER NAME
CRNO                                                        MARKER NUMBER
-Unknown-           -Unknown-                               OBSERVER / AGENCY
-Unknown-           ASHTECH             -Unknown-           REC # / TYPE / VERS
-Unknown-           -Unknown-                               ANT # / TYPE
   408079.4599 -6158376.9227  1605163.6412                  APPROX POSITION XYZ
        0.0000        0.0000        0.0000                  ANTENNA: DELTA H/E/N
     1     1                                                WAVELENGTH FACT L1/2
     7    L1    L2    C1    P1    P2    S1    S2            # / TYPES OF OBSERV
    30.0000                                                 INTERVAL
Forced Modulo Decimation to 30 seconds                      COMMENT
 SNR is mapped to RINEX snr flag value [1-9]                COMMENT
  L1: 1 -> 1;  90 -> 5; 210 -> 9                            COMMENT
  L2: 1 -> 1; 150 -> 5; 250 -> 9                            COMMENT
pseudorange smoothing corrections not applied               COMMENT
  2021     2     2     0     0   30.0000000     GPS         TIME OF FIRST OBS
                                                            END OF HEADER
 21  2  2  0  0 30.0000000  0  8G30G04G27G21G01G09G08G07
  -1941261.83347  -1485950.30145  24242594.863    24242594.2244   24242601.5724
       151.0004        154.0004
 -15391860.05848 -11965175.60747  21633707.767    21633708.1294   21633714.4264
       190.0004        189.0004
  -6295261.11048  -4887707.10346  23816293.645    23816294.3094   23816301.1884
       180.0004        180.0004
 -12515216.00248  -9375541.05046  21883786.890    21883786.5704   21883792.1114
       178.0004        179.0004
  -8127764.37648  -6315430.55146  22517972.284    22517973.2524   22517982.1464
       168.0004        169.0004
 -19305211.41949 -15026331.43148  20851681.705    20851681.9774   20851688.6984
       213.0004        213.0004
 -19567037.22849 -15225301.05347  21013496.016    21013496.2604   21013503.6934
       200.0004        200.0004
 -13218033.36248 -10282980.42046  22265377.678    22265378.0574   22265382.1204
       186.0004        186.0004
 21  2  2  0  1  0.0000000  0  8G30G04G27G21G01G09G08G07
  -2025879.23447  -1551885.89345  24226492.530    24226492.2364   24226499.6414
       152.0004        154.0004
 -15309994.75448 -11901384.48247  21649285.940    21649286.4264   21649292.9874
       190.0004        189.0004
  -6188372.43748  -4804417.23746  23836633.920    23836634.9284   23836642.4124
       179.0004        180.0004
 -12539201.45948  -9394231.02146  21879222.325    21879222.0644   21879227.7124
       178.0004        179.0004
  -8204162.25748  -6374961.34846  22503434.568    22503434.3604   22503443.7924
       168.0004        169.0004
 -19282974.30749 -15009003.82747  20855912.991    20855913.2514   20855920.0684
       212.0004        212.0004
 -19499162.82049 -15172411.90747  21026410.962    21026411.9524   21026419.9844
       199.0004        199.0004
 -13292912.11248 -10341327.50246  22251128.775    22251128.8024   22251133.5474
       186.0004        187.0004
 21  2  2  0  1 30.0000000  0  8G30G04G27G21G01G09G08G07
  -2110598.57947  -1617900.90645  24210370.761    24210370.5044   24210378.3944
       153.0004        156.0004
 -15227818.71948 -11837351.20647  21664923.154    21664924.4554   21664931.1464
       191.0004        190.0004
  -6081387.60648  -4721052.41246  23856993.618    23856994.0404   23856998.8024
       179.0004        179.0004
 -12562805.44548  -9412623.71046  21874731.024    21874730.0044   21874735.3684
       178.0004        178.0004
  -8280466.17148  -6434418.90946  22488914.464    22488914.8384   22488923.9274
       169.0004        169.0004
 -19260206.25149 -14991262.47648  20860245.437    20860245.7884   20860253.2484
       212.0004        213.0004
 -19430898.45049 -15119218.88747  21039401.322    21039402.2194   21039409.9654
       199.0004        199.0004
 -13367744.89148 -10399638.73446  22236887.494    22236888.2034   22236892.9044
       185.0004        186.0004
 21  2  2  0  2  0.0000000  0  8G30G04G27G21G01G09G08G07
  -2195418.97447  -1683994.68045  24194228.585    24194229.2114   24194237.3164
       154.0004        157.0004
 -15145335.20248 -11773078.35447  21680619.552    21680620.1424   21680626.4684
       191.0004        190.0004
  -5974309.64848  -4637615.07846  23877369.800    23877370.2554   23877376.4774
       179.0004        181.0004
 -12586025.98648  -9430717.62946  21870311.362    21870311.7474   21870316.9874
       178.0004        178.0004
  -8356673.28948  -6493801.05746  22474411.861    22474412.6994   22474422.9324
       169.0004        170.0004
 -19236909.06049 -14973108.82948  20864678.501    20864679.0134   20864686.1534
       212.0004        213.0004
 -19362246.76349 -15065724.07347  21052466.943    21052466.5744   21052474.0684
       199.0004        200.0004
 -13442529.61048 -10457912.53047  22222656.382    22222657.1434   22222661.9394
       186.0004        188.0004
 21  2  2  0  2 30.0000000  0  8G30G04G27G21G01G09G08G07
  -2280337.45247  -1750164.87145  24178069.098    24178070.1914   24178078.0704
       155.0004        157.0004
 -15062545.61448 -11708566.99747  21696374.147    21696374.3374   21696381.0024
       191.0004        189.0004
  -5867139.79448  -4554106.10046  23897762.618    23897763.5544   23897770.5924
       181.0004        181.0004
 -12608859.18648  -9448509.71446  21865965.770    21865966.4254   21865972.1224
       178.0004        179.0004
  -8432778.85848  -6553104.08246  22459929.963    22459931.2884   22459938.6264
       170.0004        171.0004
 -19213082.64449 -14954542.79348  20869213.063    20869213.3524   20869220.2974
       212.0004        213.0004
 -19293209.63249 -15011928.90147  21065603.785    21065603.5934   21065611.0904
       200.0004        200.0004
 -13517263.04548 -10516146.35747  22208435.848    22208436.1694   22208440.5784
       187.0004        188.0004
 21  2  2  0  3  0.0000000  0  8G30G04G27G21G01G09G08G07
  -2365354.14247  -1816411.58545  24161890.979    24161891.4484   24161899.9924
       154.0004        157.0004
 -14979454.19648 -11643820.45647  21712186.446    21712186.7224   21712192.5814
       190.0004        188.0004
  -5759882.34948  -4470528.91346  23918173.151    23918173.2044   23918181.3794
       179.0004        178.0004
 -12631304.66248  -9465999.68946  21861694.542    21861694.4234   21861700.9784
       179.0004        180.0004
  -8508781.10248  -6612326.58646  22445466.632    22445467.7834   22445476.3674
       169.0004        169.0004
 -19188729.90449 -14935566.63148  20873847.195    20873847.3044   20873854.7584
       213.0004        213.0004
 -19223791.03049 -14957836.48247  21078813.063    21078813.2854   21078820.9544
       199.0004        198.0004
 -13591943.75748 -10574339.11147  22194224.845    22194225.0384   22194229.2264
       188.0004        189.0004
 21  2  2  0  3 30.0000000  0  8G30G04G27G21G01G09G08G07
  -2450468.47047  -1882734.39345  24145695.256    24145695.3924   24145703.6354
       155.0004        158.0004
 -14896064.77748 -11578841.69447  21728054.819    21728054.9354   21728061.2214
       190.0004        189.0004
  -5652540.79348  -4386886.13346  23938599.359    23938598.7854   23938608.4824
       177.0004        177.0004
 -12653361.06148  -9483186.47546  21857496.897    21857497.5924   21857503.8274
       178.0004        180.0004
  -8584677.70948  -6671466.79046  22431025.090    22431025.8334   22431034.1674
       169.0004        170.0004
 -19163853.18449 -14916182.18047  20878580.710    20878581.4404   20878588.1234
       212.0004        212.0004
 -19153994.72749 -14903449.75747  21092095.568    21092095.2314   21092102.6914
       198.0004        198.0004
 -13666570.46448 -10632489.78447  22180023.529    22180023.5894   22180028.0014
       188.0004        188.0004
 21  2  2  0  4  0.0000000  0  8G30G04G27G21G01G09G08G07
  -2535678.88547  -1949132.08445  24129479.996    24129480.4344   24129487.8034
       156.0004        159.0004
 -14812380.14048 -11513632.89647  21743978.944    21743979.6984   21743985.8664
       189.0004        189.0004
  -5545117.93148  -4303180.01646  23959043.762    23959042.5634   23959049.2424
       177.0004        179.0004
 -12675026.33548  -9500068.47646  21853376.334    21853375.8414   21853381.3104
       179.0004        179.0004
  -8660465.25448  -6730521.97846  22416602.733    22416603.3494   22416612.8124
       170.0004        172.0004
 -19138453.91449 -14896390.54247  20883414.370    20883414.5384   20883421.8974
       212.0004        212.0004
 -19083823.64649 -14848770.98347  21105447.711    21105448.0044   21105455.8994
       197.0004        197.0004
 -13741140.70348 -10690596.45546  22165833.767    22165834.0064   22165837.4584
       187.0004        186.0004
 21  2  2  0  4 30.0000000  0  8G30G04G27G21G01G09G08G07
  -2620984.68047  -2015604.10245  24113247.063    24113247.2404   24113254.0594
       156.0004        158.0004
 -14728403.86448 -11448196.84346  21759959.361    21759959.6794   21759965.4484
       189.0004        187.0004
  -5437617.05648  -4219413.13246  23979498.673    23979498.0114   23979505.7694
       176.0004        175.0004
 -12696298.88748  -9516644.48946  21849327.181    21849327.2744   21849332.0714
       178.0004        178.0004
  -8736141.24748  -6789490.24246  22402201.658    22402202.3754   22402211.6244
       171.0004        172.0004
 -19112534.31949 -14876193.46247  20888346.343    20888346.8234   20888353.9744
       212.0004        212.0004
 -19013281.14649 -14793802.80347  21118871.262    21118872.0334   21118880.1094
       198.0004        199.0004
 -13815652.50748 -10748657.58547  22151654.018    22151654.3824   22151658.8154
       187.0004        188.0004
 21  2  2  0  5  0.0000000  0  8G30G04G27G21G01G09G08G07
  -2706383.47847  -2082148.58445  24096997.017    24096996.3684   24097002.5694
       156.0004        159.0004
 -14644137.92148 -11382535.07247  21775994.249    21775994.9534   21776001.2964
       188.0004        188.0004
  -5330039.96748  -4135586.87646  23999969.761    23999969.9254   23999977.2024
       174.0004        174.0004
 -12717176.08648  -9532912.41346  21845353.437    21845354.4484   21845358.6794
       178.0004        178.0004
  -8811701.45748  -6848368.28546  22387822.131    22387823.2734   22387832.5694
       171.0004        172.0004
 -19086094.95349 -14855591.36447  20893378.273    20893378.6024   20893385.1484
       212.0004        212.0004
 -18942368.78449 -14738546.42047  21132366.359    21132366.7054   21132374.4554
       198.0004        199.0004
 -13890103.15848 -10806671.06547  22137485.666    22137486.3074   22137491.8824
       189.0004        190.0004
 21  2  2  0  5 30.0000000  0  8G30G04G27G21G01G09G08G07
  -2791872.85047  -2148763.64845  24080727.810    24080728.5504   24080734.2624
       156.0004        158.0004
 -14559584.27148 -11316649.11946  21792084.434    21792084.4354   21792091.0464
       188.0004        187.0004
  -5222388.43748  -4051702.56346  24020453.595    24020454.2344   24020462.4354
       171.0004        171.0004
 -12737654.52448  -9548869.61446  21841457.280    21841457.1284   21841463.0704
       177.0004        177.0004
  -8887141.69148  -6907152.85346  22373467.206    22373467.6304   22373476.6714
       171.0004        173.0004
 -19059136.46649 -14834584.75047  20898508.084    20898508.2754   20898515.5154
       212.0004        212.0004
 -18871088.63549 -14683003.43747  21145930.378    21145930.0684   21145938.2874
       198.0004        198.0004
 -13964489.11048 -10864634.12847  22123331.151    22123332.0874   22123336.4954
       190.0004        191.0004
 21  2  2  0  6  0.0000000  0  8G30G04G27G21G01G09G08G07
  -2877451.77047  -2215448.46745  24064443.579    24064442.6244   24064450.2894
       156.0004        158.0004
 -14474746.29948 -11250541.61946  21808228.183    21808229.1454   21808235.5214
       187.0004        187.0004
  -5114665.63548  -3967762.74546  24040953.259    24040954.0934   24040961.8124
       173.0004        174.0004
 -12757733.49548  -9564515.53746  21837637.106    21837636.7424   21837642.3334
       178.0004        179.0004
  -8962459.17548  -6965841.76546  22359134.390    22359135.4854   22359143.3784
       172.0004        173.0004
 -19031660.92549 -14813175.25247  20903736.048    20903736.8884   20903743.7954
       212.0004        212.0004
 -18799444.02149 -14627176.48247  21159563.123    21159563.7604   21159571.6274
       196.0004        196.0004
 -14038808.39248 -10922545.24247  22109189.085    22109189.1714   22109193.6124
       191.0004        191.0004
 21  2  2  0  6 30.0000000  0  8G30G04G27G21G01G09G08G07
  -2963119.04847  -2282202.12745  24048139.348    24048140.4454   24048148.7654
       157.0004        160.0004
 -14389627.19548 -11184215.06246  21824426.575    21824426.5934   21824433.2474
       187.0004        187.0004
  -5006874.53548  -3883769.69646  24061465.699    24061465.1614   24061473.5494
       171.0004        171.0004
 -12777410.32748  -9579848.10646  21833892.083    21833891.6974   21833897.7094
       179.0004        179.0004
  -9037650.87948  -7024432.68546  22344826.987    22344827.9554   22344835.7934
       172.0004        174.0004
 -19003670.24049 -14791364.32747  20909062.897    20909062.8554   20909070.3654
       212.0004        212.0004
 -18727437.80849 -14571067.74547  21173266.044    21173266.6784   21173274.2014
       196.0004        197.0004
 -14113058.93948 -10980402.80047  22095059.767    22095059.7364   22095064.8844
       190.0004        190.0004
 21  2  2  0  7  0.0000000  0  8G30G04G27G21G01G09G08G07
  -3048873.27647  -2349023.58345  24031821.991    24031822.4704   24031830.8904
       159.0004        162.0004
 -14304229.91948 -11117671.73346  21840676.073    21840676.5614   21840683.7384
       187.0004        185.0004
  -4899017.86848  -3799725.58146  24081989.654    24081989.9434   24081997.4424
       172.0004        173.0004
 -12796683.60348  -9594866.22346  21830224.424    21830224.5204   21830230.7054
       179.0004        179.0004
  -9112713.62148  -7082923.10746  22330543.138    22330544.0294   22330552.0854
       173.0004        174.0004
 -18975166.04649 -14769153.27947  20914486.206    20914487.1814   20914494.5324
       211.0004        212.0004
 -18655073.62149 -14514680.06547  21187036.567    21187036.6934   21187045.0804
       197.0004        197.0004
 -14187238.44048 -11038204.99847  22080943.697    22080943.7844   22080948.7684
       190.0004        190.0004
 21  2  2  0  7 30.0000000  0  9G30G04G27G21G01G17G09G08G07
  -3134713.07947  -2415911.69245  24015488.425    24015488.1454   24015496.2684
       160.0004        162.0004
 -14218557.54048 -11050914.05346  21856979.578    21856979.7184   21856985.5624
       185.0004        183.0004
  -4791098.46548  -3715632.52446  24102524.803    24102526.2164   24102534.6274
       173.0004        174.0004
 -12815551.65048  -9609568.56146  21826633.358    21826633.6564   21826639.9924
       179.0004        180.0004
  -9187644.23648  -7141310.54846  22316283.941    22316284.1324   22316293.7644
       173.0004        175.0004
   1362494.20354   1092428.30945                                  24709222.2474
        74.0004        142.0004
 -18946150.17849 -14746543.51147  20920008.614    20920008.7404   20920016.2514
       212.0004        212.0004
 -18582353.95749 -14458015.37847  21200874.175    21200874.7034   21200882.5794
       197.0004        197.0004
 -14261344.85348 -11095950.23947  22066842.019    22066842.3444   22066846.5194
       191.0004        192.0004
 21  2  2  0  8  0.0000000  0  8G30G04G27G21G01G09G08G07
  -3220637.29747  -2482865.60045  23999135.876    23999136.5234   23999143.9384
       157.0004        158.0004
 -14132613.33248 -10983944.54846  21873334.227    21873334.8334   21873341.4624
       185.0004        184.0004
  -4683119.31448  -3631492.96346  24123073.240    24123074.5054   24123081.3844
       172.0004        172.0004
 -12834012.59848  -9623953.69046  21823120.961    21823120.7714   21823127.2164
       179.0004        179.0004
  -9262439.83748  -7199592.81346  22302049.628    22302050.5374   22302060.7044
       174.0004        175.0004
 -18916624.64049 -14723536.61247  20925627.348    20925627.6004   20925634.6854
       212.0004        212.0004
 -18509281.49749 -14401075.80647  21214779.308    21214779.8304   21214787.8304
       196.0004        196.0004
 -14335375.61448 -11153636.54547  22052754.051    22052755.0604   22052758.9014
       192.0004        192.0004
 21  2  2  0  8 30.0000000  0  8G30G04G27G21G01G09G08G07
  -3306643.69247  -2549883.54745  23982770.929    23982770.4184   23982776.5104
       155.0004        156.0004
 -14046399.59048 -10916765.01546  21889739.925    21889740.5574   21889748.0074
       185.0004        185.0004
  -4575082.46248  -3547308.38446  24143630.844    24143633.2534   24143641.0894
       173.0004        174.0004
 -12852064.04948  -9638019.73246  21819686.807    21819686.4164   21819692.0844
       179.0004        180.0004
  -9337096.47148  -7257766.77646  22287842.748    22287843.5024   22287854.9374
       174.0004        175.0004
 -18886590.52949 -14700133.40747  20931341.993    20931342.5524   20931349.6604
       211.0004        211.0004
 -18435859.44749 -14343863.81947  21228751.638    21228751.7234   21228759.1634
       195.0004        195.0004
 -14409327.98948 -11211261.76247  22038681.524    22038681.4964   22038685.7544
       191.0004        191.0004
 21  2  2  0  9  0.0000000  0  9G30G04G27G21G01G17G09G08G07
  -3392730.98547  -2616964.52445  23966388.620    23966388.9904   23966395.8724
       155.0004        157.0004
 -13959919.50848 -10849377.94346  21906196.932    21906197.3784   21906203.4614
       185.0004        185.0004
  -4466990.79948  -3463081.16546  24164200.806    24164202.0674   24164209.9584
       174.0004        175.0004
 -12869704.34948  -9651765.39146  21816329.561    21816329.4934   21816335.0304
       179.0004        179.0004
  -9411611.09248  -7315830.08946  22273664.307    22273664.7974   22273673.9934
       173.0004        175.0004
  -1286149.13757   -985671.75845  24322981.214    24322980.8145   24322988.3494
       141.0004        147.0004
 -18856049.78849 -14676335.42447  20937153.949    20937154.0194   20937161.7674
       211.0004        211.0004
 -18362090.45849 -14286381.48247  21242789.828    21242789.5894   21242797.0464
       195.0004        195.0004
 -14483199.72448 -11268824.13847  22024623.354    22024624.5784   22024628.8904
       191.0004        190.0004
 21  2  2  0  9 30.0000000  0  9G30G04G27G21G01G17G09G08G07
  -3478902.58347  -2684111.19545  23949989.935    23949990.6024   23949998.3664
       155.0004        158.0004
 -13873180.95048 -10781789.44746  21922702.501    21922702.9154   21922709.6364
       185.0004        183.0004
  -4358851.90348  -3378817.10446  24184778.612    24184780.0654   24184788.1564
       173.0004        174.0004
 -12886936.62948  -9665193.12846  21813049.429    21813049.4104   21813055.2264
       179.0004        179.0004
  -9485985.38148  -7373784.06046  22259511.517    22259512.2064   22259520.3764
       174.0004        176.0004
  -1384629.62747  -1062409.53045  24304239.924    24304239.6584   24304247.0844
       142.0004        147.0004
 -18825009.12049 -14652147.89347  20943060.333    20943061.1864   20943068.4314
       211.0004        211.0004
 -18287982.41949 -14228634.95347  21256891.553    21256892.1404   21256899.2784
       195.0004        196.0004
 -14556993.20748 -11326325.54247  22010581.760    22010581.8474   22010586.2824
       191.0004        191.0004
 21  2  2  0 10  0.0000000  0  9G30G04G27G21G01G17G09G08G07
  -3565150.41747  -2751317.22845  23933577.505    23933576.9184   23933585.0724
       154.0004        156.0004
 -13786180.34048 -10713996.78346  21939258.048    21939258.5494   21939266.2464
       184.0004        184.0004
  -4250661.87548  -3294513.23446  24205367.738    24205367.9284   24205375.7864
       174.0004        175.0004
 -12903752.08448  -9678296.06346  21809849.371    21809849.5804   21809855.6514
       179.0004        180.0004
  -9560209.46848  -7431620.98746  22245386.757    22245387.2954   22245396.1164
       174.0004        175.0004
  -1482899.99847  -1138983.59745  24285538.888    24285540.0114   24285546.3274
       142.0004        145.0004
 -18793463.73749 -14627567.08547  20949064.104    20949064.3204   20949071.1464
       211.0004        212.0004
 -18213531.75649 -14170621.44947  21271059.486    21271059.7144   21271067.0714
       195.0004        196.0004
 -14630699.87648 -11383759.29647  21996555.682    21996556.0904   21996560.4314
       191.0004        192.0004
 21  2  2  0 10 30.0000000  0  9G30G04G27G21G01G17G09G08G07
  -3651473.32747  -2818581.78245  23917150.190    23917150.0544   23917158.2324
       154.0004        157.0004
 -13698921.11948 -10646002.59846  21955863.273    21955863.7454   21955870.3054
       185.0004        184.0004
  -4142423.88048  -3210171.95746  24225964.659    24225965.8564   24225972.8164
       175.0004        177.0004
 -12920149.62148  -9691073.32546  21806729.598    21806729.2974   21806735.5434
       180.0004        180.0004
  -9634280.49748  -7489338.63646  22231290.803    22231292.2564   22231300.7214
       175.0004        176.0004
  -1580958.22847  -1215392.37945  24266878.628    24266880.6034   24266886.5054
       142.0004        146.0004
 -18761415.88949 -14602594.74147  20955161.835    20955162.8374   20955169.8254
       211.0004        211.0004
 -18138741.48649 -14112343.32347  21285292.023    21285291.9884   21285299.4654
       196.0004        196.0004
 -14704317.54848 -11441123.71947  21982547.532    21982546.7404   21982551.0794
       192.0004        192.0004
 21  2  2  0 11  0.0000000  0  9G30G04G27G21G01G17G09G08G07
  -3737870.78847  -2885904.45445  23900710.343    23900710.4354   23900717.6334
       156.0004        159.0004
 -13611407.22748 -10577809.97046  21972517.217    21972517.1194   21972523.8924
       184.0004        183.0004
  -4034141.38248  -3125796.01346  24246571.000    24246571.6884   24246577.7394
       176.0004        177.0004
 -12936128.15048  -9703524.11046  21803689.456    21803688.9764   21803694.5034
       180.0004        179.0004
  -9708196.33348  -7546935.36146  22217225.224    22217226.4474   22217235.0184
       175.0004        176.0004
  -1678803.71347  -1291635.39845  24248258.917    24248259.3104   24248267.6134
       140.0004        143.0004
 -18728868.46149 -14577233.11447  20961355.965    20961356.0984   20961363.5294
       211.0004        212.0004
 -18063615.86749 -14053803.87347  21299586.483    21299586.8714   21299595.2894
       195.0004        195.0004
 -14777844.64748 -11498417.54647  21968553.984    21968555.1574   21968558.7944
       191.0004        191.0004
 21  2  2  0 11 30.0000000  0  9G30G04G27G21G01G17G09G08G07
  -3824341.21647  -2953283.96345  23884255.939    23884255.4214   23884263.0144
       157.0004        160.0004
 -13523641.62148 -10509421.18846  21989217.767    21989218.3184   21989224.7454
       184.0004        183.0004
  -3925817.20248  -3041387.56846  24267184.988    24267185.4704   24267192.2394
       178.0004        179.0004
 -12951686.00148  -9715647.07546  21800727.793    21800728.1944   21800734.2814
       180.0004        180.0004
  -9781953.59348  -7604408.52846  22203190.642    22203190.5074   22203200.1884
       176.0004        176.0004
  -1776433.55247  -1367710.36845  24229681.180    24229682.8954   24229689.0634
       136.0004        139.0004
 -18695823.25949 -14551483.60547  20967644.312    20967644.3364   20967651.8784
       211.0004        212.0004
 -17988157.66648 -13995005.27347  21313945.499    21313946.5314   21313954.5454
       194.0004        194.0004
 -14851278.81448 -11555638.96747  21954580.865    21954581.4034   21954585.2884
       191.0004        192.0004
 21  2  2  0 12  0.0000000  0  9G30G04G27G21G01G17G09G08G07
  -3910883.84547  -3020719.72945  23867786.322    23867786.5074   23867794.3844
       156.0004        157.0004
 -13435628.08748 -10440839.21446  22005965.500    22005966.4094   22005973.2194
       184.0004        184.0004
  -3817454.64648  -2956949.25446  24287804.836    24287805.7324   24287811.8604
       177.0004        177.0004
 -12966822.30548  -9727441.57046  21797848.326    21797848.1264   21797853.6594
       181.0004        181.0004
  -9855549.73948  -7661756.15246  22189185.429    22189185.1634   22189195.0024
       176.0004        178.0004
  -1873845.56746  -1443615.68145  24211143.011    24211142.8304   24211151.2944
       133.0004        138.0004
 -18662282.93949 -14525348.29047  20974026.790    20974026.8434   20974034.1314
       211.0004        212.0004
 -17912370.42449 -13935950.28747  21328369.063    21328369.3974   21328376.0374
       195.0004        196.0004
 -14924618.14648 -11612786.48847  21940624.561    21940625.1184   21940629.6964
       192.0004        192.0004
 21  2  2  0 12 30.0000000  0  9G30G04G27G21G01G17G09G08G07
  -3997495.62347  -3088209.39645  23851305.038    23851305.1404   23851313.0034
       155.0004        156.0004
 -13347368.18848 -10372065.28846  22022761.380    22022762.2284   22022769.1674
       184.0004        183.0004
  -3709054.90248  -2872481.93846  24308433.339    24308433.7124   24308439.4864
       173.0004        173.0004
 -12981533.98648  -9738905.19246  21795049.081    21795048.7884   21795055.1274
       181.0004        182.0004
  -9928980.15548  -7718974.63546  22175211.672    22175212.6384   22175221.6634
       177.0004        177.0004
  -1971037.56447  -1519349.52845  24192648.466    24192648.6244   24192656.8214
       135.0004        142.0004
 -18628248.02449 -14498827.58348  20980503.575    20980504.2044   20980510.6434
       211.0004        213.0004
 -17836255.76649 -13876640.15647  21342853.571    21342853.6704   21342860.8384
       196.0004        197.0004
 -14997858.71048 -11669857.04247  21926688.210    21926688.7974   21926692.7744
       193.0004        194.0004
 21  2  2  0 13  0.0000000  0  9G30G04G27G21G01G17G09G08G07
  -4084175.78547  -3155752.36045  23834810.629    23834811.2124   23834818.3714
       154.0004        155.0004
 -13258865.78748 -10303102.38746  22039602.622    22039602.9844   22039609.3964
       183.0004        182.0004
  -3600621.43848  -2787988.33346  24329069.383    24329067.9114   24329074.2124
       172.0004        173.0004
 -12995820.28448  -9750037.33846  21792331.373    21792330.1694   21792336.0584
       181.0004        181.0004
 -10002242.30048  -7776062.00346  22161270.978    22161271.0664   22161280.0604
       177.0004        177.0004
  -2068007.88347  -1594910.60845  24174196.575    24174196.7644   24174202.7154
       140.0004        146.0004
 -18593721.23649 -14471923.59947  20987074.165    20987074.3294   20987080.9394
       211.0004        211.0004
 -17759817.47849 -13817077.85347  21357398.617    21357399.0614   21357406.2034
       195.0004        195.0004
 -15070999.26948 -11726849.68047  21912770.499    21912770.2024   21912774.2924
       194.0004        193.0004
 21  2  2  0 13 30.0000000  0  9G30G04G27G21G01G17G09G08G07
  -4170923.17447  -3223347.70845  23818303.339    23818303.7534   23818310.1944
       153.0004        155.0004
 -13170124.28448 -10233953.17046  22056489.484    22056490.0614   22056497.0694
       183.0004        183.0004
  -3492157.27848  -2703470.85646  24349708.189    24349708.1444   24349713.1824
       169.0004        169.0004
 -13009679.56848  -9760836.75246  21789692.415    21789692.0054   21789698.0774
       180.0004        180.0004
 -10075333.45548  -7833016.11446  22147360.407    22147361.7154   22147371.5294
       176.0004        176.0004
  -2164754.23347  -1670297.19745  24155786.506    24155786.3954   24155793.2364
       143.0004        147.0004
 -18558705.00049 -14444638.22047  20993736.817    20993737.5794   20993744.2274
       211.0004        211.0004
 -17683059.02249 -13757266.07247  21372005.543    21372005.9834   21372012.8014
       195.0004        195.0004
 -15144037.38448 -11783762.48547  21898869.603    21898870.8294   21898875.7094
       193.0004        193.0004
 21  2  2  0 14  0.0000000  0  9G30G04G27G21G01G17G09G08G07
  -4257735.88747  -3290993.90545  23801781.902    23801782.6134   23801791.0004
       152.0004        155.0004
 -13081146.39248 -10164619.75246  22073420.613    22073421.6984   22073428.6254
       183.0004        183.0004
  -3383664.83648  -2618931.25346  24370354.048    24370353.5084   24370359.6924
       169.0004        170.0004
 -13023109.75148  -9771301.79846  21787135.618    21787136.2764   21787141.5324
       180.0004        180.0004
 -10148249.98548  -7889834.14246  22133484.751    22133485.5854   22133496.1844
       176.0004        177.0004
  -2261274.16647  -1745507.36145  24137418.791    24137418.5984   24137426.6224
       145.0004        149.0004
 -18523200.92749 -14416972.70847  21000492.741    21000493.3664   21000501.0654
       211.0004        211.0004
 -17605983.35449 -13697207.10347  21386672.164    21386672.4464   21386680.1704
       195.0004        195.0004
 -15216970.57648 -11840593.53747  21884991.489    21884992.0634   21884997.0004
       193.0004        193.0004
 21  2  2  0 14 30.0000000  0  9G30G04G27G21G01G17G09G08G07
  -4344612.03547  -3358689.56845  23785251.359    23785251.2964   23785258.7864
       155.0004        158.0004
 -12991934.88748 -10095104.30746  22090397.863    22090398.6314   22090405.6654
       183.0004        183.0004
  -3275146.33748  -2534371.42646  24391003.273    24391003.9094   24391010.5514
       170.0004        171.0004
 -13036109.50348  -9781431.43746  21784662.516    21784662.1864   21784668.0804
       180.0004        179.0004
 -10220988.35448  -7946513.36046  22119644.176    22119645.0104   22119654.3684
       176.0004        178.0004
  -2357565.36447  -1820539.31445  24119094.215    24119095.0184   24119102.8124
       146.0004        150.0004
 -18487210.84949 -14388928.49147  21007341.827    21007342.2254   21007349.4894
       211.0004        211.0004
 -17528592.20848 -13636902.31447  21401399.761    21401399.6904   21401407.3694
       194.0004        195.0004
 -15289796.20148 -11897340.75747  21871133.531    21871133.7204   21871138.5464
       193.0004        193.0004
 21  2  2  0 15  0.0000000  0  9G30G04G27G21G01G17G09G08G07
  -4431549.40547  -3426432.97245  23768708.315    23768707.5754   23768714.7804
       156.0004        159.0004
 -12902492.27048 -10025408.78646  22107418.771    22107418.6094   22107425.8654
       183.0004        184.0004
  -3166603.81248  -2449792.90046  24411658.233    24411658.8524   24411665.3214
       170.0004        171.0004
 -13048676.25848  -9791223.70146  21782272.174    21782271.7174   21782277.1744
       180.0004        181.0004
 -10293544.79648  -8003050.81846  22105837.858    22105838.4334   22105846.1204
       176.0004        177.0004
  -2453625.36547  -1895391.11545  24100814.069    24100814.6354   24100821.6654
       146.0004        150.0004
 -18450736.22649 -14360506.71747  21014282.654    21014283.0354   21014290.2394
       210.0004        210.0004
 -17450888.77548 -13576354.18247  21416186.456    21416186.5344   21416193.3454
       194.0004        195.0004
 -15362511.17648 -11954001.77247  21857296.390    21857297.0384   21857301.8714
       193.0004        194.0004
 21  2  2  0 15 30.0000000  0  9G30G04G27G21G01G17G09G08G07
  -4518547.31847  -3494223.49145  23752151.902    23752151.5524   23752160.2454
       157.0004        159.0004
 -12812822.36848  -9955536.12646  22124482.561    22124483.2324   22124488.7104
       183.0004        182.0004
  -3058040.76048  -2365198.31746  24432315.714    24432316.9894   24432323.9544
       169.0004        170.0004
 -13060809.22748  -9800677.93246  21779962.783    21779962.8244   21779968.0014
       181.0004        182.0004
 -10365916.90448  -8059444.64046  22092065.412    22092065.8164   22092074.7694
       177.0004        179.0004
  -2549452.71747  -1970061.59545  24082579.101    24082579.8154   24082586.3954
       148.0004        152.0004
 -18413779.89849 -14331709.58247  21021314.736    21021315.2134   21021322.7764
       209.0004        209.0004
 -17372876.77948 -13515565.60347  21431031.298    21431031.6104   21431038.5434
       194.0004        195.0004
 -15435113.83048 -12010575.26047  21843481.199    21843481.1544   21843485.9054
       194.0004        195.0004
 21  2  2  0 16  0.0000000  0  9G30G04G27G21G01G17G09G08G07
  -4605603.46647  -3562059.39045  23735586.380    23735586.2844   23735594.0524
       158.0004        160.0004
 -12722927.63748  -9885488.29546  22141589.317    22141589.7954   22141596.1274
       184.0004        184.0004
  -2949459.02348  -2280589.21846  24452979.061    24452979.7594   24452987.7154
       167.0004        168.0004
 -13072506.30948  -9809792.51446  21777737.522    21777737.2974   21777742.8654
       181.0004        182.0004
 -10438100.72848  -8115691.73946  22078329.315    22078330.1874   22078338.7394
       178.0004        179.0004
  -2645044.24947  -2044548.36245  24064388.100    24064389.4144   24064396.1074
       152.0004        155.0004
 -18376343.38349 -14302538.26947  21028438.925    21028439.2084   21028447.0164
       209.0004        209.0004
 -17294558.08848 -13454538.04747  21445933.639    21445934.3334   21445942.5684
       194.0004        194.0004
 -15507600.90548 -12067058.68347  21829686.479    21829687.1504   21829692.0854
       194.0004        194.0004
 21  2  2  0 16 30.0000000  0  9G30G04G27G21G01G17G09G08G07
  -4692716.89847  -3629939.97045  23719008.285    23719008.2114   23719016.0634
       158.0004        159.0004
 -12632811.80748  -9815268.18446  22158737.905    22158737.8694   22158744.8434
       183.0004        182.0004
  -2840862.18248  -2195968.34646  24473644.718    24473645.3404   24473651.9164
       168.0004        170.0004
 -13083766.74348  -9818566.85946  21775594.291    21775593.7744   21775600.1994
       182.0004        183.0004
 -10510093.75748  -8171790.18746  22064629.935    22064630.2384   22064639.9934
       179.0004        180.0004
  -2740398.80647  -2118850.50345  24046244.479    24046244.2254   24046250.3784
       154.0004        157.0004
 -18338429.47049 -14272994.97047  21035653.354    21035653.6264   21035661.1254
       208.0004        209.0004
 -17215937.09448 -13393274.94647  21460895.682    21460896.0664   21460903.1034
       193.0004        194.0004
 -15579970.62348 -12123450.65147  21815914.938    21815915.7384   21815920.4874
       194.0004        194.0004
 21  2  2  0 17  0.0000000  0  9G30G04G27G21G01G17G09G08G07
  -4779886.08447  -3697863.97945  23702420.739    23702420.8894   23702428.9884
       156.0004        158.0004
 -12542477.96148  -9744878.18246  22175926.831    22175927.4274   22175933.6904
       182.0004        180.0004
  -2732252.67648  -2111337.59546  24494311.369    24494312.3814   24494320.7064
       168.0004        168.0004
 -13094589.00548  -9826999.76546  21773533.694    21773533.6554   21773540.3994
       182.0004        182.0004
 -10581892.81348  -8227737.48746  22050966.105    22050966.7604   22050976.2064
       179.0004        178.0004
  -2835514.42247  -2192966.43145  24028143.281    24028144.1424   24028149.6564
       152.0004        154.0004
 -18300040.32649 -14243081.35847  21042959.078    21042959.1234   21042966.5794
       208.0004        209.0004
 -17137016.48148 -13331778.36647  21475914.832    21475914.6834   21475921.0714
       194.0004        194.0004
 -15652220.89548 -12179749.57047  21802166.678    21802167.4214   21802171.8774
       194.0004        195.0004
 21  2  2  0 17 30.0000000  0  9G30G04G27G21G01G17G09G08G07
  -4867108.33347  -3765829.32645  23685823.517    23685823.6864   23685830.5164
       157.0004        159.0004
 -12451928.19348  -9674319.92546  22193157.611    22193158.0954   22193165.3954
       182.0004        181.0004
  -2623632.07248  -2026698.22746  24514982.197    24514982.2054   24514990.2094
       167.0004        168.0004
 -13104970.56548  -9835089.26146  21771558.584    21771558.5794   21771565.2684
       182.0004        181.0004
 -10653493.63348  -8283530.30046  22037341.750    22037341.8334   22037350.4864
       178.0004        178.0004
  -2930388.04447  -2266893.77845  24010089.923    24010090.9204   24010095.2994
       151.0004        152.0004
 -18261177.12449 -14212798.34247  21050354.380    21050354.6824   21050361.9934
       209.0004        209.0004
 -17057798.30948 -13270049.89647  21490989.052    21490989.4044   21490996.0974
       193.0004        193.0004
 -15724347.94949 -12235952.44647  21788441.437    21788441.7994   21788446.1504
       195.0004        195.0004
 21  2  2  0 18  0.0000000  0  9G30G04G27G21G01G17G09G08G07
  -4954382.34647  -3833835.03245  23669216.309    23669216.0604   23669223.0394
       157.0004        160.0004
 -12361165.96648  -9603596.11946  22210429.780    22210430.4274   22210435.4734
       180.0004        180.0004
  -2515003.28348  -1942052.41246  24535652.256    24535653.5084   24535661.1774
       167.0004        169.0004
 -13114910.87048  -9842834.95146  21769667.991    21769666.9144   21769672.5694
       182.0004        182.0004
 -10724893.38348  -8339166.43346  22023753.410    22023755.4714   22023763.9484
       178.0004        179.0004
  -3025017.58747  -2340631.00645  23992083.303    23992083.1334   23992089.0754
       150.0004        153.0004
 -18221842.40049 -14182147.91347  21057840.133    21057840.0794   21057847.1704
       209.0004        209.0004
 -16978285.85148 -13208092.14447  21506118.906    21506119.4464   21506126.0644
       192.0004        191.0004
 -15796349.78048 -12292057.76647  21774739.791    21774739.9794   21774744.3514
       194.0004        194.0004
 21  2  2  0 18 30.0000000  0  9G30G04G27G21G01G17G09G08G07
  -5041706.37047  -3901879.70045  23652598.266    23652598.6184   23652606.2524
       159.0004        161.0004
 -12270194.23748  -9532709.06246  22227740.542    22227741.3714   22227747.4944
       180.0004        179.0004
  -2406368.92848  -1857402.30746  24556322.465    24556324.7304   24556334.4334
       165.0004        166.0004
 -13124407.29148  -9850234.74346  21767861.466    21767860.2164   21767865.2424
       181.0004        182.0004
 -10796088.65548  -8394643.23646  22010205.189    22010205.6794   22010215.9444
       178.0004        178.0004
  -3119400.72847  -2414176.18845  23974121.898    23974122.6714   23974127.9684
       151.0004        155.0004
 -18182038.29449 -14151131.72547  21065414.670    21065414.8524   21065421.6994
       209.0004        210.0004
 -16898482.02648 -13145907.35047  21521305.240    21521305.7104   21521312.4674
       192.0004        192.0004
 -15868223.31048 -12348063.10247  21761062.320    21761062.9814   21761067.5874
       194.0004        195.0004
 21  2  2  0 19  0.0000000  0  9G30G04G27G21G01G17G09G08G07
  -5129078.05247  -3969961.51545  23635971.081    23635971.7814   23635979.3734
       160.0004        162.0004
 -12179015.34148  -9461660.58146  22245091.664    22245092.2244   22245098.3094
       180.0004        179.0004
  -2297730.69548  -1772749.20746  24576999.536    24576999.1824   24577007.6864
       168.0004        171.0004
 -13133457.79048  -9857287.07546  21766139.060    21766138.4974   21766143.0624
       182.0004        182.0004
 -10867075.65748  -8449957.77646  21996697.158    21996698.1314   21996707.5204
       178.0004        179.0004
  -3213535.32747  -2487527.72545  23956208.251    23956209.0574   23956213.9624
       152.0004        154.0004
 -18141766.28449 -14119750.94547  21073077.594    21073077.9804   21073085.1834
       209.0004        209.0004
 -16818388.88348 -13083497.10847  21536546.521    21536546.8094   21536554.4834
       192.0004        193.0004
 -15939966.03649 -12403966.52847  21747411.077    21747411.1144   21747415.6614
       195.0004        196.0004
 21  2  2  0 19 30.0000000  0  8G30G04G21G01G17G09G08G07
  -5216494.58047  -4038078.25745  23619336.368    23619335.9354   23619344.6594
       159.0004        160.0004
 -12087631.23448  -9390452.20046  22262481.458    22262482.5154   22262488.9884
       180.0004        180.0004
 -13142060.35248  -9863990.34246  21764501.688    21764501.0544   21764505.5174
       181.0004        182.0004
 -10937849.90348  -8505106.49546  21983230.355    21983230.3014   21983239.2114
       179.0004        178.0004
  -3307418.04747  -2560682.94145  23938341.834    23938342.1674   23938349.6144
       152.0004        155.0004
 -18101027.49949 -14088006.43347  21080829.391    21080830.1764   21080837.1884
       208.0004        208.0004
 -16738009.25648 -13020863.61947  21551842.714    21551842.6134   21551849.8434
       192.0004        192.0004
 -16011573.97649 -12459764.91147  21733784.170    21733784.5834   21733788.9154
       196.0004        196.0004
 21  2  2  0 20  0.0000000  0  8G30G04G21G01G17G09G08G07
  -5303955.99247  -4106229.94945  23602693.038    23602693.0084   23602700.4494
       158.0004        160.0004
 -11996046.77648  -9319087.70646  22279909.565    22279909.5884   22279916.7144
       179.0004        178.0004
 -13150215.35748  -9870344.88346  21762948.564    21762949.0654   21762954.3034
       182.0004        182.0004
 -11008409.92148  -8560088.30146  21969803.686    21969803.7864   21969811.7044
       178.0004        179.0004
  -3401048.32347  -2633641.46645  23920525.915    23920526.5464   23920531.9024
       154.0004        158.0004
 -18059825.94949 -14055901.33047  21088670.077    21088670.5484   21088678.0944
       208.0004        208.0004
 -16657347.06148 -12958009.97047  21567192.287    21567192.5064   21567198.9694
       192.0004        192.0004
 -16083046.55049 -12515457.82047  21720183.455    21720183.3904   21720188.0674
       196.0004        196.0004
 21  2  2  0 20 30.0000000  0  9G30G04G21G14G01G17G09G08G07
  -5391461.46347  -4174416.00346  23586042.714    23586042.5314   23586049.8864
       160.0004        164.0004
 -11904265.94348  -9247570.17446  22297374.476    22297375.3254   22297381.4294
       177.0004        176.0004
 -13157922.25648  -9876350.25146  21761481.909    21761482.0254   21761488.5304
       182.0004        182.0004
  -1475416.31354  -1140516.38844  23599842.877
        74.0004        117.0004
 -11078753.43148  -8614901.40646  21956417.360    21956417.6634   21956426.3274
       179.0004        179.0004
  -3494425.25347  -2706402.60245  23902757.065    23902757.3724   23902763.3534
       155.0004        158.0004
 -18018164.77849 -14023438.08747  21096598.441    21096598.8134   21096606.1374
       208.0004        209.0004
 -16576406.46848 -12894939.37847  21582594.579    21582594.0834   21582601.1534
       191.0004        190.0004
 -16154382.05749 -12571043.91247  21706608.836    21706609.3274   21706613.7884
       196.0004        196.0004
 21  2  2  0 21  0.0000000  0  9G30G04G21G14G01G17G09G08G07
  -5479008.26347  -4242634.26445  23569382.318    23569382.6394   23569389.7124
       160.0004        162.0004
 -11812290.71848  -9175901.16946  22314877.532    22314878.3864   22314884.1314
       176.0004        177.0004
 -13165178.85748  -9882004.71946  21760101.881    21760101.5894   21760107.2364
       183.0004        183.0004
  -1500811.74944  -1013399.161 3                                  23594980.447
        74.0004         74.000
 -11148876.09848  -8669542.40446  21943073.561    21943073.7424   21943083.1064
       179.0004        180.0004
  -3587545.54747  -2778963.76945  23885035.591    23885035.9764   23885042.9354
       155.0004        158.0004
 -17976045.24649 -13990617.67847  21104613.558    21104613.9054   21104620.8434
       209.0004        209.0004
 -16495189.45448 -12831653.38247  21598049.409    21598049.9774   21598056.6114
       190.0004        190.0004
 -16225576.98949 -12626520.47747  21693060.925    21693061.4104   21693065.4644
       196.0004        196.0004
 21  2  2  0 21 30.0000000  0  9G30G04G21G14G01G17G09G08G07
  -5566595.81647  -4310884.27946  23552714.823    23552715.3414   23552722.6624
       162.0004        164.0004
 -11720125.35348  -9104084.01246  22332415.862    22332416.5274   22332422.1694
       178.0004        177.0004
 -13171984.24548  -9887307.58846  21758807.302    21758806.5974   21758812.5384
       183.0004        183.0004
  -1522993.17044  -1030683.388 4                                  23590791.239
        74.0004        122.000
 -11218775.85848  -8724009.72346  21929772.491    21929772.6654   21929780.7094
       180.0004        181.0004
  -3680408.21647  -2851324.17145  23867366.042    23867365.9194   23867371.4724
       156.0004        158.0004
 -17933470.82249 -13957442.80347  21112713.838    21112714.7564   21112722.6124
       208.0004        208.0004
 -16413700.28348 -12768155.33247  21613556.677    21613557.0294   21613563.9574
       190.0004        191.0004
 -16296629.76949 -12681886.28547  21679539.997    21679540.1764   21679544.4274
       196.0004        195.0004
 21  2  2  0 22  0.0000000  0  9G30G04G21G14G01G17G09G08G07
  -5654220.75647  -4379163.44146  23536039.916    23536040.4764   23536047.5464
       164.0004        165.0004
 -11627771.36948  -9032119.86646  22349988.607    22349989.9394   22349997.6094
       177.0004        176.0004
 -13178335.97348  -9892256.95946  21757598.992    21757598.0664   21757604.7704
       184.0004        184.0004
  -1539718.04744  -1043715.743 5                                  23587609.826
        74.0004        142.000
 -11288447.90248  -8778299.59446  21916513.399    21916514.7444   21916522.3644
       179.0004        180.0004
  -3773009.70847  -2923481.04745  23849742.960    23849743.7854   23849749.6164
       155.0004        157.0004
 -17890442.23449 -13923914.03347  21120902.949    21120903.5644   21120910.4904
       208.0004        209.0004
 -16331939.82748 -12704445.88347  21629115.408    21629115.8844   21629122.6664
       191.0004        192.0004
 -16367536.37349 -12737138.16447  21666046.636    21666047.1054   21666051.0314
       196.0004        196.0004
 21  2  2  0 22 30.0000000  0  9G30G04G21G14G01G17G09G08G07
  -5741879.38447  -4447468.82046  23519358.652    23519359.2484   23519367.6704
       164.0004        165.0004
 -11535229.79448  -8960009.55646  22367598.662    22367600.2914   22367608.1934
       177.0004        176.0004
 -13184230.79948  -9896850.29946  21756475.525    21756476.0264   21756482.3114
       184.0004        183.0004
  -1583915.03847  -1078154.87345  23579194.817                    23579205.3684
       141.0004        154.0004
 -11357887.00548  -8832407.94646  21903299.498    21903299.9994   21903308.6674
       180.0004        181.0004
  -3865346.29847  -2995431.54745  23832170.945    23832171.6414   23832178.8244
       154.0004        157.0004
 -17846959.85749 -13890031.65647  21129177.798    21129177.8624   21129184.4524
       208.0004        208.0004
 -16249910.21848 -12640526.70247  21644724.801    21644725.0204   21644731.6384
       191.0004        191.0004
 -16438292.16849 -12792272.54647  21652581.778    21652582.3574   21652586.7634
       196.0004        196.0004
 21  2  2  0 23  0.0000000  0  9G30G04G21G14G01G17G09G08G07
  -5829572.02247  -4515800.70146  23502672.348    23502672.4964   23502680.3324
       164.0004        166.0004
 -11442505.75548  -8887757.07246  22385244.052    22385245.1544   22385251.8944
       175.0004        175.0004
 -13189669.68248  -9901088.38046  21755440.561    21755440.3744   21755446.8544
       183.0004        182.0004
  -1610903.88847  -1099185.16045  23574059.229    23574059.9034   23574068.6024
       152.0004        157.0004
 -11427091.98848  -8886333.88546  21890130.904    21890131.0734   21890139.9924
       181.0004        182.0004
  -3957417.73747  -3067175.43045  23814651.936    23814652.1894   23814657.5154
       155.0004        158.0004
 -17803028.08249 -13855799.11647  21137537.543    21137538.1894   21137545.1684
       208.0004        209.0004
 -16167615.65048 -12576401.07747  21660384.562    21660384.7494   21660391.7754
       190.0004        189.0004
 -16508896.77149 -12847289.11147  21639145.930    21639146.5004   21639151.4444
       196.0004        197.0004
 21  2  2  0 23 30.0000000  0  9G30G04G21G14G01G17G09G08G07
  -5917298.31848  -4584158.84046  23485979.346    23485979.5834   23485985.4114
       165.0004        166.0004
 -11349603.81548  -8815365.97546  22402923.704    22402924.9264   22402931.4884
       176.0004        177.0004
 -13194652.25748  -9904970.89846  21754492.560    21754493.1294   21754498.3294
       182.0004        182.0004
  -1637842.97547  -1120176.64045  23568933.789    23568934.1564   23568940.3094
       154.0004        157.0004
 -11496061.06348  -8940075.98846  21877005.875    21877006.0344   21877015.1854
       181.0004        182.0004
  -4049223.48047  -3138712.30745  23797181.991    23797181.5284   23797187.6504
       154.0004        156.0004
 -17758650.75249 -13821219.38047  21145982.522    21145982.8964   21145989.9494
       209.0004        209.0004
 -16085060.69048 -12512072.52547  21676093.371    21676093.9644   21676101.9364
       189.0004        189.0004
 -16579349.03949 -12902186.97147  21625739.560    21625739.8194   21625744.6794
       196.0004        195.0004
 21  2  2  0 24  0.0000000  0  9G30G04G21G14G01G17G09G08G07
  -6005055.42048  -4652540.98746  23469279.858    23469279.2804   23469285.9254
       165.0004        167.0004
 -11256525.95548  -8742837.79146  22420636.464    22420636.2714   22420642.9684
       176.0004        175.0004
 -13199176.47348  -9908496.24446  21753632.544    21753632.1704   21753637.3844
       182.0004        183.0004
  -1664732.62647  -1141129.59945  23563816.907    23563817.6704   23563821.7854
       154.0004        156.0004
 -11564789.97048  -8993630.95346  21863926.689    21863928.0384   21863937.0564
       181.0004        182.0004
  -4140760.95647  -3210040.14345  23779761.767    23779762.5844   23779767.4284
       152.0004        152.0004
 -17713829.18949 -13786293.50347  21154511.010    21154511.6384   21154519.0144
       209.0004        209.0004
 -16002247.38648 -12447542.69047  21691852.850    21691853.3344   21691860.6314
       189.0004        190.0004
 -16649645.47249 -12956963.41447  21612362.537    21612363.0354   21612367.5994
       196.0004        196.0004
 21  2  2  0 24 30.0000000  0  9G30G04G21G14G01G17G09G08G07
  -6092840.93748  -4720945.27946  23452574.007    23452573.7434   23452580.7404
       166.0004        167.0004
 -11163274.66848  -8670174.45246  22438380.768    22438381.3944   22438387.5914
       176.0004        176.0004
 -13203240.78348  -9911663.22446  21752858.300    21752857.9734   21752863.4204
       182.0004        182.0004
  -1691573.51147  -1162044.54545  23558707.356    23558708.4254   23558713.5414
       152.0004        154.0004
 -11633274.84148  -9046995.77346  21850894.566    21850895.2934   21850904.0224
       181.0004        182.0004
  -4232027.14747  -3281156.56445  23762393.253    23762394.6754   23762400.9584
       150.0004        153.0004
 -17668565.22549 -13751022.89447  21163124.660    21163125.1214   21163132.3414
       209.0004        209.0004
 -15919178.36449 -12382813.59647  21707661.002    21707661.5384   21707667.8824
       205.0004        209.0004
 -16719782.48649 -13011615.64147  21599016.541    21599016.6164   21599020.9574
       196.0004        197.0004
 21  2  2  0 25  0.0000000  0  9G30G04G21G14G01G17G09G08G07
  -6180651.62447  -4789369.17246  23435863.128    23435863.2304   23435872.0234
       164.0004        163.0004
 -11069851.55248  -8597377.21646  22456158.587    22456158.9894   22456165.5794
       176.0004        176.0004
 -13206842.20848  -9914469.51046  21752173.462    21752173.1424   21752178.0744
       182.0004        183.0004
  -1718365.46847  -1182921.38345  23553610.652    23553610.6274   23553615.9954
       154.0004        157.0004
 -11701510.97748  -9100166.76746  21837909.767    21837910.6934   21837918.8544
       181.0004        182.0004
  -4323018.68347  -3352058.99245  23745079.744    23745079.8524   23745085.9864
       154.0004        158.0004
 -17622859.75949 -13715408.24747  21171822.926    21171822.9114   21171830.0764
       209.0004        209.0004
 -15835854.73649 -12317886.08347  21723517.633    21723517.5324   21723524.0294
       209.0004        207.0004
 -16789756.59349 -13066140.90947  21585700.704    21585700.8914   21585705.8574
       197.0004        197.0004
 21  2  2  0 25 30.0000000  0  9G30G04G21G14G01G17G09G08G07
  -6268486.83547  -4857812.17046  23419147.340    23419149.2054   23419156.0824
       162.0004        164.0004
 -10976260.89648  -8524449.44746  22473969.601    22473969.4874   22473975.1204
       176.0004        175.0004
 -13209981.00148  -9916915.31346  21751576.236    21751575.7674   21751581.0624
       182.0004        183.0004
  -1745111.09247  -1203762.09845  23548520.313    23548521.0044   23548527.2004
       156.0004        158.0004
 -11769496.42048  -9153142.40446  21824972.876    21824973.3004   21824982.2134
       181.0004        182.0004
  -4413734.96347  -3422746.93545  23727817.861    23727817.8144   23727822.4354
       155.0004        157.0004
 -17576716.51649 -13679452.47947  21180603.249    21180603.8604   21180610.9894
       209.0004        209.0004
 -15752281.13049 -12252763.77548  21739419.957    21739420.1784   21739427.7314
       216.0004        220.0004
 -16859566.47649 -13120538.20447  21572415.446    21572416.3394   21572421.0494
       197.0004        197.0004
 21  2  2  0 26  0.0000000  0  9G30G04G21G14G01G17G09G08G07
  -6356344.36147  -4926272.56046  23402430.173    23402429.6414   23402438.1864
       162.0004        165.0004
 -10882505.34048  -8451393.19746  22491808.889    22491809.9854   22491816.3474
       175.0004        174.0004
 -13212655.55448  -9918999.37346  21751067.345    21751066.9024   21751072.5134
       183.0004        183.0004
  -1771811.28647  -1224567.42345  23543441.136    23543440.9844   23543445.2694
       155.0004        156.0004
 -11837227.50248  -9205919.84946  21812083.354    21812084.3874   21812093.2854
       181.0004        182.0004
  -4504173.32447  -3493218.31545  23710606.448    23710607.0924   23710612.8654
       155.0004        158.0004
 -17530137.52249 -13643157.16647  21189467.055    21189467.3304   21189474.3844
       209.0004        208.0004
 -15668459.77249 -12187448.44048  21755370.270    21755370.6644   21755378.6204
       220.0004        220.0004
 -16929208.40249 -13174804.64347  21559164.551    21559164.7904   21559168.6874
       197.0004        198.0004
 21  2  2  0 26 30.0000000  0  9G30G04G21G14G01G17G09G08G07
  -6444222.52647  -4994749.01646  23385707.290    23385708.1564   23385715.8794
       163.0004        165.0004
 -10788588.15148  -8378210.97846  22509680.430    22509681.1194   22509689.6234
       175.0004        176.0004
 -13214865.01548  -9920721.01246  21750647.627    21750647.2714   21750652.7924
       185.0004        187.0004
  -1798467.58647  -1245338.55245  23538367.445    23538367.7324   23538372.7814
       154.0004        157.0004
 -11904701.21748  -9258496.74846  21799244.271    21799244.5594   21799253.6464
       183.0004        184.0004
  -4594332.14847  -3563471.86645  23693450.575    23693451.8054   23693457.4994
       159.0004        161.0004
 -17483125.46949 -13606524.40547  21198413.609    21198413.8074   21198420.2584
       208.0004        208.0004
 -15584393.93849 -12121942.60248  21771368.251    21771368.2954   21771375.6654
       221.0004        221.0004
 -16998680.37749 -13228938.64847  21545943.391    21545944.0214   21545948.8484
       197.0004        197.0004
 21  2  2  0 27  0.0000000  0  9G30G04G21G14G01G17G09G08G07
  -6532119.40747  -5063240.10245  23368980.699    23368981.0704   23368988.1574
       162.0004        162.0004
 -10694512.35048  -8304905.16446  22527582.588    22527583.1364   22527591.1554
       175.0004        176.0004
 -13216608.08748  -9922079.23646  21750315.600    21750314.6364   21750321.3034
       186.0004        186.0004
  -1825081.21947  -1266076.42045  23533302.065    23533303.3514   23533309.4724
       157.0004        161.0004
 -11971914.24148  -9310870.51446  21786453.825    21786454.9974   21786463.6874
       183.0004        184.0004
  -4684209.81747  -3633506.37245  23676349.051    23676349.3204   23676353.6114
       159.0004        161.0004
 -17435682.73649 -13569556.04447  21207441.719    21207441.6784   21207448.5264
       208.0004        208.0004
 -15500086.64049 -12056248.60548  21787411.944    21787412.0284   21787418.2994
       221.0004        220.0004
 -17067979.67549 -13282938.09547  21532756.279    21532756.7924   21532761.5674
       197.0004        197.0004
 21  2  2  0 27 30.0000000  0  9G30G04G21G14G01G17G09G08G07
  -6620033.42847  -5131744.53046  23352251.579    23352252.5694   23352259.8974
       161.0004        164.0004
 -10600281.08948  -8231478.22146  22545515.132    22545515.7134   22545521.7284
       175.0004        175.0004
 -13217883.87848  -9923073.35346  21750072.663    21750071.7604   21750079.3894
       186.0004        187.0004
  -1851653.61547  -1286782.16946  23528246.324    23528247.0284   23528252.0774
       162.0004        164.0004
 -12038863.51648  -9363038.74946  21773713.658    21773714.5994   21773723.3214
       184.0004        184.0004
  -4773804.31647  -3703320.20645  23659298.212    23659298.2854   23659302.9924
       156.0004        157.0004
 -17387811.99049 -13532254.17447  21216551.093    21216551.4604   21216558.0264
       208.0004        208.0004
 -15415541.09149 -11990368.95248  21803500.618    21803500.6214   21803506.8164
       221.0004        220.0004
 -17137104.01349 -13336801.21247  21519603.244    21519604.0024   21519607.7144
       198.0004        198.0004
 21  2  2  0 28  0.0000000  0  9G30G04G21G14G01G17G09G08G07
  -6707962.49847  -5200260.64246  23335519.728    23335520.5484   23335527.9494
       164.0004        167.0004
 -10505897.42148  -8157932.48546  22563475.819    22563476.2354   22563482.1034
       175.0004        175.0004
 -13218690.99048  -9923702.23146  21749919.171    21749918.9714   21749925.9654
       187.0004        187.0004
  -1878186.02948  -1307456.77846  23523197.191    23523198.0834   23523203.8664
       165.0004        167.0004
 -12105545.76148  -9414998.90446  21761023.825    21761024.4654   21761033.6944
       183.0004        183.0004
  -4863113.34247  -3772911.60545  23642302.909    23642303.8644   23642309.2014
       155.0004        157.0004
 -17339515.66549 -13494620.67847  21225741.212    21225741.4564   21225748.2424
       207.0004        207.0004
 -15330760.42249 -11924306.09048  21819633.060    21819633.3274   21819640.0414
       220.0004        218.0004
 -17206050.83649 -13390526.01047  21506483.223    21506482.7604   21506487.2154
       198.0004        198.0004
 21  2  2  0 28 30.0000000  0  9G30G04G21G14G01G17G09G08G07
  -6795904.24448  -5268786.65946  23318784.308    23318785.0094   23318793.1014
       165.0004        165.0004
 -10411363.81048  -8084269.94846  22581464.071    22581464.8914   22581471.7594
       175.0004        175.0004
 -13219028.04748  -9923964.83847  21749855.045    21749854.9984   21749861.7974
       187.0004        188.0004
  -1904679.21348  -1328100.79746  23518156.031    23518156.7524   23518162.3194
       165.0004        165.0004
 -12171957.23948  -9466748.09546  21748387.178    21748388.1434   21748396.6374
       183.0004        185.0004
  -4952134.69247  -3842278.80945  23625361.685    23625361.9364   23625367.7914
       155.0004        157.0004
