     2.11           OBSERVATION DATA    G (GPS)             RINEX VERSION / TYPE
teqc  2018Jun8                          20210202 03:10:42UTCPGM / RUN BY / DATE
Linux2.6.32-573.12.1.el6.x86_64|x86_64|gcc|Win64-MinGW64|=+ COMMENT
BIT 2 OF LLI FLAGS DATA COLLECTED UNDER A/S CONDITION       COMMENT
-Unknown-                                                   MARKER NAME
CRNO                                                        MARKER NUMBER
-Unknown-           -Unknown-                               OBSERVER / AGENCY
-Unknown-           ASHTECH             -Unknown-           REC # / TYPE / VERS
-Unknown-           -Unknown-                               ANT # / TYPE
   408074.6207 -6158364.8294  1605158.4814                  APPROX POSITION XYZ
        0.0000        0.0000        0.0000                  ANTENNA: DELTA H/E/N
     1     1                                                WAVELENGTH FACT L1/2
     7    L1    L2    C1    P1    P2    S1    S2            # / TYPES OF OBSERV
    30.0000                                                 INTERVAL
Forced Modulo Decimation to 30 seconds                      COMMENT
 SNR is mapped to RINEX snr flag value [1-9]                COMMENT
  L1: 1 -> 1;  90 -> 5; 210 -> 9                            COMMENT
  L2: 1 -> 1; 150 -> 5; 250 -> 9                            COMMENT
pseudorange smoothing corrections not applied               COMMENT
  2021     1    31     0     0   30.0000000     GPS         TIME OF FIRST OBS
                                                            END OF HEADER
 21  1 31  0  0 30.0000000  0  7G07G04G08G27G09G21G01
 -12668212.05648  -9853697.27746  22502325.812    22502325.5274   22502330.1614
       186.0004        185.0004
 -15981395.69748 -12434798.81547  21384229.953    21384230.3424   21384236.5194
       194.0004        193.0004
 -19886049.31849 -15479262.41447  20818342.881    20818343.1984   20818350.1604
       205.0004        204.0004
  -7319404.65248  -5668627.47447  23486957.209    23486958.2134   23486964.3544
       190.0004        190.0004
 -18171055.49949 -14142909.72848  20797794.026    20797794.0394   20797801.0764
       214.0004        214.0004
 -12087851.68648  -9406147.21446  21970519.878    21970520.0234   21970526.0394
       174.0004        175.0004
 -10684708.94648  -8308411.01646  22756882.228    22756882.7774   22756891.3904
       166.0004        168.0004
 21  1 31  0  1  0.0000000  0  7G07G04G08G27G09G21G01
 -12743551.74848  -9912403.50946  22487989.377    22487989.3304   22487994.0114
       185.0004        186.0004
 -15905107.71348 -12375353.63147  21398747.680    21398748.0294   21398753.7954
       194.0004        193.0004
 -19824784.47549 -15431523.57147  20830000.843    20830001.3764   20830008.3274
       204.0004        204.0004
  -7214488.93648  -5586874.95447  23506922.069    23506922.2834   23506929.8454
       190.0004        189.0004
 -18157826.19949 -14132601.18448  20800310.836    20800311.4414   20800318.6714
       214.0004        214.0004
 -12117653.12548  -9429369.08846  21964850.072    21964850.0464   21964854.8944
       174.0004        175.0004
 -10762159.96648  -8368762.43646  22742144.811    22742144.3244   22742152.4434
       167.0004        169.0004
 21  1 31  0  1 30.0000000  0  7G07G04G08G27G09G21G01
 -12818882.14248  -9971102.48346  22473654.805    22473655.1864   22473658.5864
       186.0004        187.0004
 -15828462.91548 -12315630.40647  21413332.008    21413332.4484   21413339.1554
       194.0004        193.0004
 -19763086.03549 -15383446.84447  20841741.631    20841742.3794   20841748.9274
       204.0004        204.0004
  -7109431.21548  -5505011.78947  23526915.129    23526914.9494   23526921.0804
       189.0004        188.0004
 -18144046.62149 -14121863.83648  20802933.673    20802933.4974   20802940.6654
       214.0004        214.0004
 -12147109.80348  -9452322.31846  21959243.653    21959243.9634   21959249.0564
       173.0004        174.0004
 -10839569.05648  -8429081.18346  22727413.462    22727413.9754   22727421.9594
       168.0004        169.0004
 21  1 31  0  2  0.0000000  0  7G07G04G08G27G09G21G01
 -12894201.17848 -10029792.62346  22459322.045    22459322.8234   22459325.8324
       186.0004        187.0004
 -15751463.96348 -12255631.21747  21427985.268    21427985.0594   21427991.6764
       194.0004        193.0004
 -19700957.02949 -15335034.60847  20853565.553    20853565.6604   20853572.2054
       205.0004        205.0004
  -7004234.27048  -5423040.14247  23546933.082    23546933.0674   23546940.1084
       188.0004        189.0004
 -18129717.71549 -14110698.44748  20805659.974    20805660.5884   20805667.1364
       214.0004        215.0004
 -12176219.34148  -9475005.03746  21953704.720    21953704.6374   21953709.6324
       173.0004        173.0004
 -10916933.00748  -8489364.77346  22712692.330    22712692.3654   22712700.0214
       169.0004        169.0004
 21  1 31  0  2 30.0000000  0  7G07G04G08G27G09G21G01
 -12969505.31648 -10088471.17546  22444991.452    22444992.1024   22444996.6844
       187.0004        186.0004
 -15674112.42048 -12195357.29547  21442703.981    21442704.7064   21442710.9404
       194.0004        192.0004
 -19638399.11149 -15286288.16347  20865469.134    20865469.5384   20865476.8114
       205.0004        205.0004
  -6898899.78948  -5340961.33047  23566976.104    23566977.0044   23566984.2794
       188.0004        188.0004
 -18114839.29249 -14099104.87348  20808491.217    20808491.4574   20808498.8074
       214.0004        215.0004
 -12204978.16548  -9497414.49846  21948232.134    21948231.6894   21948236.9264
       172.0004        173.0004
 -10994247.53648  -8549609.84046  22697978.542    22697979.7684   22697988.5464
       168.0004        170.0004
 21  1 31  0  3  0.0000000  0  8G07G04G08G27G30G09G21G01
 -13044793.52548 -10147137.27247  22430664.835    22430665.5544   22430669.9164
       187.0004        188.0004
 -15596411.64048 -12134811.22047  21457489.605    21457490.5034   21457496.6634
       193.0004        192.0004
 -19575415.12449 -15237209.71447  20877454.322    20877454.5604   20877462.1194
       204.0004        204.0004
  -6793431.22448  -5258778.00547  23587045.854    23587047.3634   23587054.4664
       189.0004        189.0004
  -1173422.34556   -901189.37745  24416451.482                    24416460.1864
       122.0004        144.0004
 -18099412.99749 -14087084.36348  20811426.855    20811427.2454   20811434.1544
       214.0004        215.0004
 -12233384.58048  -9519549.31746  21942826.999    21942826.1404   21942832.2854
       173.0004        174.0004
 -11071510.09748  -8609814.39646  22683276.043    22683276.6824   22683285.0324
       170.0004        171.0004
 21  1 31  0  3 30.0000000  0  8G07G04G08G27G30G09G21G01
 -13120063.58748 -10205789.23046  22416340.751    22416341.5074   22416346.0344
       186.0004        186.0004
 -15518365.01648 -12073995.67947  21472342.596    21472342.3464   21472348.1634
       193.0004        192.0004
 -19512008.58649 -15187802.02047  20889520.106    20889520.4854   20889528.3464
       203.0004        204.0004
  -6687832.03448  -5176492.93046  23607140.412    23607141.7504   23607148.7084
       186.0004        185.0004
  -1256769.15647   -966134.89245  24400591.773    24400592.0554   24400599.2254
       138.0004        145.0004
 -18083440.54249 -14074638.29448  20814466.727    20814466.6064   20814473.4974
       214.0004        214.0004
 -12261436.85748  -9541408.22346  21937488.685    21937488.4114   21937493.8584
       174.0004        176.0004
 -11148718.15448  -8669976.50846  22668583.408    22668584.3124   22668593.1234
       170.0004        172.0004
 21  1 31  0  4  0.0000000  0  8G07G04G08G27G30G09G21G01
 -13195318.23748 -10264429.19546  22402020.428    22402020.9934   22402025.5934
       186.0004        187.0004
 -15439979.61348 -12012916.15847  21487258.128    21487258.3204   21487264.8134
       193.0004        191.0004
 -19448186.59849 -15138070.59847  20901665.006    20901665.3044   20901673.2454
       203.0004        204.0004
  -6582109.36148  -5094111.62246  23627259.226    23627260.1694   23627268.5934
       185.0004        185.0004
  -1340237.06747  -1031174.79745  24384709.033    24384709.1614   24384715.0214
       140.0004        145.0004
 -18066927.31149 -14061770.84948  20817608.186    20817608.7474   20817616.0834
       214.0004        214.0004
 -12289137.10748  -9562992.81446  21932217.697    21932216.8444   21932223.0134
       175.0004        176.0004
 -11225872.90148  -8730097.08246  22653900.718    22653902.1704   22653910.5104
       170.0004        170.0004
 21  1 31  0  4 30.0000000  0  8G07G04G08G27G30G09G21G01
 -13270552.27348 -10323053.10246  22387703.910    22387704.6964   22387708.5854
       186.0004        186.0004
 -15361255.28948 -11951572.53247  21502238.501    21502239.1064   21502245.7494
       193.0004        192.0004
 -19383948.19749 -15088014.69747  20913889.848    20913890.1734   20913897.1184
       204.0004        204.0004
  -6476263.15248  -5011634.05446  23647402.653    23647402.7004   23647409.3734
       184.0004        184.0004
  -1423821.90547  -1096305.79145  24368803.097    24368803.1954   24368810.3274
       142.0004        146.0004
 -18049871.48849 -14048480.59148  20820854.093    20820854.2264   20820861.3364
       214.0004        214.0004
 -12316479.64748  -9584298.66546  21927014.492    21927014.0854   21927019.3024
       175.0004        176.0004
 -11302968.18448  -8790171.31346  22639229.398    22639231.2434   22639240.2314
       169.0004        170.0004
 21  1 31  0  5  0.0000000  0  8G07G04G08G27G30G09G21G01
 -13345761.45648 -10381657.61446  22373392.483    22373392.8064   22373396.8684
       186.0004        187.0004
 -15282193.13348 -11889965.65647  21517283.274    21517283.4434   21517290.8584
       192.0004        191.0004
 -19319294.97949 -15037635.53947  20926192.582    20926192.9684   20926199.9344
       203.0004        203.0004
  -6370294.51148  -4929061.08146  23667567.785    23667568.0254   23667575.0904
       183.0004        184.0004
  -1507520.63547  -1161525.50645  24352875.719    24352875.9824   24352883.1114
       142.0004        147.0004
 -18032272.53649 -14034767.11548  20824203.275    20824203.6194   20824210.7074
       214.0004        214.0004
 -12343460.78448  -9605322.89946  21921880.847    21921879.8114   21921885.1634
       175.0004        176.0004
 -11379999.17748  -8850195.43946  22624573.120    22624572.8764   22624581.5554
       170.0004        171.0004
 21  1 31  0  5 30.0000000  0  8G07G04G08G27G30G09G21G01
 -13420943.41748 -10440240.95046  22359085.859    22359086.3074   22359090.4434
       187.0004        187.0004
 -15202795.47748 -11828097.36647  21532392.760    21532393.3574   21532399.7724
       192.0004        191.0004
 -19254228.89949 -14986934.69047  20938573.764    20938574.0984   20938581.4084
       202.0004        202.0004
  -6264205.84548  -4846394.58946  23687758.312    23687756.8494   23687762.1054
       184.0004        185.0004
  -1591331.61347  -1226832.70445  24336926.584    24336926.5624   24336934.5634
       143.0004        147.0004
 -18014131.13349 -14020630.95248  20827655.289    20827655.6374   20827662.5014
       214.0004        214.0004
 -12370078.09548  -9626063.64146  21916815.614    21916815.1714   21916819.6884
       176.0004        177.0004
 -11456962.25248  -8910166.66646  22609927.959    22609927.5814   22609935.8154
       170.0004        171.0004
 21  1 31  0  6  0.0000000  0  8G07G04G08G27G30G09G21G01
 -13496095.47848 -10498800.97446  22344785.103    22344785.6274   22344788.3624
       186.0004        186.0004
 -15123064.94348 -11765969.67947  21547565.239    21547565.2234   21547571.2144
       192.0004        190.0004
 -19188752.46949 -14935914.07547  20951033.205    20951033.8484   20951041.2504
       202.0004        202.0004
  -6157999.70948  -4763636.56646  23707968.230    23707968.0434   23707973.4324
       186.0004        187.0004
  -1675253.19847  -1292226.11745  24320957.063    24320956.9114   24320964.6534
       145.0004        149.0004
 -17995448.27149 -14006072.85848  20831210.273    20831210.7634   20831217.7514
       213.0004        214.0004
 -12396329.05848  -9646518.90646  21911820.058    21911819.0424   21911824.5794
       177.0004        178.0004
 -11533854.00448  -8970082.27946  22595295.176    22595295.6304   22595304.5404
       170.0004        170.0004
 21  1 31  0  6 30.0000000  0  8G07G04G08G27G30G09G21G01
 -13571216.31148 -10557336.66846  22330489.203    22330489.6514   22330494.3134
       186.0004        186.0004
 -15043004.92648 -11703585.25547  21562799.767    21562800.2254   21562806.3284
       192.0004        191.0004
 -19122869.57849 -14884576.75247  20963570.388    20963570.8584   20963578.2364
       201.0004        201.0004
  -6051679.50348  -4680789.63246  23728201.420    23728199.5024   23728205.6754
       185.0004        185.0004
  -1759284.80047  -1357705.25945  24304966.082    24304966.1564   24304973.3864
       146.0004        149.0004
 -17976225.76349 -13991094.27948  20834868.717    20834868.8334   20834876.0944
       214.0004        215.0004
 -12422211.90048  -9666687.33846  21906894.107    21906893.6554   21906899.7274
       177.0004        178.0004
 -11610671.88548  -9029940.33746  22580676.425    22580677.3084   22580686.1714
       170.0004        171.0004
 21  1 31  0  7  0.0000000  0  8G07G04G08G27G30G09G21G01
 -13646303.06648 -10615845.78746  22316200.977    22316201.5334   22316205.1734
       186.0004        187.0004
 -14962617.65248 -11640945.82847  21578096.855    21578097.7824   21578103.6284
       191.0004        190.0004
 -19056581.93449 -14832924.02747  20976184.525    20976184.9104   20976192.2544
       201.0004        201.0004
  -5945247.51048  -4597855.61246  23748452.868    23748452.2114   23748458.6304
       186.0004        187.0004
  -1843424.51947  -1423268.63945  24288955.249    24288954.7104   24288962.8584
       147.0004        151.0004
 -17956464.30449 -13975695.73248  20838629.260    20838629.7434   20838636.1654
       214.0004        215.0004
 -12447723.62348  -9686566.58546  21902039.268    21902039.0974   21902044.2214
       177.0004        178.0004
 -11687412.09648  -9089737.87546  22566072.646    22566073.6644   22566082.7654
       170.0004        172.0004
 21  1 31  0  7 30.0000000  0  8G07G04G08G27G30G09G21G01
 -13721353.77348 -10674326.86546  22301919.685    22301919.8384   22301923.6734
       187.0004        186.0004
 -14881906.39448 -11578053.94347  21593455.710    21593456.1944   21593462.9964
       192.0004        191.0004
 -18989892.54049 -14780958.26047  20988876.178    20988875.9594   20988883.2794
       201.0004        202.0004
  -5838706.93948  -4514836.97346  23768724.618    23768724.8524   23768732.6904
       184.0004        182.0004
  -1927671.44047  -1488915.54045  24272924.056    24272923.8564   24272931.0224
       150.0004        154.0004
 -17936165.60449 -13959878.56548  20842491.925    20842492.1994   20842498.9344
       214.0004        214.0004
 -12472862.76548  -9706155.51946  21897255.170    21897255.2744   21897261.2674
       178.0004        178.0004
 -11764071.91648  -9149472.77846  22551485.941    22551486.4164   22551494.6924
       170.0004        171.0004
 21  1 31  0  8  0.0000000  0  8G07G04G08G27G30G09G21G01
 -13796366.14248 -10732778.03546  22287643.665    22287645.0154   22287649.3844
       186.0004        186.0004
 -14800873.84548 -11514911.71147  21608875.600    21608875.9204   21608882.4234
       191.0004        190.0004
 -18922804.48749 -14728681.84447  21001641.670    21001642.0244   21001649.4754
       201.0004        201.0004
  -5732060.41048  -4431735.78646  23789017.858    23789018.7004   23789026.6734
       183.0004        183.0004
  -2012024.08847  -1554644.84345  24256871.103    24256871.3324   24256879.6834
       153.0004        156.0004
 -17915330.78549 -13943643.63648  20846456.447    20846456.7254   20846463.7524
       214.0004        214.0004
 -12497626.81048  -9725452.14946  21892544.182    21892543.2874   21892548.7514
       178.0004        179.0004
 -11840647.94448  -9209142.40246  22536914.947    22536915.3684   22536923.3454
       170.0004        172.0004
 21  1 31  0  8 30.0000000  0  8G07G04G08G27G30G09G21G01
 -13871338.58448 -10791198.11647  22273378.702    22273379.1724   22273383.0694
       187.0004        188.0004
 -14719523.62048 -11451521.93047  21624356.416    21624356.8704   21624362.8694
       191.0004        189.0004
 -18855320.88049 -14676097.19647  21014483.574    21014483.4904   21014491.1104
       201.0004        201.0004
  -5625311.49648  -4348554.81946  23809333.410    23809333.3694   23809340.2844
       182.0004        181.0004
  -2096481.89047  -1620456.08245  24240799.944    24240799.8534   24240806.0984
       153.0004        155.0004
 -17893961.95749 -13926992.58948  20850522.711    20850523.3484   20850529.8844
       214.0004        214.0004
 -12522014.49248  -9744455.50946  21887902.287    21887902.4464   21887907.1524
       179.0004        179.0004
 -11917137.79448  -9268744.85646  22522357.891    22522358.8484   22522367.5804
       170.0004        171.0004
 21  1 31  0  9  0.0000000  0  8G07G04G08G27G30G09G21G01
 -13946269.44748 -10849585.76646  22259120.356    22259120.2944   22259123.7744
       187.0004        187.0004
 -14637859.05448 -11387887.20947  21639897.274    21639897.2534   21639903.5404
       191.0004        190.0004
 -18787444.98649 -14623206.87247  21027398.718    21027399.4634   21027407.5644
       200.0004        200.0004
  -5518463.48248  -4265296.59146  23829665.217    23829665.6874   23829672.2474
       180.0004        180.0004
  -2181043.99347  -1686348.58645  24224708.230    24224707.7644   24224715.1064
       152.0004        155.0004
 -17872060.89749 -13909926.82048  20854691.049    20854691.1654   20854697.4544
       214.0004        214.0004
 -12546023.97248  -9763164.17146  21883333.480    21883333.0964   21883338.6944
       179.0004        180.0004
 -11993538.71948  -9328278.01446  22507819.539    22507820.4164   22507828.8464
       169.0004        170.0004
 21  1 31  0  9 30.0000000  0  8G07G04G08G27G30G09G21G01
 -14021156.06448 -10907938.96346  22244868.851    22244868.9584   22244873.4544
       187.0004        187.0004
 -14555882.86148 -11324009.66147  21655495.954    21655497.0994   21655503.1214
       191.0004        190.0004
 -18719179.73149 -14570013.16447  21040390.116    21040390.1664   21040398.0444
       200.0004        200.0004
  -5411519.02448  -4181963.26846  23850017.461    23850017.3674   23850021.7734
       180.0004        180.0004
  -2265708.92747  -1752321.22345  24208597.120    24208596.6324   24208604.2564
       153.0004        156.0004
 -17849628.93149 -13892447.36148  20858958.882    20858959.3504   20858965.9414
       213.0004        213.0004
 -12569653.19148  -9781576.52746  21878837.320    21878836.6374   21878841.8904
       179.0004        179.0004
 -12069847.42248  -9387739.31146  22493299.001    22493299.0524   22493307.6844
       170.0004        171.0004
 21  1 31  0 10  0.0000000  0  8G07G04G08G27G30G09G21G01
 -14095996.68548 -10966256.30946  22230626.271    22230626.9684   22230631.6544
       186.0004        187.0004
 -14473598.21748 -11259891.76147  21671154.152    21671154.3564   21671161.4374
       191.0004        191.0004
 -18650527.65649 -14516518.02747  21053454.683    21053454.5934   21053461.7484
       200.0004        200.0004
  -5304481.10248  -4098557.07246  23870385.239    23870385.4914   23870392.0454
       180.0004        180.0004
  -2350475.51447  -1818373.07145  24192465.268    24192465.9024   24192473.6354
       154.0004        157.0004
 -17826667.67149 -13874555.46648  20863328.674    20863328.8624   20863335.8524
       213.0004        214.0004
 -12592900.15448  -9799691.02246  21874412.688    21874411.9594   21874418.0364
       179.0004        178.0004
 -12146060.85548  -9447126.38446  22478795.306    22478796.0544   22478804.3954
       170.0004        172.0004
 21  1 31  0 10 30.0000000  0  8G07G04G08G27G30G09G21G01
 -14170786.89448 -11024534.36147  22216395.119    22216395.7964   22216399.9984
       188.0004        189.0004
 -14391006.03748 -11195534.22447  21686871.184    21686871.6774   21686878.4374
       191.0004        190.0004
 -18581490.12549 -14462722.53347  21066592.335    21066591.8294   21066599.0804
       200.0004        200.0004
  -5197350.59948  -4015078.75746  23890770.982    23890771.3304   23890778.0124
       181.0004        182.0004
  -2435340.51247  -1884501.60345  24176316.664    24176317.2524   24176324.3794
       155.0004        157.0004
 -17803176.58649 -13856250.71548  20867798.255    20867798.8134   20867806.0474
       213.0004        213.0004
 -12615760.68148  -9817504.39646  21870062.509    21870062.4614   21870067.4214
       178.0004        179.0004
 -12222173.96748  -9506435.26046  22464312.115    22464312.6574   22464320.5414
       170.0004        171.0004
 21  1 31  0 11  0.0000000  0  8G07G04G08G27G30G09G21G01
 -14245526.30548 -11082772.85047  22202172.451    22202173.2594   22202177.1174
       188.0004        189.0004
 -14308110.91848 -11130940.63147  21702645.793    21702645.8574   21702652.0314
       191.0004        189.0004
 -18512071.38549 -14408629.98647  21079800.887    21079801.2844   21079809.4654
       199.0004        199.0004
  -5090131.96248  -3931531.76546  23911173.750    23911173.7194   23911182.3084
       181.0004        181.0004
  -2520304.17047  -1950707.01245  24160148.659    24160148.8364   24160155.9574
       155.0004        157.0004
 -17779158.85549 -13837535.59248  20872369.278    20872369.5944   20872376.2794
       213.0004        213.0004
 -12638234.68548  -9835016.57946  21865785.761    21865785.1804   21865791.7944
       179.0004        179.0004
 -12298185.16148  -9565664.73846  22449847.141    22449847.8614   22449854.5054
       170.0004        171.0004
 21  1 31  0 11 30.0000000  0  8G07G04G08G27G30G09G21G01
 -14320212.79048 -11140970.09747  22187960.300    22187960.8854   22187964.3644
       189.0004        189.0004
 -14224916.20948 -11066113.59147  21718477.885    21718477.4964   21718483.6464
       190.0004        189.0004
 -18442274.63849 -14354242.91147  21093082.948    21093083.4144   21093091.1624
       198.0004        198.0004
  -4982828.36648  -3847918.56646  23931593.110    23931593.2344   23931601.0274
       179.0004        179.0004
  -2605365.55547  -2016988.58845  24143963.394    24143962.4074   24143969.2934
       157.0004        159.0004
 -17754616.39649 -13818411.58648  20877039.267    20877039.4724   20877046.5494
       213.0004        213.0004
 -12660320.50548  -9852226.29046  21861583.683    21861583.0654   21861588.8424
       179.0004        180.0004
 -12374091.67748  -9624812.65646  22435402.923    22435403.4494   22435411.5764
       170.0004        171.0004
 21  1 31  0 12  0.0000000  0  8G07G04G08G27G30G09G21G01
 -14394844.54648 -11199124.70547  22173759.141    22173758.9444   22173763.0914
       189.0004        189.0004
 -14141425.02348 -11001055.53947  21734365.411    21734365.6864   21734371.0884
       190.0004        188.0004
 -18372103.48749 -14299564.07647  21106435.260    21106436.4494   21106444.2804
       198.0004        198.0004
  -4875442.80948  -3764241.52346  23952030.314    23952029.1544   23952034.9234
       177.0004        177.0004
  -2690523.52947  -2083345.42745  24127757.222    24127756.9864   24127764.3634
       157.0004        159.0004
 -17729550.91649 -13798880.04948  20881809.379    20881809.6714   20881816.1144
       213.0004        213.0004
 -12682016.32448  -9869132.10646  21857456.771    21857455.3814   21857460.2214
       180.0004        180.0004
 -12449890.56948  -9683876.70446  22420979.093    22420979.2044   22420987.7384
       171.0004        172.0004
 21  1 31  0 12 30.0000000  0  8G07G04G08G27G30G09G21G01
 -14469419.18948 -11257234.80246  22159567.108    22159567.2604   22159571.1034
       188.0004        187.0004
 -14057640.35948 -10935768.79347  21750308.341    21750308.7324   21750314.4914
       190.0004        188.0004
 -18301560.27049 -14244595.32147  21119859.943    21119860.3974   21119868.0374
       198.0004        199.0004
  -4767978.19948  -3680502.86046  23972479.502    23972478.2474   23972485.2254
       178.0004        178.0004
  -2775776.68347  -2149776.42145  24111533.806    24111533.8384   24111541.0554
       156.0004        158.0004
 -17703964.06849 -13778942.23648  20886677.777    20886678.3584   20886685.4014
       213.0004        213.0004
 -12703319.97948  -9885732.32546  21853400.457    21853400.4584   21853405.6174
       179.0004        179.0004
 -12525578.66848  -9742854.41346  22406575.361    22406575.5734   22406584.4944
       171.0004        172.0004
 21  1 31  0 13  0.0000000  0  8G07G04G08G27G30G09G21G01
 -14543932.67248 -11315297.22647  22145387.444    22145388.1664   22145392.2864
       188.0004        190.0004
 -13973563.44848 -10870254.31846  21766308.013    21766308.5614   21766314.5874
       189.0004        187.0004
 -18230646.31449 -14189337.67947  21133354.566    21133355.4544   21133362.7104
       199.0004        199.0004
  -4660435.40248  -3596703.30446  23992941.406    23992942.1104   23992949.8494
       175.0004        175.0004
  -2861121.94447  -2216279.20045  24095293.679    24095293.0814   24095300.0394
       156.0004        158.0004
 -17677855.66949 -13758598.02348  20891646.003    20891646.5514   20891653.4064
       212.0004        213.0004
 -12724227.68648  -9902024.00346  21849420.652    21849420.9094   21849427.5364
       178.0004        179.0004
 -12601151.01248  -9801741.91846  22392194.934    22392194.9414   22392203.7314
       172.0004        173.0004
 21  1 31  0 13 30.0000000  0  8G07G04G08G27G30G09G21G01
 -14618382.95148 -11373310.41247  22131219.386    22131220.6904   22131224.9354
       190.0004        191.0004
 -13889197.45248 -10804514.59047  21782362.325    21782362.5744   21782369.1794
       189.0004        188.0004
 -18159364.26849 -14133793.21247  21146919.628    21146919.3524   21146927.1504
       198.0004        198.0004
  -4552817.55548  -3512845.24846  24013420.861    24013420.9064   24013427.7854
       173.0004        173.0004
  -2946558.08847  -2282852.80845  24079035.046    24079035.2374   24079042.1674
       156.0004        158.0004
 -17651227.56949 -13737848.84848  20896713.694    20896714.2504   20896720.7144
       213.0004        213.0004
 -12744737.92448  -9918005.98746  21845518.856    21845519.2554   21845523.6114
       178.0004        178.0004
 -12676604.60348  -9860536.89046  22377836.623    22377836.5284   22377844.6364
       172.0004        173.0004
 21  1 31  0 14  0.0000000  0  8G07G04G08G27G30G09G21G01
 -14692766.95348 -11431271.96447  22117066.214    22117066.4534   22117069.7814
       191.0004        192.0004
 -13804544.73148 -10738551.43246  21798470.593    21798471.1374   21798477.2004
       188.0004        187.0004
 -18087717.02649 -14077964.19147  21160553.439    21160553.5804   21160561.1174
       197.0004        197.0004
  -4445126.73448  -3428930.33646  24033913.876    24033914.6154   24033922.0624
       173.0004        175.0004
  -3032083.12047  -2349495.63745  24062760.780    24062759.9994   24062768.2294
       157.0004        159.0004
 -17624080.81649 -13716695.53348  20901879.361    20901879.7564   20901886.4254
       212.0004        213.0004
 -12764847.97148  -9933676.11946  21841692.580    21841692.0294   21841697.7614
       179.0004        179.0004
 -12751935.69748  -9919236.42446  22363501.127    22363501.7214   22363509.7354
       173.0004        174.0004
 21  1 31  0 14 30.0000000  0  8G07G04G08G27G30G09G21G01
 -14767083.73548 -11489181.12547  22102923.897    22102924.0584   22102927.9534
       192.0004        191.0004
 -13719609.37948 -10672368.05546  21814633.562    21814633.9804   21814640.1614
       188.0004        186.0004
 -18015708.55049 -14021853.68447  21174255.663    21174256.1314   21174264.1024
       197.0004        197.0004
  -4337366.86548  -3344961.61446  24054420.805    24054420.1234   24054427.1184
       172.0004        172.0004
  -3117696.78047  -2416207.51945  24046467.220    24046468.2254   24046476.4984
       157.0004        160.0004
 -17596418.12649 -13695140.18947  20907143.698    20907143.8324   20907150.3854
       212.0004        212.0004
 -12784556.96748  -9949033.74746  21837942.256    21837941.2354   21837946.5524
       179.0004        179.0004
 -12827142.13948  -9977838.81346  22349190.267    22349190.6994   22349198.9304
       173.0004        174.0004
 21  1 31  0 15  0.0000000  0  8G07G04G08G27G30G09G21G01
 -14841330.97748 -11547036.10847  22088794.507    22088794.9494   22088799.4744
       191.0004        191.0004
 -13634394.50048 -10605966.86046  21830850.132    21830850.1414   21830855.8744
       188.0004        186.0004
 -17943341.73449 -13965463.94447  21188026.762    21188027.0684   21188034.8474
       197.0004        198.0004
  -4229540.72648  -3260941.26946  24074937.898    24074938.5114   24074946.2224
       173.0004        174.0004
  -3203397.67947  -2482987.42446  24030160.300    24030160.2444   24030168.6674
       160.0004        163.0004
 -17568241.32649 -13673184.23447  20912505.148    20912505.3734   20912512.9424
       212.0004        212.0004
 -12803863.41048  -9964077.69246  21834267.687    21834267.1384   21834273.3154
       179.0004        180.0004
 -12902220.89048 -10036341.71546  22334903.530    22334903.6794   22334911.1474
       173.0004        175.0004
 21  1 31  0 15 30.0000000  0  8G07G04G08G27G30G09G21G01
 -14915506.62048 -11604835.29047  22074679.707    22074680.3134   22074683.9204
       191.0004        191.0004
 -13548903.40048 -10539350.42046  21847117.827    21847118.1974   21847124.3104
       187.0004        185.0004
 -17870619.66249 -13908797.37447  21201865.951    21201865.8064   21201873.4234
       198.0004        198.0004
  -4121651.47048  -3176871.69446  24095467.719    24095469.1334   24095476.6004
       173.0004        174.0004
  -3289184.65447  -2549834.38546  24013836.579    24013836.0314   24013843.2374
       161.0004        163.0004
 -17539552.44049 -13650829.25648  20917964.521    20917964.9354   20917972.2854
       212.0004        213.0004
 -12822765.58648  -9978806.62646  21830670.577    21830670.2624   21830676.1624
       179.0004        180.0004
 -12977169.03148 -10094742.83546  22320641.217    22320641.1494   22320649.2584
       174.0004        176.0004
 21  1 31  0 16  0.0000000  0  8G07G04G08G27G30G09G21G01
 -14989607.96548 -11662576.58647  22060578.530    22060579.0254   22060583.2024
       192.0004        193.0004
 -13463138.75048 -10472520.83246  21863437.831    21863438.6374   21863444.2404
       186.0004        185.0004
 -17797545.14649 -13851856.18947  21215771.180    21215771.2254   21215778.9614
       197.0004        197.0004
  -4013701.47248  -3092754.83746  24116010.081    24116011.0484   24116019.5054
       173.0004        173.0004
  -3375056.10347  -2616747.17645  23997494.717    23997495.0334   23997501.2304
       158.0004        158.0004
 -17510352.96449 -13628076.41248  20923520.809    20923521.3804   20923528.6834
       212.0004        213.0004
 -12841261.30748  -9993218.85246  21827151.336    21827150.4344   21827156.3684
       179.0004        179.0004
 -13051983.07248 -10153039.45746  22306403.627    22306404.2784   22306413.1584
       175.0004        176.0004
 21  1 31  0 16 30.0000000  0  8G07G04G08G27G30G09G21G01
 -15063632.19948 -11720257.79447  22046491.752    22046492.2594   22046496.2824
       192.0004        191.0004
 -13377103.04448 -10405480.01946  21879810.360    21879810.1174   21879817.4154
       185.0004        185.0004
 -17724120.26049 -13794641.98347  21229743.244    21229743.7234   21229751.6544
       196.0004        196.0004
  -3905693.02348  -3008592.35746  24136562.812    24136564.8834   24136571.9844
       173.0004        174.0004
  -3461009.87447  -2683724.13745  23981139.092    23981138.9374   23981145.3944
       156.0004        157.0004
 -17480644.04949 -13604926.60747  20929173.956    20929174.5714   20929181.8204
       212.0004        212.0004
 -12859348.27248 -10007312.54446  21823709.617    21823709.2704   21823714.9084
       180.0004        179.0004
 -13126659.24848 -10211228.66246  22292192.226    22292193.3374   22292202.8544
       174.0004        175.0004
 21  1 31  0 17  0.0000000  0  8G07G04G08G27G30G09G21G01
 -15137577.05248 -11777877.15647  22032420.425    22032421.0934   22032424.8144
       191.0004        191.0004
 -13290799.25648 -10338230.33046  21896233.200    21896233.5384   21896240.3344
       185.0004        185.0004
 -17650348.22149 -13737157.27047  21243781.836    21243782.0584   21243789.3424
       196.0004        196.0004
  -3797628.72548  -2924386.44946  24157127.380    24157129.1154   24157136.9804
       174.0004        176.0004
  -3547044.63347  -2750764.20045  23964767.151    23964766.5654   23964773.3824
       156.0004        159.0004
 -17450427.50449 -13581381.24547  20934924.333    20934924.5424   20934931.9444
       212.0004        212.0004
 -12877024.57748 -10021086.25646  21820345.369    21820345.0794   21820350.9034
       180.0004        180.0004
 -13201194.37048 -10269307.95646  22278010.308    22278009.8874   22278019.5944
       174.0004        176.0004
 21  1 31  0 17 30.0000000  0  8G07G04G08G27G30G09G21G01
 -15211440.74448 -11835433.29947  22018364.713    22018365.1754   22018369.3594
       191.0004        192.0004
 -13204230.90048 -10270774.47946  21912707.505    21912707.4654   21912713.3164
       186.0004        185.0004
 -17576232.47849 -13679404.73547  21257885.574    21257886.3154   21257893.4414
       196.0004        196.0004
  -3689511.82448  -2840139.51046  24177702.112    24177702.6284   24177710.1554
       174.0004        175.0004
  -3633159.35147  -2817866.55445  23948379.193    23948378.8054   23948387.5084
       156.0004        157.0004
 -17419705.60849 -13557442.10947  20940770.290    20940770.6304   20940777.9574
       211.0004        212.0004
 -12894288.93348 -10034538.97146  21817060.635    21817059.4274   21817065.2584
       180.0004        180.0004
 -13275585.76448 -10327275.26546  22263854.317    22263854.8004   22263863.1144
       174.0004        176.0004
 21  1 31  0 18  0.0000000  0  8G07G04G08G27G30G09G21G01
 -15285220.18048 -11892923.74847  22004325.189    22004325.4634   22004328.9284
       192.0004        192.0004
 -13117400.52448 -10203114.45246  21929230.028    21929230.6234   21929237.2534
       185.0004        183.0004
 -17501775.66949 -13621386.43847  21272054.557    21272054.8444   21272061.9484
       196.0004        196.0004
  -3581344.53948  -2755853.35746  24198286.103    24198287.0294   24198294.2714
       175.0004        176.0004
  -3719352.01547  -2885029.61845  23931976.556    23931976.1524   23931984.5184
       155.0004        157.0004
 -17388479.71649 -13533110.24347  20946713.138    20946713.3494   20946719.9454
       212.0004        212.0004
 -12911138.91148 -10047668.79846  21813853.841    21813853.2884   21813858.8704
       180.0004        181.0004
 -13349829.56148 -10385127.55146  22249725.490    22249726.1494   22249735.5974
       176.0004        177.0004
 21  1 31  0 18 30.0000000  0  8G07G04G08G27G30G09G21G01
 -15358912.68948 -11950346.46347  21990302.522    21990302.7334   21990306.3724
       192.0004        193.0004
 -13030310.69848 -10135252.25646  21945802.898    21945803.0314   21945810.8124
       185.0004        186.0004
 -17426979.97349 -13563104.06947  21286287.068    21286287.5614   21286295.3794
       196.0004        197.0004
  -3473129.21748  -2671529.74046  24218879.587    24218880.2834   24218886.0744
       175.0004        177.0004
  -3805620.73547  -2952251.96145  23915559.540    23915559.6764   23915567.8944
       155.0004        158.0004
 -17356751.25049 -13508386.76247  20952750.606    20952751.0834   20952757.6334
       212.0004        212.0004
 -12927572.84248 -10060474.40946  21810726.899    21810725.5604   21810732.0514
       181.0004        182.0004
 -13423922.22448 -10442862.07546  22235625.708    22235626.9214   22235635.2844
       176.0004        177.0004
 21  1 31  0 19  0.0000000  0  9G17G07G04G08G27G30G09G21G01
  -1680071.17654  -1280093.91045  24268671.888
        74.0004        144.0004
 -15432516.43448 -12007700.01947  21976295.763    21976295.8544   21976299.9354
       193.0004        192.0004
 -12942964.95548 -10067190.64546  21962424.340    21962424.5524   21962431.1414
       185.0004        184.0004
 -17351849.01549 -13504560.45647  21300583.575    21300584.4474   21300592.0444
       196.0004        196.0004
  -3364868.94348  -2587171.08346  24239480.662    24239481.0234   24239487.5804
       176.0004        177.0004
  -3891964.40347  -3019532.72845  23899130.707    23899130.8724   23899138.0344
       157.0004        160.0004
 -17324522.58449 -13483273.51147  20958883.405    20958883.9504   20958890.9554
       212.0004        212.0004
 -12943589.30848 -10072954.73946  21807679.572    21807679.1034   21807683.2194
       181.0004        181.0004
 -13497860.96548 -10500476.65146  22221555.612    22221556.3954   22221564.6204
       176.0004        176.0004
 21  1 31  0 19 30.0000000  0  9G17G07G04G08G27G30G09G21G01
  -1777848.70346  -1356284.06745  24250064.278    24250064.3514   24250072.6834
       133.0004        143.0004
 -15506030.03048 -12064983.31947  21962306.316    21962307.2464   21962310.5634
       192.0004        192.0004
 -12855367.62048  -9998932.99046  21979093.624    21979094.1994   21979099.6404
       184.0004        183.0004
 -17276387.00949 -13445758.89547  21314943.791    21314944.2134   21314951.8184
       195.0004        196.0004
  -3256567.75748  -2502780.51846  24260089.351    24260090.4364   24260096.6004
       178.0004        179.0004
  -3978382.93747  -3086871.79645  23882685.153    23882684.3454   23882693.1964
       158.0004        160.0004
 -17291796.91849 -13457772.98948  20965111.034    20965111.3404   20965118.4764
       212.0004        213.0004
 -12959187.53048 -10085109.14846  21804710.024    21804710.1574   21804715.8144
       181.0004        181.0004
 -13571643.95848 -10557969.85546  22207516.248    22207515.5194   22207524.8824
       176.0004        177.0004
 21  1 31  0 20  0.0000000  0  9G17G07G04G08G27G30G09G21G01
  -1875413.35546  -1432308.32745  24231498.077    24231498.5924   24231505.0844
       134.0004        140.0004
 -15579452.19048 -12122195.39247  21948335.089    21948335.5454   21948339.0874
       192.0004        193.0004
 -12767523.07348  -9930482.69746  21995808.929    21995810.3094   21995816.2544
       184.0004        183.0004
 -17200598.20149 -13386702.68247  21329367.056    21329367.3814   21329374.0184
       196.0004        197.0004
  -3148229.68748  -2418361.25546  24280706.005    24280706.6394   24280712.3974
       179.0004        179.0004
  -4064876.04947  -3154268.99245  23866225.702    23866226.3424   23866233.0624
       157.0004        159.0004
 -17258577.48649 -13431887.72147  20971432.252    20971432.4464   20971439.6564
       212.0004        212.0004
 -12974366.89748 -10096937.21746  21801821.945    21801821.6614   21801827.1654
       181.0004        182.0004
 -13645269.24548 -10615340.19146  22193505.073    22193505.9484   22193514.2284
       176.0004        178.0004
 21  1 31  0 20 30.0000000  0  9G17G07G04G08G27G30G09G21G01
  -1972761.78746  -1508164.15645  24212973.048    24212974.5094   24212980.9374
       132.0004        138.0004
 -15652779.95648 -12179333.89147  21934380.540    21934381.3024   21934385.8214
       193.0004        194.0004
 -12679432.94748  -9861841.05046  22012572.774    22012573.1434   22012580.0204
       184.0004        184.0004
 -17124484.38549 -13327393.22147  21343851.690    21343851.6084   21343858.3714
       197.0004        197.0004
  -3039856.01148  -2333914.24546  24301330.114    24301329.2964   24301334.6554
       175.0004        174.0004
  -4151440.85847  -3221722.06945  23849752.991    23849752.7844   23849760.8994
       156.0004        157.0004
 -17224864.87649 -13405618.15847  20977848.221    20977848.4724   20977854.6744
       212.0004        212.0004
 -12989124.71248 -10108436.80446  21799014.183    21799013.3244   21799019.6754
       182.0004        182.0004
 -13718732.18248 -10672584.03346  22179525.109    22179526.4444   22179534.8454
       178.0004        179.0004
 21  1 31  0 21  0.0000000  0  9G17G07G04G08G27G30G09G21G01
  -2069890.24047  -1583848.55845  24194492.003    24194491.1884   24194497.3544
       136.0004        142.0004
 -15726009.11748 -12236395.56647  21920446.726    21920446.7684   21920450.4744
       194.0004        194.0004
 -12591098.99148  -9793009.41246  22029382.461    22029382.2994   22029388.9914
       184.0004        183.0004
 -17048047.34649 -13267831.88347  21358396.235    21358396.7524   21358403.1904
       196.0004        195.0004
  -2931448.11948  -2249440.52846  24321959.108    24321958.5524   24321963.7074
       173.0004        173.0004
  -4238074.55647  -3289228.83445  23833267.723    23833267.7584   23833275.2384
       154.0004        155.0004
 -17190659.72149 -13378964.79147  20984357.227    20984358.0214   20984363.8644
       212.0004        212.0004
 -13003457.99948 -10119605.56146  21796286.297    21796285.9864   21796291.4454
       182.0004        183.0004
 -13792028.35548 -10729697.91346  22165578.326    22165578.5834   22165585.6144
       177.0004        178.0004
 21  1 31  0 21 30.0000000  0  9G17G07G04G08G27G30G09G21G01
  -2166795.50747  -1659358.99745  24176051.866    24176051.5804   24176058.8934
       142.0004        148.0004
 -15799136.35848 -12293377.81247  21906529.883    21906530.3574   21906535.4994
       194.0004        194.0004
 -12502523.18248  -9723989.30046  22046237.321    22046237.8434   22046243.9144
       183.0004        183.0004
 -16971288.89049 -13208020.09047  21373003.100    21373003.5754   21373010.4604
       195.0004        195.0004
  -2823007.52948  -2164941.38846  24342594.884    24342593.9704   24342600.3654
       171.0004        170.0004
  -4324774.48947  -3356787.19945  23816768.596    23816768.3184   23816775.8084
       153.0004        156.0004
 -17155962.95249 -13351928.34147  20990959.788    20990960.0904   20990966.1924
       212.0004        212.0004
 -13017363.82148 -10130441.23846  21793639.704    21793639.0264   21793644.7324
       181.0004        181.0004
 -13865153.33648 -10786678.38946  22151661.830    22151662.7164   22151670.9664
       177.0004        176.0004
 21  1 31  0 22  0.0000000  0  9G17G07G04G08G27G30G09G21G01
  -2263474.62747  -1734693.25645  24157652.948    24157653.4214   24157660.9164
       144.0004        148.0004
 -15872158.31848 -12350278.02147  21892633.366    21892634.4824   21892639.3654
       194.0004        193.0004
 -12413707.68248  -9654782.41346  22063138.314    22063138.9654   22063145.1664
       184.0004        183.0004
 -16894210.66249 -13147959.12347  21387670.544    21387670.6594   21387678.0864
       195.0004        196.0004
  -2714536.02848  -2080418.09946  24363236.326    24363236.1314   24363240.5544
       169.0004        170.0004
  -4411538.20047  -3424395.21645  23800257.470    23800258.2584   23800265.8284
       152.0004        156.0004
 -17120775.65949 -13324509.66147  20997655.026    20997654.9914   20997662.9394
       211.0004        212.0004
 -13030839.58448 -10140941.79246  21791074.579    21791074.7234   21791079.9804
       180.0004        180.0004
 -13938103.09648 -10843522.32846  22137779.594    22137780.1324   22137789.6554
       177.0004        177.0004
 21  1 31  0 22 30.0000000  0  9G17G07G04G08G27G30G09G21G01
  -2359925.43747  -1809849.62345  24139298.716    24139299.3624   24139306.3854
       144.0004        149.0004
 -15945072.49848 -12407094.25947  21878759.315    21878759.6594   21878763.6334
       193.0004        194.0004
 -12324655.64048  -9585391.23146  22080083.460    22080084.7144   22080091.2194
       183.0004        182.0004
 -16816815.82849 -13087651.46147  21402398.227    21402398.7814   21402405.3794
       195.0004        195.0004
  -2606036.30648  -1995872.84146  24383883.528    24383882.7764   24383888.3524
       171.0004        173.0004
  -4498364.13247  -3492051.77745  23783736.060    23783736.0554   23783742.6534
       155.0004        158.0004
 -17085099.98849 -13296710.44147  21004444.029    21004444.0584   21004451.5954
       211.0004        212.0004
 -13043883.97248 -10151106.23646  21788592.259    21788592.6644   21788597.6324
       181.0004        181.0004
 -14010874.48048 -10900227.29446  22123932.420    22123932.8144   22123942.6644
       177.0004        179.0004
 21  1 31  0 23  0.0000000  0  9G17G07G04G08G27G30G09G21G01
  -2456146.82747  -1884827.23445  24120988.340    24120989.4284   24120996.4474
       147.0004        151.0004
 -16017877.37348 -12463825.31647  21864904.710    21864905.2294   21864909.3744
       193.0004        194.0004
 -12235371.00748  -9515818.81146  22097074.826    22097075.0704   22097081.6884
       184.0004        183.0004
 -16739108.86649 -13027100.57847  21417185.545    21417185.6394   21417193.0844
       195.0004        196.0004
  -2497512.05048  -1911308.52746  24404533.582    24404534.1344   24404540.1504
       171.0004        173.0004
  -4585251.63847  -3559756.33745  23767202.704    23767202.0664   23767209.3894
       157.0004        160.0004
 -17048938.88749 -13268532.96247  21011325.544    21011325.6474   21011332.7254
       211.0004        212.0004
 -13056496.57048 -10160934.22646  21786192.804    21786192.4264   21786197.0894
       180.0004        181.0004
 -14083465.13048 -10956791.42146  22110119.598    22110119.2894   22110127.5344
       178.0004        178.0004
 21  1 31  0 23 30.0000000  0  9G17G07G04G08G27G30G09G21G01
  -2552136.55047  -1959624.29545  24102721.869    24102722.6064   24102729.4104
       147.0004        151.0004
 -16090570.26549 -12520469.12447  21851072.717    21851073.1204   21851077.1994
       195.0004        196.0004
 -12145856.71748  -9446067.42046  22114109.198    22114109.4564   22114114.7744
       184.0004        183.0004
 -16661092.33449 -12966308.46447  21432031.730    21432032.0784   21432038.6994
       195.0004        195.0004
  -2388965.56748  -1826726.84946  24425189.343    24425189.7114   24425195.5404
       170.0004        170.0004
  -4672199.01447  -3627507.47745  23750656.050    23750655.8454   23750664.6864
       159.0004        162.0004
 -17012294.29549 -13239978.73647  21018298.755    21018298.8854   21018305.8054
       211.0004        211.0004
 -13068675.29848 -10170424.12346  21783876.198    21783875.3394   21783880.3584
       181.0004        182.0004
 -14155871.72148 -11013212.11446  22096340.414    22096341.2714   22096349.0604
       177.0004        178.0004
 21  1 31  0 24  0.0000000  0  9G17G07G04G08G27G30G09G21G01
  -2647892.75047  -2034239.36045  24084499.939    24084500.4714   24084507.8534
       149.0004        154.0004
 -16163149.43049 -12577024.33747  21837261.043    21837261.6364   21837265.3524
       195.0004        196.0004
 -12056115.98848  -9376139.59346  22131186.932    22131186.6174   22131192.4504
       184.0004        184.0004
 -16582769.30548 -12905277.52647  21446934.845    21446935.5514   21446943.3414
       194.0004        195.0004
  -2280399.66748  -1742130.03646  24445847.821    24445848.5474   24445855.7304
       169.0004        170.0004
  -4759204.78247  -3695304.12745  23734099.744    23734099.6394   23734107.1684
       160.0004        162.0004
 -16975168.45249 -13211049.51347  21025363.259    21025363.7364   21025370.6634
       210.0004        211.0004
 -13080418.72948 -10179574.82546  21781641.531    21781641.1364   21781646.3764
       182.0004        183.0004
 -14228091.12848 -11069486.94846  22082597.447    22082598.0014   22082607.0604
       178.0004        179.0004
 21  1 31  0 24 30.0000000  0  9G17G07G04G08G27G30G09G21G01
  -2743413.43347  -2108670.94045  24066323.213    24066323.8094   24066330.8604
       152.0004        156.0004
 -16235612.40649 -12633488.97147  21823471.662    21823471.6384   21823476.6064
       195.0004        194.0004
 -11966152.17048  -9306037.92546  22148305.902    22148306.2564   22148312.7264
       184.0004        184.0004
 -16504143.04149 -12844010.31648  21461897.517    21461898.1974   21461905.3564
       209.0004        213.0004
  -2171817.34648  -1657520.47646  24466511.000    24466511.5884   24466517.5604
       168.0004        170.0004
  -4846267.65547  -3763145.31045  23717531.341    23717532.0404   23717539.2254
       159.0004        160.0004
 -16937563.75849 -13181747.15247  21032518.451    21032519.1224   21032526.4744
       210.0004        210.0004
 -13091725.79648 -10188385.49646  21779489.398    21779489.0874   21779495.0224
       183.0004        183.0004
 -14300120.46048 -11125613.68646  22068891.924    22068892.0074   22068900.7914
       179.0004        180.0004
 21  1 31  0 25  0.0000000  0  9G17G07G04G08G27G30G09G21G01
  -2838695.95647  -2182916.93745  24048192.344    24048193.3064   24048198.3594
       154.0004        156.0004
 -16307956.23148 -12689860.77647  21809705.056    21809705.4784   21809709.1584
       194.0004        195.0004
 -11875967.96648  -9235764.52946  22165467.766    22165468.2014   22165473.6044
       183.0004        182.0004
 -16425216.23449 -12782508.90047  21476917.557    21476917.8464   21476924.3374
       214.0004        212.0004
  -2063220.75948  -1572899.73346  24487175.776    24487176.4144   24487183.1444
       169.0004        171.0004
  -4933385.62247  -3831029.40345  23700954.714    23700953.6514   23700961.4024
       157.0004        159.0004
 -16899481.98349 -13152073.04447  21039765.179    21039765.7514   21039772.8214
       209.0004        210.0004
 -13102594.68348 -10196854.72646  21777420.020    21777420.3814   21777426.5154
       182.0004        182.0004
 -14371956.08448 -11181589.48346  22055220.842    22055222.5594   22055230.9114
       179.0004        180.0004
 21  1 31  0 25 30.0000000  0  9G17G07G04G08G27G30G09G21G01
  -2933738.89347  -2256976.23345  24030106.079    24030106.2284   24030111.8794
       152.0004        154.0004
 -16380178.99549 -12746138.25047  21795961.795    21795962.0054   21795966.3064
       195.0004        195.0004
 -11785567.02148  -9165322.24246  22182669.301    22182670.2494   22182676.0424
       182.0004        181.0004
 -16345992.76849 -12720776.30748  21491993.696    21491993.6014   21492000.1284
       222.0004        226.0004
  -1954613.05348  -1488270.40046  24507841.765    24507842.9764   24507850.8614
       168.0004        169.0004
  -5020557.59247  -3898955.58145  23684366.168    23684365.8434   23684372.7794
       156.0004        159.0004
 -16860925.82649 -13122029.28347  21047102.944    21047103.2204   21047110.1864
       209.0004        209.0004
 -13113024.31648 -10204981.69246  21775435.545    21775435.4514   21775441.5884
       182.0004        182.0004
 -14443595.33448 -11237412.25346  22041588.980    22041589.5264   22041596.5374
       179.0004        179.0004
 21  1 31  0 26  0.0000000  0  9G17G07G04G08G27G30G09G21G01
  -3028539.02647  -2330846.33045  24012066.342    24012066.3034   24012071.6784
       149.0004        151.0004
 -16452277.05949 -12802318.53347  21782241.095    21782241.9874   21782246.2254
       195.0004        195.0004
 -11694951.13848  -9094712.46646  22199913.918    22199913.8904   22199919.8154
       181.0004        180.0004
 -16266473.72649 -12658813.40048  21507124.063    21507124.7664   21507131.6034
       225.0004        224.0004
  -1845995.72348  -1403633.50846  24528510.856    24528512.6854   24528518.8584
       167.0004        168.0004
  -5107780.65547  -3966921.60145  23667768.541    23667768.2044   23667774.4314
       157.0004        160.0004
 -16821896.22549 -13091616.60447  21054529.925    21054530.3614   21054537.2304
       210.0004        210.0004
 -13123011.93648 -10212764.22846  21773536.178    21773534.9814   21773540.5684
       182.0004        181.0004
 -14515033.77748 -11293078.53546  22027993.579    22027994.4744   22028003.4724
       178.0004        179.0004
 21  1 31  0 26 30.0000000  0  9G17G07G04G08G27G30G09G21G01
  -3123095.15547  -2404526.32645  23994072.594    23994073.6004   23994078.0324
       150.0004        153.0004
 -16524248.93649 -12858400.49947  21768546.301    21768546.2844   21768550.3174
       195.0004        195.0004
 -11604124.21248  -9023938.26746  22217197.910    22217197.6554   22217203.1644
       180.0004        180.0004
 -16186663.48749 -12596623.60848  21522311.875    21522312.4004   21522319.1534
       225.0004        224.0004
  -1737371.96848  -1318991.60246  24549180.845    24549182.2334   24549190.7994
       167.0004        167.0004
  -5195054.04547  -4034926.81745  23651160.017    23651159.9954   23651167.8384
       158.0004        161.0004
 -16782396.23849 -13060837.39947  21062046.583    21062046.8204   21062053.7154
       209.0004        210.0004
 -13132556.95948 -10220201.89446  21771719.537    21771718.8594   21771722.8714
       181.0004        182.0004
 -14586268.96448 -11348586.47546  22014438.393    22014438.6994   22014447.6494
       179.0004        179.0004
 21  1 31  0 27  0.0000000  0 10G17G14G07G04G08G27G30G09G21G01
  -3217404.20447  -2478013.73845  23976126.347    23976126.4364   23976132.2334
       152.0004        156.0004
   -939562.70054   -716654.67445  23614230.442
        74.0004        139.0004
 -16596090.92649 -12914381.25647  21754874.763    21754875.1774   21754879.0994
       195.0004        195.0004
 -11513088.47348  -8953001.33446  22234520.262    22234520.5524   22234526.7244
       180.0004        180.0004
 -16106564.19549 -12534208.56348  21537554.454    21537555.0834   21537561.9064
       225.0004        225.0004
  -1628743.46448  -1234346.05746  24569852.788    24569854.0634   24569862.1204
       167.0004        169.0004
  -5282375.14947  -4102969.20845  23634542.801    23634542.9234   23634550.6664
       160.0004        162.0004
 -16742427.13249 -13029692.63747  21069652.523    21069652.8654   21069659.8744
       210.0004        210.0004
 -13141657.02348 -10227292.82646  21769988.200    21769987.4874   21769992.1634
       182.0004        182.0004
 -14657296.81148 -11403932.82446  22000921.234    22000922.8044   22000930.9554
       179.0004        179.0004
 21  1 31  0 27 30.0000000  0  9G17G14G07G04G08G30G09G21G01
  -3311464.57947  -2551307.42445  23958227.467    23958227.2554   23958232.0844
       153.0004        156.0004
   -966918.90846   -737971.27345  23609024.444                    23609031.0084
       130.0004        144.0004
 -16667800.74149 -12970259.02647  21741228.984    21741229.4384   21741233.4214
       195.0004        196.0004
 -11421847.51148  -8881904.49046  22251883.934    22251883.4804   22251890.4994
       180.0004        181.0004
 -16026178.97049 -12471570.71848  21552852.254    21552852.2654   21552858.7794
       226.0004        225.0004
  -5369742.87647  -4171047.91945  23617917.565    23617917.0124   23617924.4494
       159.0004        159.0004
 -16701991.71249 -12998184.51447  21077346.927    21077347.2634   21077354.2874
       209.0004        209.0004
 -13150311.39448 -10234036.46946  21768340.905    21768339.9694   21768344.8044
       182.0004        182.0004
 -14728114.59348 -11459115.48246  21987445.980    21987447.2244   21987455.8014
       179.0004        179.0004
 21  1 31  0 28  0.0000000  0  9G17G14G07G04G08G30G09G21G01
  -3405274.88847  -2624406.19945  23940373.990    23940374.3154   23940381.9914
       154.0004        156.0004
   -994215.32047   -759241.15645  23603828.318    23603829.0254   23603833.7924
       137.0004        143.0004
 -16739377.41949 -13026033.05547  21727608.620    21727608.8474   21727612.8094
       196.0004        196.0004
 -11330405.12548  -8810650.70446  22269284.271    22269284.9404   22269291.7924
       180.0004        179.0004
 -15945511.99649 -12408713.32948  21568202.403    21568202.5364   21568208.8394
       226.0004        225.0004
  -5457156.27347  -4239162.21545  23601283.112    23601283.8444   23601290.9114
       158.0004        161.0004
 -16661092.94749 -12966315.34947  21085129.640    21085130.0294   21085137.0714
       209.0004        209.0004
 -13158518.90248 -10240431.91846  21766778.449    21766778.2704   21766782.8014
       182.0004        182.0004
 -14798719.81348 -11514132.51446  21974011.087    21974011.0074   21974019.0714
       179.0004        180.0004
 21  1 31  0 28 30.0000000  0  9G17G14G07G04G08G30G09G21G01
  -3498831.79547  -2697307.52245  23922571.855    23922572.1634   23922577.8004
       156.0004        158.0004
  -1021452.01047   -780464.48945  23598646.204    23598645.8854   23598646.7494
       137.0004        141.0004
 -16810816.86849 -13081700.13847  21714014.145    21714014.1574   21714018.7904
       196.0004        196.0004
 -11238763.18048  -8739241.40646  22286723.255    22286724.5484   22286729.1044
       179.0004        178.0004
 -15864564.82449 -12345637.59748  21583605.647    21583605.6934   21583612.4344
       225.0004        223.0004
  -5544612.33547  -4307309.77446  23584642.081    23584642.2474   23584649.2234
       161.0004        164.0004
 -16619731.87949 -12934085.94047  21093000.160    21093000.5494   21093008.0774
       209.0004        209.0004
 -13166277.59948 -10246477.62946  21765301.392    21765300.9544   21765307.0874
       182.0004        182.0004
 -14869108.05848 -11568980.47046  21960616.328    21960616.6884   21960624.4894
       179.0004        180.0004
 21  1 31  0 29  0.0000000  0  9G17G14G07G04G08G30G09G21G01
  -3592134.89047  -2770011.09945  23904816.203    23904816.8714   23904823.6794
       156.0004        158.0004
  -1048631.80747   -801643.48245  23593474.218    23593474.4704   23593476.6354
       138.0004        143.0004
 -16882117.96749 -13137259.43147  21700445.948    21700446.2774   21700450.2434
       196.0004        197.0004
 -11146926.26648  -8667680.18346  22304199.811    22304200.0174   22304205.0154
       177.0004        176.0004
 -15783342.11349 -12282347.16948  21599061.326    21599062.0004   21599068.5104
       224.0004        223.0004
  -5632110.92747  -4375490.48345  23567991.118    23567990.6704   23567997.9654
       161.0004        162.0004
 -16577912.30449 -12901499.26047  21100959.091    21100959.3254   21100966.0364
       209.0004        210.0004
 -13173587.43148 -10252173.58946  21763911.031    21763911.1404   21763916.0354
       183.0004        183.0004
 -14939277.56748 -11623657.97746  21947263.586    21947263.5064   21947271.9694
       180.0004        181.0004
 21  1 31  0 29 30.0000000  0  9G17G14G07G04G08G30G09G21G01
  -3685180.53347  -2842514.06645  23887110.833    23887110.9664   23887117.7104
       157.0004        160.0004
  -1075754.40347   -822777.92145  23588312.605    23588312.9214   23588317.4054
       139.0004        143.0004
 -16953276.55849 -13192707.69047  21686905.008    21686905.2544   21686909.1284
       196.0004        196.0004
 -11054895.72548  -8595968.08046  22321712.202    22321712.9014   22321718.5214
       177.0004        178.0004
 -15701845.36249 -12218843.20248  21614570.302    21614570.5484   21614576.9794
       224.0004        224.0004
  -5719648.58347  -4443701.62246  23551333.227    23551333.1634   23551340.2304
       162.0004        165.0004
 -16535634.76449 -12868555.72847  21109003.507    21109004.1804   21109011.2434
       209.0004        209.0004
 -13180445.04848 -10257517.16746  21762607.287    21762605.7374   21762610.7664
       183.0004        183.0004
 -15009223.40048 -11678161.21446  21933953.968    21933953.5514   21933962.4814
       180.0004        181.0004
 21  1 31  0 30  0.0000000  0  9G17G14G07G04G08G30G09G21G01
  -3777967.48747  -2914815.44045  23869454.509    23869454.1794   23869460.6204
       157.0004        159.0004
