     2.11           OBSERVATION DATA    G (GPS)             RINEX VERSION / TYPE
teqc  2018Jun8                          20210202 03:10:34UTCPGM / RUN BY / DATE
Linux2.6.32-573.12.1.el6.x86_64|x86_64|gcc|Win64-MinGW64|=+ COMMENT
BIT 2 OF LLI FLAGS DATA COLLECTED UNDER A/S CONDITION       COMMENT
-Unknown-                                                   MARKER NAME
CRNO                                                        MARKER NUMBER
-Unknown-           -Unknown-                               OBSERVER / AGENCY
-Unknown-           ASHTECH             -Unknown-           REC # / TYPE / VERS
-Unknown-           -Unknown-                               ANT # / TYPE
   408078.8105 -6158373.1371  1605163.8392                  APPROX POSITION XYZ
        0.0000        0.0000        0.0000                  ANTENNA: DELTA H/E/N
     1     1                                                WAVELENGTH FACT L1/2
     7    L1    L2    C1    P1    P2    S1    S2            # / TYPES OF OBSERV
    30.0000                                                 INTERVAL
Forced Modulo Decimation to 30 seconds                      COMMENT
 SNR is mapped to RINEX snr flag value [1-9]                COMMENT
  L1: 1 -> 1;  90 -> 5; 210 -> 9                            COMMENT
  L2: 1 -> 1; 150 -> 5; 250 -> 9                            COMMENT
pseudorange smoothing corrections not applied               COMMENT
  2021     2     3     0     0   30.0000000     GPS         TIME OF FIRST OBS
                                                            END OF HEADER
 21  2  3  0  0 30.0000000  0  9G03G16G07G08G22G27G21G04G09
  -3027394.14948  -2338694.83146  23606969.475    23606970.2764   23606976.5814
       174.0004        180.0004
  -5774718.77647  -4476317.12245  23451896.400    23451896.1704   23451901.0594
       144.0004        147.0004
  -1481768.94247  -1119289.15745  24494703.584    24494703.6104   24494708.1104
       150.0004        153.0004
 -24152812.55549 -18779443.72847  20208203.557    20208204.0174   20208211.7274
       211.0004        212.0004
  -3042562.19547  -2343393.12445  24348245.995    24348244.9184   24348253.1894
       148.0004        150.0004
 -19399633.42249 -15076431.35747  21150637.167    21150637.5984   21150644.4254
       201.0004        201.0004
  -6063500.30047  -4712203.68045  23252210.854    23252210.3514   23252218.3074
       143.0004        148.0004
 -22153487.79249 -16963784.00848  20219485.403    20219485.5684   20219490.8434
       217.0004        215.0004
 -14938928.51749 -11611028.57947  21619065.888    21619066.1724   21619073.2384
       196.0004        196.0004
 21  2  3  0  1  0.0000000  0  9G03G16G07G08G22G27G21G04G09
  -2963495.77548  -2288903.89346  23619128.307    23619128.7034   23619135.3734
       177.0004        177.0004
  -5689604.19047  -4409994.06945  23468093.831    23468093.5884   23468098.1844
       144.0004        147.0004
  -1542151.46947  -1166340.43645  24483212.422    24483213.0964   24483218.5654
       153.0004        157.0004
 -24172494.98949 -18794780.67747  20204457.917    20204458.2124   20204465.9734
       211.0004        212.0004
  -2987995.03547  -2300873.48545  24358629.093    24358628.6534   24358635.9394
       145.0004        148.0004
 -19347484.11249 -15035795.51447  21160561.187    21160561.3484   21160567.9264
       201.0004        201.0004
  -6115069.30647  -4752387.23345  23242396.869    23242397.1884   23242405.1704
       144.0004        148.0004
 -22152850.02849 -16963287.05648  20219606.220    20219606.8674   20219612.4114
       217.0004        216.0004
 -15004986.31249 -11662502.16747  21606494.399    21606495.0174   21606502.8904
       196.0004        196.0004
 21  2  3  0  1 30.0000000  0  9G03G16G07G08G22G27G21G04G09
  -2899660.93048  -2239162.45046  23631274.229    23631274.7584   23631282.4514
       181.0004        185.0004
  -5604568.23747  -4343732.26745  23484274.119    23484275.2224   23484280.0224
       143.0004        146.0004
  -1602702.11747  -1213522.68145  24471690.840    24471690.6524   24471696.0264
       155.0004        159.0004
 -24191576.81849 -18809649.59947  20200826.550    20200827.2974   20200834.7254
       211.0004        212.0004
  -2933619.12947  -2258502.85545  24368976.301    24368975.5094   24368984.8164
       145.0004        149.0004
 -19294785.98649 -14994732.01447  21170589.856    21170589.6064   21170596.4024
       200.0004        200.0004
  -6166674.83747  -4792599.22845  23232576.716    23232576.2884   23232584.0844
       144.0004        148.0004
 -22151639.55049 -16962343.81048  20219837.137    20219837.2764   20219842.6174
       217.0004        215.0004
 -15070620.10449 -11713645.34647  21594006.706    21594006.1134   21594012.9654
       196.0004        197.0004
 21  2  3  0  2  0.0000000  0  9G03G16G07G08G22G27G21G04G09
  -2835894.25448  -2189474.18546  23643407.120    23643408.4924   23643417.2624
       183.0004        185.0004
  -5519614.71347  -4277534.67745  23500439.447    23500440.3084   23500446.5564
       142.0004        146.0004
  -1663422.03147  -1260836.84445  24460135.628    24460136.1434   24460141.5174
       157.0004        160.0004
 -24210059.22249 -18824051.46347  20197310.173    20197310.2324   20197317.5064
       211.0004        212.0004
  -2879437.71447  -2216283.80045  24379286.736    24379286.3214   24379295.1164
       145.0004        149.0004
 -19241543.09349 -14953244.04147  21180720.650    21180721.3674   21180727.4934
       200.0004        200.0004
  -6218315.97147  -4832838.97545  23222751.032    23222749.9424   23222756.4194
       146.0004        149.0004
 -22149858.11749 -16960955.69048  20220175.673    20220176.0464   20220181.8594
       217.0004        215.0004
 -15135829.69749 -11764458.01047  21581595.858    21581596.7314   21581603.7304
       196.0004        196.0004
 21  2  3  0  2 30.0000000  0  9G03G16G07G08G22G27G21G04G09
  -2772195.96048  -2139839.17946  23655529.507    23655530.5814   23655539.4104
       185.0004        187.0004
  -5434742.83147  -4211400.75645  23516592.740    23516592.8134   23516595.3204
       141.0004        145.0004
  -1724308.49047  -1308280.78145  24448549.703    24448549.7504   24448553.8344
       157.0004        159.0004
 -24227939.18149 -18837983.87047  20193906.964    20193907.5754   20193915.5184
       211.0004        212.0004
  -2825450.28947  -2174215.89745  24389561.307    24389561.3234   24389568.3534
       146.0004        150.0004
 -19187754.96649 -14911331.18647  21190956.694    21190956.8334   21190963.7074
       200.0004        201.0004
  -6269987.97747  -4873102.76645  23212917.329    23212917.0394   23212922.3364
       146.0004        149.0004
 -22147503.07449 -16959120.58848  20220623.388    20220623.8974   20220630.0984
       216.0004        215.0004
 -15200610.39249 -11814936.45347  21569269.081    21569269.3904   21569276.1204
       196.0004        196.0004
 21  2  3  0  3  0.0000000  0  9G03G16G07G08G22G27G21G04G09
  -2708570.67348  -2090261.04146  23667637.839    23667638.4194   23667647.3134
       187.0004        187.0004
  -5349956.24447  -4145333.29945  23532725.355    23532725.1214   23532729.8434
       141.0004        146.0004
  -1785363.51247  -1355856.06345  24436930.267    24436931.3304   24436935.7134
       157.0004        160.0004
 -24245218.13149 -18851447.96947  20190619.602    20190619.8894   20190627.0984
       212.0004        212.0004
  -2771660.81347  -2132302.27645  24399798.267    24399797.0384   24399803.5604
       147.0004        150.0004
 -19133425.75949 -14868996.72147  21201294.922    21201295.2764   21201302.0274
       200.0004        200.0004
  -6321691.26947  -4913390.94045  23203080.022    23203079.9864   23203084.1584
       147.0004        150.0004
 -22144576.30149 -16956839.97848  20221180.933    20221181.1754   20221186.9804
       216.0004        215.0004
 -15264962.03649 -11865080.57647  21557023.021    21557023.4754   21557030.7374
       196.0004        196.0004
 21  2  3  0  3 30.0000000  0  9G03G16G07G08G22G27G21G04G09
  -2645018.99948  -2040740.25046  23679730.563    23679730.9114   23679739.9254
       185.0004        184.0004
  -5265254.75947  -4079332.09945  23548843.658    23548845.8874   23548847.7784
       141.0004        144.0004
  -1846585.11547  -1403561.14745  24425279.932    24425280.3284   24425285.3304
       157.0004        160.0004
 -24261893.45649 -18864441.70547  20187446.252    20187446.3204   20187454.1374
       212.0004        212.0004
  -2718069.00147  -2090542.64245  24409995.787    24409995.9824   24410003.8344
       147.0004        151.0004
 -19078555.55949 -14826240.69547  21211735.646    21211736.0464   21211743.3054
       200.0004        200.0004
  -6373421.78447  -4953700.33145  23193235.088    23193234.0174   23193241.0834
       148.0004        152.0004
 -22141075.62749 -16954112.17248  20221846.770    20221847.1144   20221852.9604
       216.0004        215.0004
 -15328880.45649 -11914887.10647  21544859.403    21544859.9104   21544867.8774
       196.0004        197.0004
 21  2  3  0  4  0.0000000  0  9G03G16G07G08G22G27G21G04G09
  -2581544.18148  -1991279.37646  23691809.501    23691810.6164   23691818.6754
       184.0004        184.0004
  -5180640.54047  -4013398.93745  23564946.483    23564943.0464   23564950.5604
       139.0004        143.0004
  -1907973.50647  -1451396.21745  24413597.155    24413599.0484   24413604.3144
       158.0004        161.0004
 -24277965.13049 -18876965.06948  20184387.402    20184388.2074   20184395.9614
       212.0004        213.0004
  -2664676.72947  -2048938.51745  24420155.785    24420156.4784   24420162.8314
       147.0004        150.0004
 -19023147.19949 -14783065.32747  21222279.887    21222280.2064   21222286.9604
       199.0004        200.0004
  -6425176.80247  -4994028.79045  23183384.277    23183384.8204   23183393.3474
       149.0004        152.0004
 -22137001.65849 -16950937.64848  20222622.730    20222622.8954   20222628.3034
       216.0004        215.0004
 -15392364.19649 -11964354.93847  21532779.475    21532779.9494   21532786.9014
       197.0004        199.0004
 21  2  3  0  4 30.0000000  0  9G03G16G07G08G22G27G21G04G09
  -2518148.67648  -1941880.33946  23703875.316    23703875.1174   23703882.0664
       185.0004        186.0004
  -5096115.45147  -3947535.22745  23581029.736    23581029.3704   23581035.2424
       139.0004        144.0004
  -1969528.47847  -1499361.09845  24401883.925    24401885.1364   24401890.6224
       159.0004        161.0004
 -24293432.69249 -18889017.70347  20181444.573    20181444.5754   20181452.1604
       212.0004        212.0004
  -2611485.91947  -2007491.39045  24430277.876    24430276.3524   24430285.8264
       144.0004        148.0004
 -18967202.62949 -14739472.14747  21232926.113    21232926.3084   21232932.9574
       199.0004        200.0004
  -6476954.67547  -5034375.08345  23173531.770    23173532.6224   23173538.7124
       149.0004        152.0004
 -22132354.15349 -16947316.22648  20223506.615    20223507.1024   20223512.6964
       216.0004        215.0004
 -15455410.92449 -12013482.25247  21520782.646    21520782.8254   21520789.5954
       199.0004        199.0004
 21  2  3  0  5  0.0000000  0  9G03G16G07G08G22G27G21G04G09
  -2454834.92048  -1892544.94646  23715919.420    23715920.9364   23715931.3704
       184.0004        185.0004
  -5011680.96447  -3881742.11645  23597096.394    23597096.4704   23597102.2934
       139.0004        143.0004
  -2031249.38347  -1547455.24445  24390140.948    24390141.1334   24390145.2274
       160.0004        162.0004
 -24308295.45349 -18900599.06847  20178615.776    20178616.2504   20178623.6334
       211.0004        212.0004
  -2558497.94747  -1966202.30645  24440360.732    24440360.8694   24440369.2844
       144.0004        147.0004
 -18910723.90149 -14695462.73747  21243673.871    21243674.0044   21243680.7044
       199.0004        200.0004
  -6528752.66347  -5074737.05745  23163676.594    23163675.8314   23163681.5254
       151.0004        153.0004
 -22127132.85349 -16943247.68348  20224500.273    20224500.6764   20224506.2234
       216.0004        215.0004
 -15518018.33349 -12062267.23247  21508869.283    21508869.5214   21508875.5674
       199.0004        200.0004
 21  2  3  0  5 30.0000000  0  9G03G16G07G08G22G27G21G04G09
  -2391606.06848  -1843275.73646  23727954.628    23727955.6104   23727962.7654
       186.0004        187.0004
  -4927339.26547  -3816021.32245  23613149.287    23613148.0144   23613152.8114
       139.0004        144.0004
  -2093136.81147  -1595679.19145  24378363.240    24378363.6064   24378368.0454
       158.0004        158.0004
 -24322553.38149 -18911709.12047  20175902.117    20175902.7174   20175910.5494
       211.0004        212.0004
  -2505714.87447  -1925072.86645  24450407.847    24450405.5484   24450412.9764
       144.0004        149.0004
 -18853713.80949 -14651039.27747  21254521.853    21254522.3924   21254529.0214
       199.0004        199.0004
  -6580568.67547  -5115113.08645  23153817.264    23153815.7024   23153820.9484
       151.0004        154.0004
 -22121338.40449 -16938732.52148  20225603.127    20225603.4834   20225608.9594
       216.0004        215.0004
 -15580184.93649 -12110708.71747  21497039.570    21497039.4914   21497045.8554
       200.0004        200.0004
 21  2  3  0  6  0.0000000  0  9G03G16G07G08G22G27G21G04G09
  -2328463.81248  -1794073.96846  23739969.633    23739970.2994   23739979.2924
       186.0004        187.0004
  -4843091.13747  -3750373.43745  23629178.893    23629179.2644   23629184.2984
       139.0004        144.0004
  -2155189.47947  -1644031.87545  24366555.267    24366555.5724   24366559.1434
       156.0004        158.0004
 -24336205.47549 -18922347.09547  20173304.820    20173305.1564   20173313.0354
       212.0004        212.0004
  -2453138.03747  -1884104.12245  24460409.391    24460409.1984   24460419.2454
       144.0004        147.0004
 -18796173.71749 -14606202.81047  21265471.998    21265472.2174   21265478.7004
       199.0004        199.0004
  -6632400.01047  -5155501.03345  23143953.172    23143951.5964   23143958.8554
       152.0004        156.0004
 -22114969.91249 -16933770.05348  20226814.368    20226814.6794   20226820.7484
       216.0004        214.0004
 -15641907.74649 -12158804.40747  21485293.436    21485293.2344   21485300.4154
       200.0004        200.0004
 21  2  3  0  6 30.0000000  0  9G03G16G07G08G22G27G21G04G09
  -2265411.69348  -1744942.47646  23751967.969    23751968.4574   23751977.0644
       186.0004        187.0004
  -4758939.11547  -3684800.43745  23645194.126    23645193.8204   23645196.7024
       140.0004        144.0004
  -2217408.08547  -1692513.87145  24354716.125    24354715.4504   24354719.5794
       157.0004        160.0004
 -24349251.95349 -18932513.15947  20170821.781    20170822.5424   20170830.4094
       212.0004        212.0004
  -2400769.61347  -1843297.78145  24470375.626    24470376.2834   24470384.7174
       143.0004        146.0004
 -18738106.81349 -14560955.85047  21276521.872    21276521.8054   21276528.5504
       199.0004        200.0004
  -6684245.24647  -5195899.80145  23134086.113    23134085.6804   23134091.9074
       153.0004        156.0004
 -22108028.38349 -16928361.06248  20228135.593    20228136.1474   20228141.6734
       216.0004        214.0004
 -15703185.67549 -12206553.43347  21473631.992    21473632.6754   21473639.6074
       200.0004        200.0004
 21  2  3  0  7  0.0000000  0  9G03G16G07G08G22G27G21G04G09
  -2202450.01748  -1695881.46446  23763949.232    23763949.2294   23763958.2064
       186.0004        187.0004
  -4674882.53447  -3619301.83045  23661187.163    23661187.6234   23661194.0644
       139.0004        144.0004
  -2279790.47547  -1741123.48746  24342844.218    24342844.8124   24342848.8104
       160.0004        163.0004
 -24361690.43549 -18942205.46947  20168455.009    20168455.4764   20168463.0454
       212.0004        212.0004
  -2348609.48047  -1802653.77845  24480302.298    24480302.8024   24480308.8044
       141.0004        145.0004
 -18679513.09249 -14515298.38947  21287671.830    21287671.8124   21287678.9734
       199.0004        200.0004
  -6736099.84347  -5236305.90645  23124217.830    23124217.8834   23124224.8994
       153.0004        155.0004
 -22100511.61049 -16922503.83548  20229566.438    20229566.6654   20229572.2014
       216.0004        215.0004
 -15764014.37649 -12253952.41147  21462057.519    21462057.3534   21462064.7184
       201.0004        202.0004
 21  2  3  0  7 30.0000000  0  9G03G16G07G08G22G27G21G04G09
  -2139581.46048  -1646892.98446  23775912.382    23775913.1504   23775921.6504
       186.0004        186.0004
  -4590923.25147  -3553878.97345  23677166.750    23677165.1124   23677171.0264
       140.0004        144.0004
  -2342335.94747  -1789860.17645  24330942.285    24330942.4594   24330946.6874
       161.0004        162.0004
 -24373520.86049 -18951423.97248  20166204.714    20166204.8224   20166212.0174
       212.0004        213.0004
  -2296658.95947  -1762173.11045  24490187.661    24490188.4104   24490195.4784
       138.0004        143.0004
 -18620395.00849 -14469232.33647  21298921.626    21298921.7734   21298928.4464
       199.0004        199.0004
  -6787961.63747  -5276717.59145  23114349.901    23114349.0924   23114355.1994
       153.0004        155.0004
 -22092419.83649 -16916198.56348  20231105.921    20231106.2174   20231112.0134
       216.0004        214.0004
 -15824391.96249 -12300999.88047  21450567.469    21450567.6204   21450574.8124
       201.0004        201.0004
 21  2  3  0  8  0.0000000  0  9G03G16G07G08G22G27G21G04G09
  -2076809.35948  -1597979.66747  23787858.521    23787858.8104   23787866.7954
       187.0004        188.0004
  -4507063.51047  -3488533.75645  23693124.178    23693123.8794   23693129.0394
       140.0004        144.0004
  -2405045.34147  -1838724.58345  24319007.707    24319008.7334   24319014.5334
       160.0004        162.0004
 -24384743.47549 -18960168.85148  20164068.542    20164068.7744   20164076.3624
       212.0004        213.0004
  -2244920.23847  -1721857.48745  24500036.987    24500034.6344   24500041.4344
       140.0004        145.0004
 -18560755.71149 -14422760.14347  21310270.214    21310270.4514   21310277.2744
       199.0004        199.0004
  -6839828.28847  -5317133.06545  23104478.575    23104477.9434   23104485.0584
       150.0004        152.0004
 -22083753.97749 -16909445.93948  20232754.728    20232755.2384   20232761.3154
       216.0004        215.0004
 -15884317.22849 -12347694.88347  21439164.289    21439164.2224   21439171.1994
       201.0004        201.0004
 21  2  3  0  8 30.0000000  0  9G03G16G07G08G22G27G21G04G09
  -2014136.84548  -1549143.96547  23799784.508    23799784.9524   23799793.7904
       187.0004        188.0004
  -4423305.73347  -3423267.93345  23709061.702    23709061.4534   23709067.6734
       137.0004        142.0004
  -2467919.08347  -1887717.09546  24307045.496    24307045.0614   24307048.8854
       161.0004        163.0004
 -24395358.47749 -18968440.27048  20162048.688    20162049.0904   20162056.4764
       212.0004        213.0004
  -2193396.10147  -1681709.07445  24509840.325    24509838.1734   24509846.7324
       141.0004        146.0004
 -18500598.02149 -14375884.02147  21321717.458    21321718.3314   21321725.5884
       199.0004        199.0004
  -6891698.52347  -5357551.35545  23094609.530    23094608.9384   23094614.8944
       151.0004        155.0004
 -22074514.81649 -16902246.60048  20234512.968    20234513.5954   20234519.2304
       216.0004        214.0004
 -15943788.62449 -12394036.24447  21427847.364    21427847.5784   21427854.4854
       201.0004        202.0004
 21  2  3  0  9  0.0000000  0  9G03G16G07G08G22G27G21G04G09
  -1951564.61748  -1500386.41647  23811691.539    23811692.0524   23811701.1554
       189.0004        190.0004
  -4339649.54547  -3358081.26245  23724982.288    23724982.2034   23724984.6804
       136.0004        141.0004
  -2530954.81347  -1936835.80945  24295049.651    24295049.3164   24295053.4914
       159.0004        160.0004
 -24405364.12349 -18976236.85148  20160145.269    20160145.2324   20160152.6964
       213.0004        214.0004
  -2142086.13147  -1641727.51945  24519604.164    24519604.6484   24519613.1774
       143.0004        147.0004
 -18439922.51849 -14328604.37747  21333263.676    21333264.0254   21333270.9964
       198.0004        198.0004
  -6943568.82047  -5397969.65045  23084737.647    23084737.2144   23084744.1854
       150.0004        153.0004
 -22064700.65249 -16894599.19148  20236380.404    20236380.9214   20236386.5054
       215.0004        214.0004
 -16002802.41949 -12440020.99647  21416616.888    21416617.5144   21416624.3564
       201.0004        202.0004
 21  2  3  0  9 30.0000000  0  9G03G16G07G08G22G27G21G04G09
  -1889095.56248  -1451709.23147  23823578.901    23823579.5244   23823587.9194
       190.0004        191.0004
  -4256096.81347  -3292975.24345  23740879.145    23740880.3494   23740886.5964
       136.0004        140.0004
  -2594152.55647  -1986080.73445  24283022.327    24283023.1414   24283028.0304
       158.0004        159.0004
 -24414760.57949 -18983558.74248  20158356.318    20158356.7894   20158364.4304
       213.0004        213.0004
  -2090992.11447  -1601914.22145  24529324.962    24529325.6464   24529333.1894
       141.0004        144.0004
 -18378731.95449 -14280923.40047  21344907.915    21344908.4064   21344914.9634
       198.0004        198.0004
  -6995436.64747  -5438386.04245  23074867.550    23074867.2184   23074873.1314
       152.0004        156.0004
 -22054312.10649 -16886504.20848  20238357.211    20238357.6794   20238363.5984
       215.0004        214.0004
 -16061356.98149 -12485647.90847  21405474.836    21405475.0184   21405481.6044
       202.0004        202.0004
 21  2  3  0 10  0.0000000  0  9G03G16G07G08G22G27G21G04G09
  -1826732.19548  -1403114.44147  23835446.547    23835447.0904   23835455.0724
       189.0004        189.0004
  -4172649.22147  -3227951.18445  23756759.348    23756759.6844   23756765.3584
       136.0004        141.0004
  -2657511.83147  -2035451.54945  24270964.867    24270966.6084   24270971.0764
       156.0004        158.0004
 -24423547.25649 -18990405.48347  20156683.997    20156684.5104   20156692.0534
       212.0004        212.0004
  -2040115.57647  -1562270.44745  24539009.045    24539006.8084   24539015.8414
       139.0004        143.0004
 -18317028.76949 -14232842.98147  21356650.259    21356650.5134   21356657.0874
       198.0004        198.0004
  -7047299.39047  -5478798.45745  23064998.940    23064999.1204   23065005.7124
       154.0004        156.0004
 -22043349.46949 -16877961.89048  20240443.719    20240444.0624   20240449.8084
       215.0004        214.0004
 -16119450.44349 -12530915.53747  21394419.604    21394420.3064   21394426.4034
       201.0004        201.0004
 21  2  3  0 10 30.0000000  0  9G03G16G07G08G22G27G21G04G09
  -1764477.29848  -1354604.14347  23847292.872    23847293.4504   23847301.8774
       189.0004        189.0004
  -4089308.63347  -3163010.44945  23772620.785    23772620.8244   23772623.8994
       136.0004        142.0004
  -2721032.80247  -2084948.35445  24258878.079    24258878.7214   24258881.7654
       157.0004        159.0004
 -24431724.59349 -18996777.39748  20155128.008    20155128.3804   20155136.1674
       212.0004        213.0004
  -1989458.85247  -1522797.90645  24548647.475    24548647.2864   24548653.0434
       137.0004        142.0004
 -18254815.53349 -14184365.10347  21368488.996    21368489.4964   21368495.6744
       198.0004        198.0004
  -7099155.23547  -5519205.48945  23055129.968    23055130.4684   23055137.1294
       153.0004        155.0004
 -22031813.15049 -16868972.53548  20242638.578    20242639.0334   20242645.1844
       215.0004        214.0004
 -16177080.95649 -12575822.41447  21383452.790    21383452.9134   21383459.4374
       201.0004        200.0004
 21  2  3  0 11  0.0000000  0 10G03G16G07G08G01G22G27G21G04G09
  -1702331.98348  -1306179.24947  23859118.918    23859119.8454   23859127.8384
       188.0004        188.0004
  -4006075.29847  -3098153.31345  23788460.466    23788459.2394   23788463.0034
       138.0004        144.0004
  -2784713.72347  -2134569.83845  24246760.003    24246760.9704   24246764.7034
       158.0004        161.0004
 -24439291.21049 -19002673.45248  20153688.500    20153688.7664   20153696.1844
       212.0004        213.0004
   -927193.01454
        74.0004
  -1939021.75547  -1483496.52545  24558246.306    24558245.2704   24558252.9874
       138.0004        144.0004
 -18192093.43549 -14135490.73347  21380424.576    21380424.4134   21380431.4764
       197.0004        197.0004
  -7151000.16647  -5559604.05945  23045264.994    23045265.0294   23045272.0734
       153.0004        155.0004
 -22019702.19549 -16859535.43348  20244943.441    20244943.8114   20244949.4794
       215.0004        214.0004
 -16234245.30849 -12620366.06447  21372574.782    21372575.2444   21372581.6514
       200.0004        201.0004
 21  2  3  0 11 30.0000000  0 10G03G16G07G08G01G22G27G21G04G09
  -1640300.28348  -1257842.87746  23870922.494    23870922.9454   23870931.9534
       186.0004        185.0004
  -3922952.13347  -3033382.00845  23804274.504    23804275.5554   23804279.5194
       138.0004        142.0004
  -2848555.71947  -2184316.81345  24234611.920    24234611.4624   24234617.1214
       158.0004        160.0004
 -24446248.60849 -19008094.76748  20152364.109    20152364.4144   20152372.0474
       212.0004        213.0004
   -990662.22044   -762131.02544  24477041.104
        74.0004        131.0004
  -1888807.43947  -1444368.76345  24567799.031    24567800.0654   24567809.2484
       138.0004        142.0004
 -18128866.41549 -14086222.90747  21392455.848    21392456.3654   21392463.0504
       197.0004        198.0004
  -7202833.50947  -5599993.55045  23035400.989    23035399.9644   23035406.6854
       151.0004        153.0004
 -22007018.44849 -16849651.97748  20247357.037    20247357.6614   20247363.0074
       215.0004        214.0004
 -16290943.15249 -12664546.18247  21361785.888    21361786.1444   21361792.6074
       201.0004        202.0004
 21  2  3  0 12  0.0000000  0 10G03G16G07G08G01G22G27G21G04G09
  -1578383.18648  -1209595.83346  23882705.406    23882706.1374   23882714.3584
       185.0004        185.0004
  -3839938.84047  -2968696.33545  23820076.188    23820073.6964   23820077.3234
       140.0004        145.0004
  -2912557.08447  -2234187.97445  24222432.330    24222433.2444   24222437.5264
       157.0004        159.0004
 -24452595.14849 -19013040.11648  20151156.335    20151157.0944   20151164.4364
       212.0004        213.0004
  -1047199.60744   -806185.801 5                                  24466292.748
        74.0004        142.000
  -1838816.10247  -1405414.78645  24577315.245    24577314.3324   24577321.7044
       136.0004        140.0004
 -18065135.41549 -14036562.38247  21404583.524    21404584.0064   21404590.3224
       197.0004        197.0004
  -7254651.61047  -5640371.20645  23025539.799    23025540.9084   23025546.6984
       150.0004        153.0004
 -21993760.73949 -16839321.30148  20249880.279    20249880.7224   20249886.0734
       215.0004        214.0004
 -16347171.02349 -12708360.11047  21351086.331    21351086.7574   21351092.8904
       202.0004        203.0004
 21  2  3  0 12 30.0000000  0 10G03G16G07G08G01G22G27G21G04G09
  -1516583.70148  -1161440.44146  23894464.608    23894466.2084   23894473.9574
       183.0004        182.0004
  -3757037.88847  -2904098.23545  23835851.149    23835850.9204   23835853.1604
       142.0004        147.0004
  -2976717.78347  -2284183.31945  24210223.485    24210223.7124   24210226.8914
       156.0004        158.0004
 -24458331.20449 -19017509.76548  20150065.466    20150065.5954   20150072.9194
       212.0004        213.0004
  -1114299.68246   -858471.11345  24453510.526                    24453524.1194
       123.0004        141.0004
  -1789049.99546  -1366636.30645  24586783.464    24586783.9744   24586793.3424
       134.0004        138.0004
 -18000903.56249 -13986511.58847  21416806.644    21416806.8094   21416813.3674
       211.0004        212.0004
  -7306452.77947  -5680735.63845  23015683.603    23015682.7644   23015687.7994
       151.0004        154.0004
 -21979930.00249 -16828544.11348  20252512.158    20252512.4844   20252518.2054
       215.0004        214.0004
 -16402927.65149 -12751806.82947  21340476.527    21340476.2814   21340483.5184
       203.0004        203.0004
 21  2  3  0 13  0.0000000  0 10G03G16G07G08G01G22G27G21G04G09
  -1454903.75648  -1113378.13746  23906201.953    23906203.2434   23906211.8474
       182.0004        183.0004
  -3674250.10747  -2839588.24945  23851602.752    23851602.8534   23851607.1084
       141.0004        145.0004
  -3041036.80547  -2334301.99145  24197984.134    24197983.7934   24197989.0664
       156.0004        158.0004
 -24463456.19949 -19021503.23448  20149089.610    20149090.3084   20149097.5914
       212.0004        213.0004
  -1176507.91746   -906944.63845  24441670.942    24441672.8004   24441684.4824
       132.0004        140.0004
  -1739509.45047  -1328033.54945  24596214.021    24596212.7414   24596219.7364
       136.0004        143.0004
 -17936172.76949 -13936071.98747  21429124.129    21429124.5044   21429131.1724
       213.0004        212.0004
  -7358233.28847  -5721083.97045  23005830.428    23005829.0644   23005835.7924
       150.0004        153.0004
 -21965526.11949 -16817320.29048  20255252.398    20255253.0764   20255259.0484
       214.0004        213.0004
 -16458210.60749 -12794884.44747  21329955.523    21329956.2494   21329963.0364
       203.0004        203.0004
 21  2  3  0 13 30.0000000  0 10G03G16G07G08G01G22G27G21G04G09
  -1393347.15848  -1065411.99046  23917916.256    23917916.6974   23917925.6114
       181.0004        181.0004
  -3591578.37047  -2775168.69245  23867333.576    23867332.8374   23867338.8544
       137.0004        141.0004
  -3105515.53547  -2384545.10545  24185714.382    24185714.1554   24185719.6764
       157.0004        158.0004
 -24467971.70349 -19025021.78848  20148230.641    20148231.2354   20148238.3294
       212.0004        213.0004
  -1238975.07646   -955619.92845  24429785.665    24429786.2334   24429797.7204
       134.0004        140.0004
  -1690197.75947  -1289609.09745  24605597.156    24605596.4834   24605605.2884
       138.0004        143.0004
 -17870946.92949 -13885246.64748  21441536.328    21441536.8294   21441543.4734
       221.0004        226.0004
  -7409992.71347  -5761415.85745  22995979.751    22995979.7644   22995984.6284
       150.0004        151.0004
 -21950550.93149 -16805651.31848  20258102.662    20258103.0964   20258108.5664
       214.0004        213.0004
 -16513019.42749 -12837592.61047  21319525.781    21319526.5184   21319532.9604
       203.0004        202.0004
 21  2  3  0 14  0.0000000  0 10G03G16G07G08G01G22G27G21G04G09
  -1331913.49748  -1017541.63846  23929605.621    23929606.5154   23929615.9374
       178.0004        178.0004
  -3509021.28947  -2710838.52045  23883045.400    23883045.9944   23883049.4974
       138.0004        142.0004
  -3170150.53647  -2434909.97545  24173414.083    24173414.1634   24173419.1094
       155.0004        156.0004
 -24471874.97849 -19028063.26548  20147487.697    20147488.3384   20147495.5774
       212.0004        213.0004
  -1301696.77447  -1004493.53045  24417849.860    24417850.6434   24417863.3994
       138.0004        144.0004
  -1641113.55847  -1251361.95345  24614939.257    24614937.8574   24614945.5194
       141.0004        146.0004
 -17805225.82449 -13834035.36548  21454043.284    21454043.1644   21454049.8884
       225.0004        226.0004
  -7461725.51447  -5801727.02745  22986135.779    22986134.1104   22986140.8274
       149.0004        152.0004
 -21935002.04249 -16793535.28348  20261060.926    20261061.5904   20261067.5884
       214.0004        213.0004
 -16567349.49349 -12879927.69947  21309187.837    21309187.9654   21309194.2654
       202.0004        203.0004
 21  2  3  0 14 30.0000000  0 10G03G16G07G08G01G22G27G21G04G09
  -1270606.14748   -969769.71146  23941272.962    23941274.0784   23941282.5264
       179.0004        180.0004
  -3426581.18047  -2646599.49045  23898732.130    23898732.2864   23898737.6934
       138.0004        143.0004
  -3234942.27147  -2485397.02245  24161084.708    24161084.6114   24161087.6404
       152.0004        153.0004
 -24475167.03149 -19030628.50248  20146861.400    20146861.8424   20146868.8434
       212.0004        213.0004
  -1364672.41047  -1053565.06945  24405864.951    24405866.4164   24405877.6274
       140.0004        144.0004
  -1592259.42147  -1213294.14245  24624234.531    24624233.2344   24624242.9734
       140.0004        143.0004
 -17739012.94249 -13782440.92848  21466642.310    21466642.7324   21466650.0904
       225.0004        225.0004
  -7513430.45647  -5842016.51145  22976297.922    22976297.4924   22976301.4474
       149.0004        152.0004
 -21918880.91649 -16780973.38348  20264129.162    20264129.6004   20264135.4354
       214.0004        213.0004
 -16621199.89049 -12921889.05947  21298940.183    21298940.5724   21298946.5844
       202.0004        203.0004
 21  2  3  0 15  0.0000000  0 10G03G16G07G08G01G22G27G21G04G09
  -1209427.29548   -922097.88146  23952915.801    23952916.6644   23952925.6054
       182.0004        184.0004
  -3344259.25247  -2582452.54545  23914399.216    23914397.1054   23914404.3614
       139.0004        144.0004
  -3299890.17647  -2536005.76045  24148725.198    24148725.2974   24148728.9034
       150.0004        152.0004
 -24477847.82249 -19032717.39248  20146351.472    20146351.7374   20146358.8184
       212.0004        213.0004
  -1427900.18447  -1102833.05745  24393828.634    24393830.0554   24393846.0174
       135.0004        139.0004
  -1543636.38647  -1175406.33445  24633485.643    24633485.7514   24633495.5554
       136.0004        140.0004
 -17672310.52549 -13730464.99848  21479335.289    21479335.8324   21479342.6214
       225.0004        225.0004
  -7565104.91447  -5882282.21145  22966464.843    22966463.9384   22966467.7424
       149.0004        151.0004
 -21902187.72749 -16767965.69147  20267305.498    20267306.0204   20267311.7834
       214.0004        212.0004
 -16674568.52849 -12963474.99547  21288784.350    21288785.1494   21288791.0564
       203.0004        203.0004
 21  2  3  0 15 30.0000000  0 10G03G16G07G08G01G22G27G21G04G09
  -1148378.50648   -874527.43946  23964531.823    23964533.4544   23964542.6474
       183.0004        183.0004
  -3262056.23047  -2518398.24245  23930039.596    23930040.0064   23930045.0254
       137.0004        141.0004
  -3364992.54747  -2586734.86945  24136335.513    24136336.9804   24136341.0654
       150.0004        155.0004
 -24479916.57449 -19034329.39048  20145957.746    20145958.0794   20145965.4644
       213.0004        213.0004
  -1491377.57946  -1152295.57745  24381751.957    24381753.8834   24381766.6664
       134.0004        140.0004
  -1495245.18046  -1137699.15645  24642694.842    24642694.2764   24642704.2044
       134.0004        140.0004
 -17605120.44349 -13678109.08548  21492121.483    21492121.6234   21492128.4724
       224.0004        224.0004
  -7616745.28747  -5922521.38045  22956634.882    22956635.2704   22956640.3134
       147.0004        151.0004
 -21884922.27549 -16754512.09547  20270591.156    20270591.5184   20270597.3844
       214.0004        212.0004
 -16727452.85449 -13004683.56347  21278721.402    21278721.4744   21278727.6884
       203.0004        204.0004
 21  2  3  0 16  0.0000000  0 10G03G16G07G08G01G22G27G21G04G09
  -1087462.42148   -827060.41746  23976122.710    23976124.1734   23976133.5184
       179.0004        177.0004
  -3179973.64047  -2454437.77345  23945661.355    23945661.2574   23945665.3504
       138.0004        143.0004
  -3430249.33647  -2637584.27145  24123919.192    24123919.2284   24123923.8614
       153.0004        156.0004
 -24481374.06649 -19035465.08248  20145680.291    20145680.5334   20145688.0734
       213.0004        213.0004
  -1555103.35147  -1201951.71745  24369627.265    24369628.2724   24369640.1744
       138.0004        144.0004
  -1447086.90446  -1100173.55445  24651860.111    24651858.9304   24651870.7744
       134.0004        141.0004
 -17537445.45149 -13625375.33048  21504999.252    21504999.5714   21505006.7804
       224.0004        224.0004
  -7668349.29347  -5962732.17945  22946815.165    22946815.1304   22946821.4984
       147.0004        151.0004
 -21867085.32849 -16740613.18448  20273985.370    20273986.1094   20273991.3484
       214.0004        213.0004
 -16779851.37049 -13045513.56947  21268750.276    21268750.1464   21268756.5844
       203.0004        203.0004
 21  2  3  0 16 30.0000000  0 10G03G16G07G08G01G22G27G21G04G09
  -1026682.52948   -779699.46846  23987690.413    23987691.4684   23987698.8814
       176.0004        176.0004
  -3098014.13347  -2390573.22245  23961258.408    23961257.8644   23961260.9774
       139.0004        145.0004
  -3495661.24147  -2688554.52345  24111470.303    24111470.9544   24111475.9614
       154.0004        157.0004
 -24482221.33349 -19036125.25448  20145518.772    20145519.2834   20145526.6694
       213.0004        213.0004
  -1619076.97447  -1251800.92045  24357452.899    24357455.1034   24357464.9034
       139.0004        145.0004
  -1399164.61747  -1062831.81245  24660979.251    24660980.4874   24660988.8734
       137.0004        143.0004
 -17469289.39049 -13572266.69048  21517967.649    21517969.0644   21517976.1604
       224.0004        223.0004
  -7719915.52147  -6002913.55645  22937004.308    22937002.9974   22937008.6064
       148.0004        153.0004
 -21848678.64849 -16726270.29848  20277488.175    20277488.5024   20277494.2214
       214.0004        213.0004
 -16831763.39349 -13085964.47047  21258870.186    21258870.5034   21258878.4494
       201.0004        201.0004
 21  2  3  0 17  0.0000000  0 10G03G16G07G08G01G22G27G21G04G09
   -966040.57348   -732446.01846  23999231.109    23999231.5854   23999238.5064
       175.0004        176.0004
  -3016178.17447  -2326804.95745  23976831.001    23976830.4054   23976832.8364
       139.0004        144.0004
  -3561227.27547  -2739644.91945  24098994.351    24098995.0644   24098998.6474
       155.0004        157.0004
 -24482457.72249 -19036309.43848  20145473.776    20145474.2024   20145481.5134
       212.0004        213.0004
  -1683296.31447  -1301841.61345  24345230.091    24345232.4844   24345243.8024
       135.0004        140.0004
  -1351479.27847  -1025674.75345  24670055.351    24670054.1464   24670063.3714
       141.0004        146.0004
 -17400654.20749 -13518784.73248  21531030.474    21531030.4294   21531036.9644
       223.0004        223.0004
  -7771441.50247  -6043063.58045  22927198.879    22927198.3764   22927202.9004
       149.0004        152.0004
 -21829702.20249 -16711483.45947  20281099.207    20281099.4714   20281105.5654
       214.0004        212.0004
 -16883186.59049 -13126034.47547  21249083.303    21249083.9264   21249092.7614
       200.0004        200.0004
 21  2  3  0 17 30.0000000  0 10G03G16G07G08G01G22G27G21G04G09
   -905538.00948   -685301.19046  24010742.966    24010743.1794   24010753.3594
       175.0004        177.0004
  -2934466.30047  -2263133.34445  23992379.695    23992379.6494   23992383.2794
       140.0004        145.0004
  -3626946.19047  -2790854.42545  24086486.799    24086487.6894   24086492.5984
       154.0004        157.0004
 -24482082.94749 -19036017.38148  20145545.234    20145545.8114   20145552.7224
       212.0004        213.0004
  -1747758.64746  -1352071.66345  24332964.271    24332965.4634   24332978.1154
       134.0004        139.0004
  -1304031.29347   -988702.61045  24679085.350    24679083.9594   24679090.9594
       140.0004        144.0004
 -17331541.67149 -13464930.78248  21544182.301    21544182.0804   21544188.9314
       223.0004        223.0004
  -7822923.82847  -6083179.57345  22917401.838    22917401.9674   22917407.2094
       149.0004        154.0004
 -21810155.73349 -16696252.43347  20284819.113    20284819.3934   20284825.0094
       214.0004        212.0004
 -16934118.38949 -13165721.56647  21239391.894    21239392.3544   21239400.5684
       199.0004        200.0004
 21  2  3  0 18  0.0000000  0 10G03G16G07G08G01G22G27G21G04G09
   -845177.09448   -638266.74346  24022230.033    24022230.7464   24022239.7824
       177.0004        179.0004
  -2852879.88147  -2199559.52645  24007904.882    24007904.0904   24007908.2534
       140.0004        144.0004
  -3692817.04047  -2842182.33645  24073953.595    24073953.6624   24073958.7424
       155.0004        157.0004
 -24481097.06449 -19035249.14847  20145733.062    20145733.4494   20145740.2364
       212.0004        212.0004
  -1812462.29946  -1402489.76945  24320652.349    24320652.2804   24320665.8154
       133.0004        138.0004
  -1256822.06247   -951916.51945  24688069.074    24688067.1284   24688075.9834
       139.0004        144.0004
 -17261954.33849 -13410706.88248  21557423.864    21557423.7764   21557431.1524
       223.0004        223.0004
  -7874359.61047  -6123259.34345  22907613.108    22907612.3054   22907618.5064
       151.0004        155.0004
 -21790039.83749 -16680577.70947  20288647.166    20288647.3244   20288653.1224
       214.0004        212.0004
 -16984556.90849 -13205024.30247  21229794.484    21229794.6864   21229802.8784
       201.0004        202.0004
 21  2  3  0 18 30.0000000  0 10G03G16G07G08G01G22G27G21G04G09
   -784961.35048   -591345.40946  24033688.732    24033688.9144   24033697.2864
       177.0004        178.0004
  -2771421.38247  -2136085.37145  24023405.046    24023405.8804   24023409.5544
       139.0004        143.0004
  -3758840.43447  -2893629.10545  24061390.076    24061390.4874   24061394.1704
       156.0004        160.0004
 -24479501.61849 -19034005.91848  20146036.406    20146036.8274   20146043.6254
       212.0004        213.0004
  -1877406.83946  -1453095.62445  24308289.416    24308290.8214   24308304.3744
       128.0004        135.0004
  -1209853.86647   -915318.26045  24697005.638    24697005.2074   24697014.0974
       141.0004        146.0004
 -17191896.05549 -13356116.00048  21570754.719    21570755.1654   21570762.3314
       222.0004        222.0004
  -7925747.45147  -6163301.70045  22897833.211    22897833.8284   22897840.1654
       152.0004        156.0004
 -21769356.33249 -16664460.68047  20292582.602    20292582.9924   20292588.8064
       214.0004        212.0004
 -17034501.66149 -13243942.27647  21220290.935    21220291.7924   21220298.6114
       202.0004        204.0004
 21  2  3  0 19  0.0000000  0 10G03G16G07G08G01G22G27G21G04G09
   -724890.47548   -544537.00146  24045120.292    24045120.5854   24045128.4634
       176.0004        177.0004
  -2690089.52247  -2072709.93145  24038882.581    24038882.6074   24038886.3354
       139.0004        143.0004
  -3825013.54847  -2945192.55245  24048797.627    24048797.4734   24048802.3414
       156.0004        158.0004
 -24477294.60849 -19032286.16647  20146456.496    20146456.6154   20146463.6944
       212.0004        212.0004
  -1942588.03946  -1503885.84345  24295888.633    24295891.6064   24295902.0574
       131.0004        140.0004
  -1163125.48447   -878906.84045  24705896.820    24705897.0014   24705907.4754
       140.0004        144.0004
 -17121367.02749 -13301158.32448  21584175.391    21584176.5544   21584183.7744
       222.0004        222.0004
  -7977082.53847  -6203303.00245  22888066.565    22888065.3644   22888070.7004
       152.0004        155.0004
 -21748103.44149 -16647900.00147  20296626.867    20296627.3034   20296632.9584
       213.0004        212.0004
 -17083948.46449 -13282472.25847  21210882.051    21210882.3884   21210889.0094
       204.0004        205.0004
 21  2  3  0 19 30.0000000  0 10G03G16G07G08G01G22G27G21G04G09
   -664969.10748   -497845.05046  24056522.296    24056523.3554   24056532.2434
       176.0004        177.0004
  -2608887.81847  -2009435.88345  24054335.916    24054335.9784   24054339.5034
       139.0004        144.0004
  -3891337.84947  -2996873.78845  24036176.991    24036176.7414   24036181.5504
       156.0004        159.0004
 -24474478.35449 -19030091.67047  20146992.045    20146992.5954   20146999.8184
       212.0004        212.0004
  -2008006.28347  -1554860.82145  24283441.913    24283443.9894   24283453.0084
       138.0004        143.0004
  -1116640.72447   -842685.21945  24714743.212    24714742.2874   24714751.6454
       138.0004        141.0004
 -17050372.09249 -13245837.59448  21597687.253    21597687.0394   21597693.8104
       222.0004        222.0004
  -8028364.56947  -6243262.97245  22878307.577    22878305.9424   22878312.1834
       152.0004        154.0004
 -21726284.09049 -16630897.91247  20300779.485    20300779.9474   20300785.4924
       213.0004        212.0004
 -17132897.85349 -13320614.64347  21201568.106    21201568.6534   21201574.0904
       205.0004        206.0004
 21  2  3  0 20  0.0000000  0 10G03G16G07G08G01G22G27G21G04G09
   -605199.15348   -451271.06346  24067895.999    24067896.8414   24067906.0234
       178.0004        179.0004
  -2527817.38147  -1946264.13245  24069760.205    24069760.5124   24069767.0364
       136.0004        140.0004
  -3957812.42847  -3048672.14845  24023527.544    24023526.7534   24023531.1554
       156.0004        158.0004
 -24471053.14349 -19027422.64347  20147643.797    20147644.1984   20147651.6424
       212.0004        212.0004
  -2073659.58946  -1606018.93545  24270945.505    24270947.2974   24270959.1164
       134.0004        138.0004
  -1070400.48347   -806654.17045  24723543.467    24723543.5234   24723552.6474
       136.0004        142.0004
 -16978913.71949 -13190155.71348  21611283.911    21611284.5724   21611291.6534
       222.0004        222.0004
  -8079590.27747  -6283179.00845  22868557.644    22868558.4504   22868564.8074
       152.0004        155.0004
 -21703898.76149 -16613454.77547  20305039.315    20305039.5914   20305045.1774
       213.0004        212.0004
 -17181347.88849 -13358367.90347  21192349.197    21192349.2884   21192354.5084
       207.0004        208.0004
 21  2  3  0 20 30.0000000  0 10G03G16G07G08G01G22G27G21G04G09
   -545580.88548   -404815.31546  24079242.104    24079242.4714   24079251.7364
       181.0004        182.0004
  -2446877.27147  -1883193.91545  24085163.890    24085163.1094   24085169.5724
       136.0004        142.0004
  -4024435.01547  -3100585.84045  24010846.669    24010848.5604   24010853.7124
       154.0004        155.0004
 -24467017.41349 -19024277.90447  20148411.685    20148412.2244   20148419.5934
       212.0004        212.0004
  -2139544.23246  -1657357.24345  24258406.804    24258410.1584   24258420.6544
       131.0004        138.0004
  -1024404.08647   -770813.15445  24732298.345    24732296.6344   24732305.2834
       139.0004        144.0004
 -16906992.59049 -13134113.27448  21624970.101    21624970.5824   21624977.7224
       221.0004        221.0004
  -8130756.05947  -6323048.38845  22858820.913    22858821.6064   22858827.5444
       153.0004        156.0004
 -21680946.25949 -16595569.70947  20309407.141    20309407.5314   20309412.7204
       213.0004        212.0004
 -17229294.99349 -13395729.28047  21183224.580    21183224.4504   21183230.3874
       207.0004        206.0004
 21  2  3  0 21  0.0000000  0 10G03G16G07G08G01G22G27G21G04G09
   -486116.81248   -358479.73646  24090556.627    24090557.1464   24090567.0144
       180.0004        180.0004
  -2366069.05847  -1820226.52945  24100542.620    24100542.7724   24100544.8334
       135.0004        141.0004
  -4091204.71947  -3152614.16745  23998142.497    23998143.3464   23998147.0434
       155.0004        158.0004
 -24462371.98449 -19020658.09548  20149295.807    20149296.2124   20149303.5754
       212.0004        213.0004
  -2205658.75846  -1708874.74745  24245826.825    24245826.2184   24245838.1924
       132.0004        138.0004
   -978652.88447   -735163.17845  24741003.706    24741001.7844   24741010.8324
       139.0004        144.0004
 -16834611.67449 -13077712.57548  21638744.533    21638744.8124   21638751.4384
       221.0004        221.0004
  -8181859.32647  -6362869.06745  22849097.798    22849096.6554   22849102.7734
       154.0004        156.0004
 -21657427.55149 -16577243.45647  20313882.108    20313882.3414   20313888.3044
       213.0004        212.0004
 -17276737.76349 -13432697.68447  21174195.141    21174195.2114   21174201.6854
       205.0004        203.0004
 21  2  3  0 21 30.0000000  0 10G03G16G07G08G01G22G27G21G04G09
   -426810.20648   -312266.83746  24101842.165    24101842.7214   24101852.1804
       178.0004        178.0004
  -2285395.03147  -1757363.65345  24115893.432    24115894.6784   24115897.1814
       135.0004        141.0004
  -4158121.72547  -3204757.25645  23985409.406    23985408.8734   23985413.1494
       155.0004        158.0004
 -24457118.00549 -19016564.06248  20150295.641    20150296.0714   20150303.3424
       212.0004        213.0004
  -2272002.29246  -1760570.74445  24233202.160    24233203.3104   24233214.0374
       134.0004        141.0004
   -933149.21247   -699706.06745  24749661.844    24749661.3564   24749670.4214
       138.0004        143.0004
 -16761774.70149 -13020956.47448  21652605.079    21652604.9524   21652611.6274
       221.0004        221.0004
  -8232898.20947  -6402639.54945  22839386.118    22839385.6674   22839389.8924
       154.0004        156.0004
 -21633344.52149 -16558477.44847  20318465.041    20318465.4354   20318471.1894
       213.0004        211.0004
 -17323675.62349 -13469272.61647  21165261.280    21165262.2444   21165269.9344
       202.0004        202.0004
 21  2  3  0 22  0.0000000  0 10G03G16G07G08G01G22G27G21G04G09
   -367663.15048   -266178.26146  24113099.530    24113099.3834   24113107.7664
       177.0004        178.0004
  -2204856.09347  -1694606.03145  24131221.567    24131220.4734   24131223.7014
       138.0004        145.0004
  -4225186.19747  -3257015.28145  23972644.871    23972645.8874   23972650.4514
       154.0004        157.0004
 -24451255.75649 -19011996.08048  20151411.202    20151411.6424   20151419.0524
       212.0004        213.0004
  -2338573.04547  -1812443.78645  24220534.873    24220535.5454   24220546.6334
       138.0004        144.0004
   -887894.79947   -664443.17045  24758276.209    24758274.7824   24758284.1574
       140.0004        146.0004
 -16688484.29349 -12963847.07548  21666550.502    21666551.3064   21666558.3764
       220.0004        220.0004
  -8283870.17547  -6442357.91045  22829685.173    22829685.4374   22829690.4414
       154.0004        157.0004
 -21608697.88949 -16539272.30647  20323155.095    20323155.6224   20323161.0824
       213.0004        211.0004
 -17370106.85449 -13505452.79547  21156425.390    21156426.1244   21156434.6684
       201.0004        202.0004
 21  2  3  0 22 30.0000000  0 10G03G16G07G08G01G22G27G21G04G09
   -308677.68548   -220215.56946  24124322.861    24124323.5774   24124330.4864
       175.0004        176.0004
  -2124453.55247  -1631954.69645  24146519.384    24146518.2424   24146523.8774
       137.0004        142.0004
  -4292396.85447  -3309387.17645  23959857.048    23959857.7474   23959861.3344
       154.0004        158.0004
 -24444785.87749 -19006954.57348  20152642.129    20152642.5974   20152650.1074
       212.0004        213.0004
  -2405369.12147  -1864492.40645  24207823.049    24207824.1374   24207835.4564
       138.0004        143.0004
   -842890.21047   -629374.92045  24766837.901    24766837.0374   24766848.6274
       141.0004        145.0004
 -16614743.15449 -12906386.41248  21680583.514    21680583.7024   21680590.7344
       220.0004        220.0004
  -8334772.38747  -6482021.88045  22820000.462    22819999.2154   22820003.8184
       152.0004        155.0004
 -21583488.43949 -16519628.54747  20327951.957    20327952.3894   20327958.0404
       212.0004        210.0004
 -17416029.78649 -13541236.86147  21147687.154    21147687.8064   21147695.9004
       202.0004        203.0004
 21  2  3  0 23  0.0000000  0 10G03G16G07G08G01G22G27G21G04G09
   -249854.20548   -174379.11646  24135516.462    24135517.0184   24135525.3854
       176.0004        177.0004
  -2044186.43247  -1569408.88445  24161793.149    24161793.5014   24161797.2364
       136.0004        142.0004
  -4359750.72847  -3361870.70645  23947040.822    23947040.4074   23947045.0844
       156.0004        159.0004
 -24437707.25049 -19001438.74948  20153989.277    20153989.6684   20153997.4084
       212.0004        213.0004
  -2472386.76747  -1916713.69845  24195069.923    24195070.1364   24195082.6904
       138.0004        143.0004
   -798134.73247   -594500.82745  24775355.475    24775355.1974   24775364.4514
       138.0004        142.0004
 -16540552.13049 -12848575.22148  21694701.387    21694701.7944   21694709.1704
       220.0004        220.0004
  -8385600.75147  -6521628.35445  22810327.889    22810326.7724   22810332.6724
       155.0004        158.0004
 -21557715.13849 -16499545.46147  20332856.711    20332857.1614   20332862.8624
       212.0004        210.0004
 -17461440.97449 -13576622.18847  21139046.186    21139046.2544   21139054.4804
       203.0004        203.0004
 21  2  3  0 23 30.0000000  0  9G03G16G07G08G01G27G21G04G09
   -191193.80048   -128669.75546  24146678.236    24146679.6734   24146689.0634
       178.0004        179.0004
  -1964055.05246  -1506968.86045  24177041.587    24177039.2074   24177045.6444
       134.0004        139.0004
  -4427246.40247  -3414464.69045  23934197.294    23934196.9404   23934201.5554
       158.0004        162.0004
 -24430018.75449 -18995447.71348  20155452.553    20155452.9714   20155460.1384
       213.0004        213.0004
  -2539623.08447  -1969105.39845  24182275.627    24182275.0934   24182287.0814
       137.0004        142.0004
 -16465912.92049 -12790414.80748  21708904.845    21708905.4014   21708912.4644
       220.0004        220.0004
  -8436351.23247  -6561174.12945  22800669.755    22800669.0064   22800674.4694
       155.0004        157.0004
 -21531377.88949 -16479022.94147  20337868.203    20337868.7674   20337874.2654
       212.0004        210.0004
 -17506337.86349 -13611606.78347  21130504.002    21130503.6874   21130510.6644
       203.0004        204.0004
 21  2  3  0 24  0.0000000  0  9G03G16G07G08G01G27G21G04G09
   -132701.05548    -83091.04746  24157810.594    24157811.1814   24157819.8334
       179.0004        180.0004
  -1884062.80146  -1444637.28045  24192265.682    24192264.6484   24192268.0884
       133.0004        139.0004
  -4494885.86647  -3467170.71445  23921323.446    23921324.4734   23921330.0054
       159.0004        162.0004
 -24421724.07949 -18988984.31548  20157031.128    20157031.5744   20157038.5334
       213.0004        213.0004
  -2607078.60747  -2021667.88845  24169437.654    24169439.2594   24169449.7144
       138.0004        143.0004
 -16390830.73049 -12731909.18448  21723191.889    21723193.1134   21723200.0134
       220.0004        219.0004
  -8487023.89547  -6600659.26645  22791024.851    22791025.1234   22791030.3074
       153.0004        155.0004
 -21504480.01249 -16458063.54847  20342987.022    20342987.5584   20342992.9234
       211.0004        210.0004
 -17550721.29749 -13646191.26147  21122058.505    21122058.6054   21122064.7424
       204.0004        205.0004
 21  2  3  0 24 30.0000000  0  9G03G16G07G08G01G27G21G04G09
    -74378.97748    -37645.27846  24168907.670    24168908.6044   24168917.4974
       177.0004        177.0004
  -1804211.77347  -1382415.69945  24207461.614    24207461.0324   24207464.9704
       136.0004        143.0004
  -4562668.94847  -3519988.69145  23908426.899    23908426.6194   23908430.5844
       159.0004        161.0004
 -24412824.69249 -18982049.73948  20158724.487    20158724.8374   20158731.9934
       212.0004        213.0004
  -2674752.27147  -2074400.38845  24156561.319    24156562.2674   24156571.8404
       139.0004        145.0004
 -16315309.16349 -12673061.22148  21737563.973    21737564.2554   21737571.3684
       219.0004        219.0004
  -8537617.10347  -6640082.53245  22781399.338    22781399.1294   22781403.5304
       153.0004        157.0004
 -21477023.27949 -16436668.71447  20348211.848    20348212.2684   20348217.9194
       211.0004        210.0004
 -17594590.63549 -13680375.17947  21113709.947    21113710.5274   21113716.7204
       205.0004        207.0004
 21  2  3  0 25  0.0000000  0  9G03G16G07G08G01G27G21G04G09
    -16229.04048      7666.28946  24179973.699    24179974.5414   24179983.2154
       177.0004        178.0004
  -1724502.48147  -1320304.64145  24222629.224    24222628.7604   24222631.6324
       138.0004        144.0004
  -4630594.51047  -3572917.69045  23895501.289    23895501.3744   23895503.7894
       159.0004        160.0004
 -24403320.27349 -18974643.68748  20160533.117    20160533.5884   20160540.8824
       212.0004        213.0004
  -2742641.63547  -2127300.97345  24143642.018    24143643.4294   24143654.5554
       143.0004        147.0004
 -16239350.43149 -12613872.59948  21752018.341    21752018.9794   21752025.8384
       219.0004        219.0004
  -8588127.99747  -6679441.59345  22771787.595    22771787.2074   22771792.4234
       156.0004        159.0004
 -21449008.11349 -16414838.71847  20353542.926    20353543.6854   20353549.1454
       211.0004        210.0004
 -17637943.80449 -13714156.86147  21105460.051    21105460.5574   21105467.0034
       206.0004        207.0004
 21  2  3  0 25 30.0000000  0  9G03G16G07G08G01G27G21G04G09
     41746.23248     52841.83246  24191006.594    24191007.3514   24191016.7974
       178.0004        180.0004
  -1644936.32447  -1258305.01345  24237769.011    24237768.5384   24237772.8744
       138.0004        143.0004
  -4698661.66247  -3625956.99046  23882546.839    23882548.1774   23882551.5334
       160.0004        163.0004
 -24393212.00749 -18966767.07248  20162456.531    20162456.9594   20162464.2294
       212.0004        213.0004
  -2810745.09447  -2180368.33745  24130680.685    24130682.4974   24130693.1614
       143.0004        147.0004
 -16162957.71249 -12554345.75948  21766555.024    21766555.3794   21766562.8314
       219.0004        218.0004
  -8638553.43247  -6718734.06145  22762190.735    22762189.9464   22762196.2244
       156.0004        158.0004
 -21420435.82049 -16392574.56447  20358980.106    20358980.5334   20358986.4194
       211.0004        210.0004
 -17680779.68649 -13747535.44047  21097308.460    21097308.9564   21097315.2824
       207.0004        208.0004
 21  2  3  0 26  0.0000000  0  9G03G16G07G08G01G27G21G04G09
     99547.54648     97881.78346  24202004.372    24202006.1284   24202015.3474
       179.0004        180.0004
  -1565511.63747  -1196415.68445  24252883.429    24252882.7844   24252887.5174
       139.0004        144.0004
  -4766867.01947  -3679103.98446  23869569.155    23869569.4534   23869573.1054
       162.0004        165.0004
 -24382497.96249 -18958418.47448  20164495.417    20164495.8764   20164502.8654
       212.0004        213.0004
  -2879057.95547  -2233598.91745  24117679.962    24117681.7994   24117693.7244
       142.0004        147.0004
 -16086131.00249 -12494480.80448  21781175.048    21781175.5934   21781182.9574
       219.0004        219.0004
  -8688888.70247  -6757956.33145  22752613.882    22752613.1234   22752618.5004
       157.0004        160.0004
 -21391304.69249 -16369875.00947  20364523.547    20364524.2124   20364529.8944
       211.0004        210.0004
 -17723094.01249 -13780507.65947  21089256.079    21089256.4324   21089263.4144
       207.0004        208.0004
 21  2  3  0 26 30.0000000  0  9G03G16G07G08G01G27G21G04G09
    157170.73648    142782.92946  24212971.761    24212972.4234   24212979.6654
