     2.11           OBSERVATION DATA    G (GPS)             RINEX VERSION / TYPE
teqc  2018Jun8                          20210202 03:10:47UTCPGM / RUN BY / DATE
Linux2.6.32-573.12.1.el6.x86_64|x86_64|gcc|Win64-MinGW64|=+ COMMENT
BIT 2 OF LLI FLAGS DATA COLLECTED UNDER A/S CONDITION       COMMENT
-Unknown-                                                   MARKER NAME
CRNO                                                        MARKER NUMBER
-Unknown-           -Unknown-                               OBSERVER / AGENCY
-Unknown-           ASHTECH             -Unknown-           REC # / TYPE / VERS
-Unknown-           -Unknown-                               ANT # / TYPE
   408077.8401 -6158372.3149  1605162.0981                  APPROX POSITION XYZ
        0.0000        0.0000        0.0000                  ANTENNA: DELTA H/E/N
     1     1                                                WAVELENGTH FACT L1/2
     7    L1    L2    C1    P1    P2    S1    S2            # / TYPES OF OBSERV
    30.0000                                                 INTERVAL
Forced Modulo Decimation to 30 seconds                      COMMENT
 SNR is mapped to RINEX snr flag value [1-9]                COMMENT
  L1: 1 -> 1;  90 -> 5; 210 -> 9                            COMMENT
  L2: 1 -> 1; 150 -> 5; 250 -> 9                            COMMENT
pseudorange smoothing corrections not applied               COMMENT
  2021     2     2     0     0   30.0000000     GPS         TIME OF FIRST OBS
                                                            END OF HEADER
 21  2  2  0  0 30.0000000  0  9G04G30G09G08G17G14G07G01G21
  -9605480.74548  -7466370.01946  22621807.146    22621808.1324   22621815.2614
       175.0004        176.0004
  -5740764.70647  -4449704.11846  23323387.357    23323386.6274   23323394.4104
       164.0004        165.0004
 -15876393.38249 -12351761.38347  21251839.503    21251839.8174   21251846.8794
       207.0004        207.0004
 -14793372.10949 -11511187.00148  21832446.439    21832447.0014   21832453.6684
       220.0004        219.0004
  -6340342.62747  -4914455.44345  23557785.421    23557785.2634   23557791.5404
       156.0004        159.0004
  -1147561.87648   -886497.83846  23523913.700    23523914.1514   23523919.3394
       165.0004        166.0004
 -21521894.99749 -16746695.14247  21336297.555    21336298.2554   21336302.9904
       199.0004        198.0004
 -15533901.22648 -12088638.20346  21735589.628    21735590.2194   21735597.0184
       185.0004        186.0004
 -12560708.11348  -9779293.19847  21738524.276    21738524.1094   21738530.9214
       188.0004        189.0004
 21  2  2  0  1  0.0000000  0  9G04G30G09G08G17G14G07G01G21
  -9510433.47548  -7392307.21646  22639894.359    22639894.7924   22639902.2204
       175.0004        175.0004
  -5828870.20748  -4518357.73746  23306620.132    23306620.7774   23306628.7794
       165.0004        166.0004
 -15826251.61249 -12312689.86847  21261381.099    21261381.6014   21261389.3234
       207.0004        208.0004
 -14708187.40749 -11444809.30948  21848656.782    21848657.1344   21848664.2114
       220.0004        220.0004
  -6428321.89147  -4983010.63145  23541044.013    23541045.0684   23541049.6374
       159.0004        162.0004
  -1174110.64847   -907185.16146  23518860.962    23518861.8174   23518867.0804
       164.0004        165.0004
 -21590021.18449 -16799780.48547  21323334.778    21323334.7934   21323339.0824
       199.0004        199.0004
 -15599831.12448 -12140012.11046  21723041.864    21723042.7724   21723052.0274
       185.0004        185.0004
 -12560366.96048  -9779027.32447  21738589.501    21738588.2874   21738596.6474
       188.0004        189.0004
 21  2  2  0  1 30.0000000  0  9G04G30G09G08G17G14G07G01G21
  -9415248.13948  -7318136.84546  22658007.955    22658008.8464   22658014.3154
       174.0004        174.0004
  -5916983.64448  -4587017.51046  23289852.416    23289852.9464   23289861.7804
       166.0004        167.0004
 -15775696.27649 -12273296.11747  21271001.442    21271001.8234   21271009.4374
       207.0004        207.0004
 -14622776.38049 -11378255.26748  21864910.041    21864910.4904   21864917.4664
       220.0004        220.0004
  -6516003.47047  -5051333.85245  23524359.130    23524358.9314   23524364.8164
       160.0004        161.0004
  -1200623.93747   -927844.83946  23513815.977    23513816.3414   23513822.2434
       163.0004        164.0004
 -21657956.21249 -16852716.87447  21310406.568    21310407.1744   21310411.6824
       199.0004        199.0004
 -15665480.31848 -12191167.29946  21710549.698    21710550.4634   21710558.8524
       185.0004        186.0004
 -12559551.57948  -9778391.93847  21738743.727    21738743.0624   21738751.6054
       188.0004        188.0004
 21  2  2  0  2  0.0000000  0  9G04G30G09G08G17G14G07G01G21
  -9319927.57848  -7243861.07046  22676146.646    22676147.4674   22676153.4894
       174.0004        174.0004
  -6005102.91447  -4655681.83346  23273084.317    23273084.7654   23273092.6854
       164.0004        166.0004
 -15724729.81349 -12233581.98247  21280699.246    21280700.0174   21280707.7854
       206.0004        206.0004
 -14537141.45449 -11311526.74448  21881206.117    21881206.0724   21881213.0674
       220.0004        219.0004
  -6603385.44447  -5119423.60445  23507730.529    23507730.9164   23507736.3604
       158.0004        159.0004
  -1227102.87547   -948477.72246  23508778.235    23508778.2374   23508783.6654
       164.0004        167.0004
 -21725697.04949 -16905501.93747  21297515.918    21297516.4204   21297521.0984
       199.0004        200.0004
 -15730845.30748 -12242101.02746  21698111.291    21698111.7094   21698120.2244
       185.0004        186.0004
 -12558261.06148  -9777386.30246  21738989.278    21738989.2804   21738996.3414
       188.0004        187.0004
 21  2  2  0  2 30.0000000  0  9G04G30G09G08G17G14G07G01G21
  -9224475.92448  -7169483.17646  22694310.690    22694310.8324   22694317.7434
       172.0004        171.0004
  -6093227.18248  -4724350.09346  23256315.753    23256316.0004   23256322.3804
       166.0004        169.0004
 -15673355.93549 -12193550.39047  21290476.338    21290476.2884   21290483.7844
       206.0004        206.0004
 -14451287.21349 -11244627.33148  21897542.557    21897543.0154   21897550.5514
       219.0004        218.0004
  -6690466.86747  -5187279.16345  23491160.078    23491160.1974   23491164.7744
       157.0004        159.0004
  -1253549.88548   -969085.74046  23503743.899    23503745.5724   23503750.2764
       165.0004        166.0004
 -21793242.52349 -16958134.77147  21284662.158    21284663.0974   21284667.1774
       199.0004        200.0004
 -15795924.08048 -12292811.72346  21685727.193    21685727.8384   21685736.4824
       186.0004        187.0004
 -12556496.06048  -9776010.96046  21739325.198    21739324.2474   21739331.1934
       187.0004        186.0004
 21  2  2  0  3  0.0000000  0  9G04G30G09G08G17G14G07G01G21
  -9128895.82248  -7095005.15546  22712498.319    22712498.8474   22712506.3204
       170.0004        170.0004
  -6181354.15348  -4793020.41346  23239543.306    23239544.3694   23239553.1304
       168.0004        170.0004
 -15621576.84149 -12153203.03647  21300329.338    21300330.0884   21300337.1194
       206.0004        206.0004
 -14365215.86249 -11177558.73148  21913921.463    21913921.9294   21913929.4074
       218.0004        218.0004
  -6777245.60047  -5254898.84345  23474645.423    23474646.2294   23474652.1064
       156.0004        157.0004
  -1279965.79848   -989669.52546  23498717.952    23498718.4124   23498723.6464
       165.0004        166.0004
 -21860589.10649 -17010612.61847  21271847.180    21271847.2224   21271851.8014
       200.0004        200.0004
 -15860712.98548 -12343296.53946  21673397.563    21673398.9164   21673407.1794
       186.0004        187.0004
 -12554254.56748  -9774264.30146  21739751.998    21739751.5484   21739757.4494
       186.0004        186.0004
 21  2  2  0  3 30.0000000  0  9G04G30G09G08G17G14G07G01G21
  -9033188.68148  -7020428.15846  22730711.591    22730712.0104   22730718.2674
       170.0004        171.0004
  -6269480.20248  -4861690.03246  23222773.517    23222774.2234   23222782.0324
       166.0004        166.0004
 -15569393.58249 -12112540.75947  21310259.706    21310259.9924   21310267.4124
       206.0004        207.0004
 -14278928.98949 -11110322.21248  21930342.057    21930342.1684   21930349.4754
       219.0004        219.0004
  -6863718.23347  -5322280.01245  23458189.557    23458190.9454   23458198.1444
       158.0004        161.0004
  -1306350.35648  -1010228.87046  23493696.889    23493697.3284   23493702.3514
       165.0004        166.0004
 -21927732.47349 -17062932.12747  21259070.161    21259070.3814   21259075.0264
       200.0004        200.0004
 -15925207.24648 -12393551.78246  21661126.019    21661126.2064   21661134.5864
       186.0004        186.0004
 -12551534.15148  -9772144.47846  21740269.574    21740269.4294   21740274.4204
       185.0004        186.0004
 21  2  2  0  4  0.0000000  0  9G04G30G09G08G17G14G07G01G21
  -8937358.78948  -6945755.52946  22748947.296    22748947.1014   22748953.6464
       170.0004        172.0004
  -6357604.64948  -4930358.42746  23206005.339    23206005.6254   23206013.2714
       166.0004        168.0004
 -15516810.08049 -12071566.60147  21320265.282    21320265.9454   21320274.0714
       206.0004        207.0004
 -14192430.77249 -11042920.99748  21946802.840    21946802.5904   21946808.9864
       219.0004        219.0004
  -6949884.35947  -5389422.33745  23441793.088    23441792.9474   23441800.5504
       160.0004        161.0004
  -1332706.05948  -1030765.74046  23488681.724    23488682.3584   23488687.6294
       165.0004        167.0004
 -21994671.36849 -17115092.29647  21246331.757    21246332.1374   21246336.7674
       200.0004        200.0004
 -15989404.97748 -12443575.94346  21648908.992    21648909.5304   21648918.0984
       186.0004        187.0004
 -12548335.54448  -9769652.03046  21740877.873    21740877.6004   21740883.2124
       184.0004        184.0004
 21  2  2  0  4 30.0000000  0  9G04G30G09G08G17G14G07G01G21
  -8841409.49648  -6870989.85646  22767206.436    22767206.8594   22767212.6134
       170.0004        170.0004
  -6445725.83448  -4999024.24446  23189237.046    23189236.8954   23189244.8044
       169.0004        171.0004
 -15463829.31749 -12030282.88647  21330347.543    21330347.9074   21330356.1664
       206.0004        207.0004
 -14105724.17249 -10975357.40348  21963301.732    21963302.0764   21963309.3514
       219.0004        218.0004
  -7035742.50847  -5456324.67445  23425454.176    23425454.5084   23425461.9654
       158.0004        160.0004
  -1359034.45148  -1051281.34646  23483671.514    23483671.2174   23483678.5224
       165.0004        165.0004
 -22061403.51149 -17167091.37247  21233633.430    21233634.2154   21233637.9184
       200.0004        201.0004
 -16053303.18348 -12493366.72946  21636749.112    21636749.6374   21636758.4844
       186.0004        187.0004
 -12544657.78548  -9766786.22446  21741577.607    21741577.4074   21741582.1864
       183.0004        183.0004
 21  2  2  0  5  0.0000000  0  9G04G30G09G08G17G14G07G01G21
  -8745342.90548  -6796132.77646  22785486.056    22785486.6794   22785492.6654
       170.0004        170.0004
  -6533840.81448  -5067685.26246  23172470.008    23172469.5244   23172476.0524
       170.0004        171.0004
 -15410453.02049 -11988690.96347  21340504.853    21340505.5224   21340512.7454
       206.0004        207.0004
 -14018811.57249 -10907633.28648  21979840.372    21979840.5684   21979848.3814
       218.0004        218.0004
  -7121289.89047  -5522984.88845  23409175.820    23409175.9994   23409180.9574
       160.0004        161.0004
  -1385335.96147  -1071775.98146  23478666.654    23478666.8424   23478672.2604
       164.0004        165.0004
 -22127925.65149 -17218926.80047  21220975.088    21220974.9744   21220979.4534
       200.0004        201.0004
 -16116897.88448 -12542921.00946  21624646.498    21624648.0154   21624656.6854
       186.0004        186.0004
 -12540499.37948  -9763545.88846  21742370.180    21742369.4424   21742373.2384
       184.0004        185.0004
 21  2  2  0  5 30.0000000  0  9G04G30G09G08G17G14G07G01G21
  -8649162.61548  -6721187.09346  22803788.607    22803788.4934   22803795.9354
       168.0004        168.0004
  -6621948.23348  -5136340.40246  23155703.869    23155702.9874   23155709.8804
       171.0004        172.0004
 -15356684.53749 -11946793.44647  21350736.447    21350736.7424   21350744.5104
       206.0004        206.0004
 -13931696.54449 -10839751.45348  21996417.873    21996417.9904   21996425.5364
       218.0004        217.0004
  -7206525.26647  -5589401.97946  23392955.189    23392956.0174   23392960.8624
       161.0004        163.0004
  -1411612.43247  -1092251.13046  23473666.262    23473666.4414   23473672.2764
       164.0004        166.0004
 -22194235.31149 -17270596.66447  21208356.522    21208357.2654   21208361.1594
       201.0004        201.0004
 -16180186.43748 -12592236.72746  21612603.874    21612604.4654   21612613.0414
       187.0004        187.0004
 -12535860.11248  -9759930.85846  21743253.343    21743252.4494   21743256.0374
       184.0004        183.0004
 21  2  2  0  6  0.0000000  0  9G04G30G09G08G17G14G07G01G21
  -8552871.58748  -6646155.14546  22822112.022    22822112.7304   22822119.6054
       167.0004        168.0004
  -6710046.04948  -5204988.03646  23138938.393    23138938.4954   23138946.3964
       171.0004        172.0004
 -15302526.45349 -11904592.34247  21361042.499    21361043.1194   21361050.3984
       206.0004        206.0004
 -13844381.79949 -10771713.98348  22013033.262    22013033.5264   22013040.5734
       218.0004        217.0004
  -7291446.91347  -5655574.58846  23376797.131    23376797.1034   23376801.9724
       163.0004        166.0004
  -1437865.08347  -1112707.70946  23468670.887    23468671.1954   23468676.2984
       164.0004        165.0004
 -22260330.04449 -17322099.06747  21195779.261    21195779.6884   21195783.1994
       201.0004        202.0004
 -16243165.67148 -12641311.42846  21600619.666    21600620.3574   21600628.8674
       187.0004        187.0004
 -12530738.94148  -9755940.31646  21744226.614    21744226.2224   21744230.1074
       183.0004        182.0004
 21  2  2  0  6 30.0000000  0  9G04G30G09G08G17G14G07G01G21
  -8456472.29248  -6571038.77246  22840455.959    22840457.0524   22840463.7454
       168.0004        169.0004
  -6798131.66148  -5273626.13946  23122175.970    23122175.9064   23122183.6994
       170.0004        171.0004
 -15247980.97749 -11862089.34647  21371422.641    21371422.8214   21371430.1154
       205.0004        206.0004
 -13756870.12849 -10703523.04848  22029686.075    22029686.3834   22029693.7664
       217.0004        217.0004
  -7376052.40047  -5721500.82246  23360695.639    23360695.7404   23360701.7754
       163.0004        164.0004
  -1464094.61147  -1133146.23646  23463679.419    23463679.7164   23463685.2404
       164.0004        166.0004
 -22326206.20049 -17373431.11347  21183242.305    21183243.3364   21183247.2454
       201.0004        201.0004
 -16305831.85048 -12690142.15747  21588694.705    21588695.1604   21588704.2814
       188.0004        189.0004
 -12525134.77748  -9751573.40046  21745292.765    21745293.1614   21745296.3434
       182.0004        182.0004
 21  2  2  0  7  0.0000000  0  9G04G30G09G08G17G14G07G01G21
  -8359967.88348  -6495840.55046  22858823.104    22858822.1114   22858828.8584
       169.0004        169.0004
  -6886203.21448  -5342253.31446  23105416.639    23105416.7324   23105423.6204
       171.0004        172.0004
 -15193050.95049 -11819286.73547  21381875.915    21381875.8554   21381882.6014
       205.0004        205.0004
 -13669164.19849 -10635180.76448  22046376.260    22046376.7524   22046383.4504
       217.0004        216.0004
  -7460340.25747  -5787179.57846  23344656.504    23344656.8574   23344662.0754
       163.0004        165.0004
  -1490302.47247  -1153567.93146  23458692.248    23458692.8434   23458697.0914
       164.0004        164.0004
 -22391861.56349 -17424591.14147  21170749.073    21170749.6014   21170754.0534
       201.0004        201.0004
 -16368181.93248 -12738726.60847  21576831.118    21576831.3864   21576838.9854
       189.0004        190.0004
 -12519047.25548  -9746829.86346  21746452.314    21746451.2154   21746455.1494
       182.0004        182.0004
 21  2  2  0  7 30.0000000  0  9G04G30G09G08G17G14G07G01G21
  -8263361.53848  -6420562.87646  22877204.512    22877205.3644   22877212.2324
       169.0004        170.0004
  -6974258.79948  -5410868.04646  23088660.079    23088660.6354   23088667.1424
       170.0004        170.0004
 -15137739.26749 -11776186.71647  21392401.027    21392401.3834   21392408.0474
       204.0004        203.0004
 -13581267.19249 -10566689.58548  22063102.415    22063102.5974   22063109.7404
       216.0004        215.0004
  -7544309.00348  -5852609.69446  23328679.009    23328678.8684   23328683.9454
       165.0004        167.0004
  -1516490.02047  -1173973.78545  23453707.794    23453708.4174   23453714.2134
       162.0004        162.0004
 -22457293.31449 -17475576.91447  21158297.737    21158298.4684   21158302.4684
       201.0004        202.0004
 -16430212.98648 -12787062.45647  21565026.802    21565026.9054   21565034.1994
       189.0004        188.0004
 -12512475.12448  -9741708.70246  21747702.883    21747701.5104   21747706.0084
       182.0004        183.0004
 21  2  2  0  8  0.0000000  0  9G04G30G09G08G17G14G07G01G21
  -8166655.55448  -6345207.57246  22895606.927    22895607.3064   22895614.4894
       169.0004        170.0004
  -7062295.72248  -5479468.25246  23071906.830    23071907.1584   23071914.4034
       170.0004        172.0004
 -15082048.05449 -11732790.95847  21402998.291    21402998.5264   21403005.9014
       204.0004        204.0004
 -13493181.36849 -10498051.28548  22079864.041    22079864.5174   22079871.9034
       216.0004        215.0004
  -7627956.54448  -5917789.49246  23312760.118    23312760.9584   23312767.5574
       165.0004        167.0004
  -1542657.86747  -1194364.26945  23448728.854    23448728.5504   23448735.1914
       160.0004        160.0004
 -22522498.38749 -17526386.06547  21145890.488    21145890.4804   21145894.1644
       201.0004        201.0004
 -16491921.12648 -12835146.69546  21553282.230    21553283.1764   21553291.1444
       188.0004        187.0004
 -12505417.42448  -9736209.17846  21749044.373    21749044.8704   21749049.1234
       183.0004        183.0004
 21  2  2  0  8 30.0000000  0  9G04G30G09G08G17G14G07G01G21
  -8069852.35448  -6269776.50446  22914027.490    22914027.8034   22914035.1394
       169.0004        169.0004
  -7150311.32648  -5548051.79946  23055158.326    23055158.7964   23055166.7184
       170.0004        173.0004
 -15025979.41549 -11689101.10447  21413668.401    21413668.6244   21413675.4624
       203.0004        204.0004
 -13404909.27849 -10429267.82348  22096662.069    22096662.0484   22096669.1134
       215.0004        214.0004
  -7711280.08248  -5982716.80646  23296903.887    23296904.0684   23296910.6924
       165.0004        166.0004
  -1568806.64847  -1214739.87645  23443751.316    23443753.0484   23443757.7744
       159.0004        162.0004
 -22587473.18849 -17577015.77047  21133525.497    21133526.1544   21133529.9594
       202.0004        202.0004
 -16553302.67148 -12882976.41247  21541602.955    21541603.2894   21541611.4994
       187.0004        188.0004
 -12497872.90248  -9730330.29746  21750481.072    21750480.2324   21750486.2204
       183.0004        183.0004
 21  2  2  0  9  0.0000000  0  9G04G30G09G08G17G14G07G01G21
  -7972954.88248  -6194271.97946  22932466.488    22932467.1794   22932474.8714
       168.0004        169.0004
  -7238303.54048  -5616617.12946  23038414.534    23038413.5694   23038422.3944
       171.0004        171.0004
 -14969536.14749 -11645119.33947  21424408.577    21424408.9204   21424416.4064
       203.0004        203.0004
 -13316453.50949 -10360341.24148  22113495.075    22113494.5844   22113501.8344
       215.0004        214.0004
  -7794278.33748  -6047390.67346  23281109.037    23281109.3494   23281115.9514
       165.0004        166.0004
  -1594937.58647  -1235101.62445  23438778.763    23438779.9954   23438786.1874
       159.0004        160.0004
 -22652215.25749 -17627464.15147  21121205.877    21121206.1364   21121210.6584
       202.0004        203.0004
 -16614354.45248 -12930549.20147  21529985.538    21529986.3184   21529993.4524
       187.0004        188.0004
 -12489841.37348  -9724071.93246  21752008.617    21752008.9384   21752013.8764
       183.0004        184.0004
 21  2  2  0  9 30.0000000  0  9G04G30G09G08G17G14G07G01G21
  -7875967.30848  -6118697.25846  22950923.332    22950923.6254   22950929.5494
       168.0004        169.0004
  -7326271.43348  -5685163.52646  23021675.534    23021674.5654   23021681.0714
       172.0004        173.0004
 -14912722.19349 -11600848.72647  21435219.282    21435220.0404   21435228.4834
       203.0004        203.0004
 -13227818.20649 -10291274.76648  22130361.526    22130361.3254   22130368.1994
       214.0004        213.0004
  -7876950.72348  -6111810.60246  23265377.910    23265378.2674   23265383.5844
       166.0004        167.0004
  -1621053.14347  -1255451.36745  23433810.425    23433810.8744   23433816.2884
       159.0004        160.0004
 -22716723.34949 -17677730.19447  21108930.514    21108931.1004   21108934.7064
       203.0004        203.0004
 -16675074.50348 -12977863.50047  21518431.001    21518430.9094   21518438.8944
       188.0004        189.0004
 -12481322.48048  -9717433.82346  21753630.433    21753629.7764   21753635.4614
       184.0004        184.0004
 21  2  2  0 10  0.0000000  0  9G04G30G09G08G17G14G07G01G21
  -7778892.67048  -6043054.67846  22969396.547    22969396.7444   22969402.3074
       168.0004        169.0004
  -7414212.94948  -5753689.38546  23004939.997    23004940.4644   23004947.2004
       172.0004        173.0004
 -14855540.37149 -11556291.45847  21446101.743    21446101.5964   21446109.5724
       203.0004        203.0004
 -13139006.45549 -10222070.81447  22147261.096    22147261.0174   22147268.7594
       212.0004        211.0004
  -7959295.43948  -6175975.21446  23249707.430    23249707.9084   23249715.5334
       167.0004        168.0004
  -1647154.54247  -1275790.07645  23428843.720    23428845.0084   23428849.8264
       160.0004        162.0004
 -22780994.39649 -17727811.52847  21096699.780    21096700.0924   21096704.3164
       202.0004        202.0004
 -16735459.75248 -13024916.90946  21506938.780    21506938.7534   21506947.8454
       188.0004        187.0004
 -12472316.26148  -9710415.98146  21755343.565    21755343.4334   21755349.0704
       184.0004        185.0004
 21  2  2  0 10 30.0000000  0  9G04G30G09G08G17G14G07G01G21
  -7681733.18348  -5967345.98746  22987884.915    22987885.1984   22987892.1584
       169.0004        169.0004
  -7502125.26748  -5822192.48846  22988211.086    22988211.3634   22988217.2324
       172.0004        173.0004
 -14797992.77049 -11511449.17647  21457051.364    21457052.3964   21457059.6094
       202.0004        202.0004
 -13050020.63149 -10152731.21447  22164193.545    22164194.1924   22164202.3034
       211.0004        211.0004
  -8041310.23048  -6239882.76546  23234100.157    23234100.9254   23234107.8884
       166.0004        167.0004
  -1673242.34447  -1296118.17545  23423878.561    23423878.7864   23423884.7194
       160.0004        161.0004
 -22845024.82349 -17777705.36047  21084514.378    21084515.3274   21084520.3574
       202.0004        203.0004
 -16795506.34348 -13071706.41147  21495511.711    21495512.3634   21495522.1064
       187.0004        188.0004
 -12462821.22048  -9703017.22446  21757152.174    21757150.6704   21757155.7074
       185.0004        186.0004
 21  2  2  0 11  0.0000000  0  9G04G30G09G08G17G14G07G01G21
  -7584492.33448  -5891573.91346  23006388.003    23006389.3424   23006396.4414
       168.0004        168.0004
  -7590006.85448  -5890671.63046  22971487.948    22971487.5194   22971495.1184
       172.0004        174.0004
 -14740082.70449 -11466324.45647  21468072.569    21468072.6014   21468080.0464
       202.0004        202.0004
 -12960863.85749 -10083258.41347  22181160.162    22181160.4034   22181168.0864
       212.0004        212.0004
  -8122993.67848  -6303532.13846  23218556.687    23218557.4284   23218563.1444
       166.0004        167.0004
  -1699318.18947  -1316436.99046  23418917.831    23418918.1694   23418923.2044
       161.0004        163.0004
 -22908812.91549 -17827410.36647  21072376.986    21072377.2974   21072381.1524
       202.0004        202.0004
 -16855211.67848 -13118230.02447  21484152.206    21484153.1494   21484160.2674
       190.0004        193.0004
 -12452836.96148  -9695237.26646  21759050.884    21759050.9504   21759055.8984
       185.0004        186.0004
 21  2  2  0 11 30.0000000  0  9G04G30G09G08G17G14G07G01G21
  -7487172.67448  -5815740.41146  23024908.707    23024908.8184   23024915.6104
       168.0004        168.0004
  -7677855.09848  -5959124.78746  22954771.070    22954771.3474   22954777.7414
       173.0004        173.0004
 -14681812.61749 -11420919.19347  21479160.654    21479161.2224   21479168.1744
       202.0004        202.0004
 -12871538.49249 -10013654.22347  22198159.104    22198158.9704   22198166.2904
       212.0004        212.0004
  -8204344.42948  -6366922.25946  23203077.012    23203077.3224   23203081.7284
       165.0004        165.0004
  -1725382.96347  -1336747.17145  23413957.744    23413957.7554   23413963.0994
       161.0004        162.0004
 -22972355.27849 -17876923.88247  21060285.047    21060285.5054   21060289.3614
       202.0004        203.0004
 -16914572.27148 -13164485.01447  21472857.664    21472857.7574   21472863.9034
       194.0004        195.0004
 -12442362.76648  -9687075.51746  21761044.291    21761044.0404   21761048.7244
       186.0004        186.0004
 21  2  2  0 12  0.0000000  0  9G04G30G09G08G17G14G07G01G21
  -7389776.87748  -5739847.58546  23043441.558    23043442.5554   23043448.9984
       167.0004        168.0004
  -7765667.62748  -6027550.10446  22938058.927    22938059.6224   22938067.2534
       170.0004        170.0004
 -14623184.96749 -11375235.30047  21490316.645    21490317.3194   21490324.8224
       201.0004        202.0004
 -12782047.47849  -9943920.95647  22215187.448    22215187.7384   22215196.4094
       212.0004        212.0004
  -8285360.09547  -6430051.26846  23187659.675    23187660.0074   23187664.1844
       163.0004        163.0004
  -1751437.54347  -1357049.41645  23408999.057    23408998.8164   23409005.1044
       158.0004        158.0004
 -23035648.77349 -17926243.48447  21048240.647    21048240.9714   21048245.1664
       203.0004        203.0004
 -16973584.68648 -13210468.70247  21461626.595    21461626.9804   21461633.2814
       193.0004        192.0004
 -12431397.85948  -9678531.41046  21763129.821    21763129.3914   21763135.4144
       186.0004        186.0004
 21  2  2  0 12 30.0000000  0  9G04G30G09G08G17G14G07G01G21
  -7292306.87548  -5663896.91646  23061990.565    23061990.7844   23061996.3684
       167.0004        167.0004
  -7853441.24248  -6095945.09946  22921356.084    22921356.2484   22921364.4254
       170.0004        170.0004
 -14564201.65349 -11329274.26847  21501541.501    21501541.8014   21501548.6414
       202.0004        202.0004
 -12692392.50349  -9874059.93647  22232248.732    22232248.9284   22232256.9024
       211.0004        210.0004
  -8366038.33747  -6492917.37446  23172307.989    23172308.1524   23172310.1214
       162.0004        164.0004
  -1777482.19647  -1377343.93045  23404043.124    23404042.8694   23404049.3374
       156.0004        158.0004
 -23098689.99849 -17975366.50247  21036243.797    21036244.5024   21036249.1874
       203.0004        203.0004
 -17032244.92448 -13256177.92247  21450461.350    21450461.7104   21450471.2774
       190.0004        188.0004
 -12419940.62648  -9669603.67646  21765310.102    21765310.6654   21765316.2244
       186.0004        187.0004
 21  2  2  0 13  0.0000000  0  9G04G30G09G08G17G14G07G01G21
  -7194767.33148  -5587892.09646  23080551.794    23080552.3594   23080557.7354
       166.0004        167.0004
  -7941175.54148  -6164309.48146  22904661.190    22904662.0284   22904668.6374
       168.0004        170.0004
 -14504867.22049 -11283039.65047  21512831.954    21512832.0934   21512839.7524
       202.0004        202.0004
 -12602577.99549  -9804074.62747  22249340.455    22249340.1014   22249347.7854
       210.0004        209.0004
  -8446379.30247  -6555520.70245  23157018.586    23157018.8264   23157020.7024
       160.0004        160.0004
  -1803519.75547  -1397632.93545  23399087.911    23399088.8954   23399094.1044
       157.0004        159.0004
 -23161477.81449 -18024292.07447  21024296.120    21024296.7414   21024300.7644
       203.0004        203.0004
 -17090551.54048 -13301611.61546  21439365.431    21439366.0594   21439376.0744
       187.0004        187.0004
 -12407992.51148  -9660293.42746  21767584.684    21767584.4464   21767589.3044
       187.0004        187.0004
 21  2  2  0 13 30.0000000  0  9G04G30G09G08G17G14G07G01G21
  -7097160.14847  -5511834.57246  23099125.510    23099125.1154   23099132.1684
       164.0004        166.0004
  -8028867.28348  -6232640.71846  22887973.644    22887974.1494   22887982.4214
       170.0004        172.0004
 -14445183.45149 -11236532.82047  21524189.094    21524189.7744   21524197.4764
       202.0004        202.0004
 -12512606.24349  -9733966.76847  22266461.027    22266461.4274   22266468.8554
       210.0004        210.0004
  -8526380.32647  -6617859.11445  23141795.522    23141794.4344   23141798.3034
       158.0004        160.0004
  -1829550.43047  -1417916.58445  23394136.128    23394135.2074   23394140.5654
       157.0004        158.0004
 -23224008.67749 -18073017.41747  21012397.146    21012397.2454   21012401.2684
       203.0004        203.0004
 -17148500.44748 -13346766.56347  21428338.690    21428340.0344   21428349.0684
       188.0004        189.0004
 -12395552.34248  -9650599.76147  21769952.803    21769951.7034   21769957.2084
       187.0004        188.0004
 21  2  2  0 14  0.0000000  0 10G04G30G28G09G08G17G14G07G01G21
  -6999488.31647  -5435726.64845  23117710.300    23117711.3634   23117717.8564
       163.0004        162.0004
  -8116514.45548  -6300937.18146  22871294.501    22871295.1034   22871303.1234
       170.0004        171.0004
   -451619.46054   -333297.268 3                                  24702130.544
        74.0004         74.000
 -14385153.30649 -11189756.07947  21535613.192    21535613.6644   21535620.5174
       202.0004        203.0004
 -12422479.85249  -9663738.39947  22283610.210    22283611.1524   22283619.5114
       210.0004        210.0004
  -8606039.52147  -6679931.18745  23126636.260    23126636.3344   23126639.1744
       159.0004        160.0004
  -1855575.48847  -1438195.81345  23389182.784    23389183.4054   23389188.3214
       156.0004        157.0004
 -23286279.54749 -18121540.16747  21000546.593    21000547.5504   21000551.9144
       203.0004        204.0004
 -17206088.59248 -13391640.41047  21417381.100    21417382.1344   21417389.9524
       190.0004        192.0004
 -12382619.27748  -9640522.03246  21772412.986    21772412.8144   21772417.3384
       187.0004        187.0004
 21  2  2  0 14 30.0000000  0 10G04G30G28G09G08G17G14G07G01G21
  -6901754.54547  -5359570.47546  23136309.171    23136309.4344   23136316.9634
       162.0004        163.0004
  -8204114.54048  -6369196.97446  22854625.652    22854625.5904   22854633.8244
       171.0004        172.0004
   -751310.12446   -580090.33245  23687999.473                    23688005.9894
       127.0004        141.0004
 -14324779.40749 -11142711.47247  21547101.815    21547102.4814   21547109.0544
       202.0004        203.0004
 -12332201.51649  -9593391.65147  22300791.475    22300791.2214   22300798.9894
       209.0004        209.0004
  -8685355.40747  -6741735.68745  23111541.161    23111542.8164   23111548.2164
       159.0004        161.0004
  -1881595.82847  -1458471.40645  23384229.745    23384230.6804   23384236.2094
       154.0004        156.0004
 -23348287.64349 -18169858.14047  20988747.821    20988747.7784   20988752.1234
       204.0004        204.0004
 -17263312.74148 -13436230.63247  21406492.987    21406493.1354   21406500.7084
       192.0004        193.0004
 -12369192.52148  -9630059.59546  21774967.908    21774967.4684   21774972.7524
       187.0004        187.0004
 21  2  2  0 15  0.0000000  0 10G04G30G28G09G08G17G14G07G01G21
  -6803963.25147  -5283369.48346  23154917.552    23154918.5344   23154925.5014
       162.0004        163.0004
  -8291666.94848  -6437419.59946  22837964.984    22837965.7234   22837973.3064
       172.0004        173.0004
   -766333.24847   -591796.64245  23685142.623    23685141.7474   23685147.0454
       135.0004        142.0004
 -14264066.16349 -11095402.46147  21558655.713    21558655.8994   21558662.8414
       203.0004        203.0004
 -12241775.53749  -9522929.86247  22317998.587    22317998.5614   22318006.2634
       208.0004        208.0004
  -8764328.33247  -6803272.97746  23096515.804    23096514.9064   23096520.8864
       163.0004        167.0004
  -1907614.22147  -1478745.45445  23379280.388    23379280.3564   23379284.9044
       154.0004        156.0004
 -23410031.44449 -18217970.19347  20976997.086    20976998.1744   20977002.6484
       204.0004        204.0004
 -17320171.36848 -13480536.02947  21395673.540    21395673.6424   21395680.6494
       193.0004        193.0004
 -12355273.19948  -9619213.35646  21777616.644    21777616.4404   21777621.4224
       187.0004        187.0004
 21  2  2  0 15 30.0000000  0 10G04G30G28G09G08G17G14G07G01G21
  -6706118.02847  -5207126.47146  23173538.252    23173538.7804   23173545.7774
       161.0004        163.0004
  -8379170.10048  -6505603.87346  22821313.025    22821313.2154   22821321.2524
       171.0004        171.0004
   -781340.31947   -603490.41945  23682286.187    23682286.7984   23682290.8494
       137.0004        143.0004
 -14203017.14449 -11047831.78947  21570272.510    21570273.0414   21570280.3964
       203.0004        203.0004
 -12151205.61149  -9452355.89047  22335233.363    22335233.4304   22335241.0564
       208.0004        207.0004
  -8842957.37648  -6864542.28146  23081552.427    23081552.5304   23081558.9474
       166.0004        169.0004
  -1933632.49547  -1499019.39545  23374328.690    23374329.5044   23374334.1454
       155.0004        158.0004
 -23471509.32949 -18265875.02947  20965299.064    20965298.9024   20965303.6964
       203.0004        203.0004
 -17376662.09548 -13524554.75047  21384922.894    21384923.1234   21384931.0424
       193.0004        193.0004
 -12340861.58448  -9607983.50946  21780359.353    21780359.0134   21780364.0444
       187.0004        187.0004
 21  2  2  0 16  0.0000000  0 10G04G30G28G09G08G17G14G07G01G21
  -6608220.52347  -5130842.70446  23192167.448    23192167.5704   23192175.3334
       162.0004        163.0004
  -8466620.49548  -6573747.02146  22804672.884    22804673.6734   22804680.3764
       174.0004        177.0004
   -796332.77647   -615172.80945  23679433.464    23679434.1464   23679438.4854
       138.0004        144.0004
 -14141633.93749 -11000000.70747  21581953.678    21581954.2934   21581960.7174
       203.0004        203.0004
 -12060493.12349  -9381670.81447  22352495.981    22352495.6874   22352502.4584
       207.0004        207.0004
  -8921239.59348  -6925541.33346  23066653.404    23066654.9784   23066662.7724
       167.0004        169.0004
  -1959650.55247  -1519293.16445  23369378.071    23369378.5364   23369382.5824
       157.0004        160.0004
 -23532717.18749 -18313569.44847  20953651.400    20953652.1704   20953655.9784
       203.0004        203.0004
 -17432780.62048 -13568283.42547  21374242.993    21374243.4614   21374252.0074
       192.0004        192.0004
 -12325956.52348  -9596369.12046  21783195.648    21783194.8914   21783200.9494
       187.0004        187.0004
 21  2  2  0 16 30.0000000  0 10G04G30G28G09G08G17G14G07G01G21
  -6510272.01147  -5054519.20446  23210805.716    23210806.9384   23210814.1554
       163.0004        164.0004
  -8554014.28748  -6641846.06946  22788042.304    22788042.2234   22788049.5254
       176.0004        177.0004
   -811310.05747   -626843.39545  23676583.425    23676583.5334   23676589.9434
       139.0004        144.0004
 -14079917.81349 -10951910.22147  21593697.923    21593698.0064   21593704.7564
       202.0004        202.0004
 -11969638.99049  -9310875.38747  22369784.977    22369784.5144   22369791.6454
       207.0004        207.0004
  -8999171.92348  -6986267.79446  23051824.498    23051825.0534   23051833.1644
       170.0004        172.0004
  -1985667.80947  -1539566.33645  23364425.746    23364427.1554   23364432.5424
       159.0004        161.0004
 -23593650.78349 -18361050.17947  20942056.261    20942056.8824   20942060.7754
       203.0004        203.0004
 -17488522.26448 -13611718.44247  21363635.040    21363635.8054   21363644.4764
       191.0004        191.0004
 -12310556.12648  -9584368.78446  21786126.128    21786125.8094   21786130.7024
       187.0004        187.0004
 21  2  2  0 17  0.0000000  0 10G04G30G28G09G08G17G14G07G01G21
  -6412274.94147  -4978157.87346  23229455.311    23229455.2674   23229461.5054
       162.0004        163.0004
  -8641348.81348  -6709898.95146  22771423.291    22771423.6784   22771430.5444
       177.0004        178.0004
   -826272.94647   -638502.76945  23673736.053    23673735.8734   23673741.6784
       140.0004        145.0004
 -14017871.26649 -10903562.27547  21605504.876    21605505.1624   21605512.3604
       202.0004        203.0004
 -11878646.05349  -9239971.81347  22387099.325    22387099.3804   22387106.8594
       207.0004        206.0004
  -9076752.29648  -7046719.97446  23037062.560    23037063.3144   23037069.8644
       172.0004        174.0004
  -2011685.12947  -1559839.55345  23359474.785    23359475.3064   23359481.6764
       159.0004        160.0004
 -23654306.50849 -18408314.38347  20930513.042    20930513.7984   20930518.6004
       203.0004        204.0004
 -17543883.59048 -13654857.12847  21353099.614    21353100.7244   21353109.7104
       190.0004        189.0004
 -12294659.08648  -9571981.47346  21789151.373    21789150.0464   21789155.5754
       186.0004        187.0004
 21  2  2  0 17 30.0000000  0 10G04G30G28G09G08G17G14G07G01G21
  -6314231.89947  -4901760.69645  23248110.403    23248112.1674   23248118.5024
       160.0004        160.0004
  -8728621.57148  -6777903.68946  22754816.049    22754816.4844   22754822.9824
       177.0004        179.0004
   -841223.18447   -650152.27745  23670891.638    23670891.3874   23670897.1914
       142.0004        147.0004
 -13955496.91649 -10854958.90547  21617374.239    21617374.2854   21617382.3184
       202.0004        203.0004
 -11787516.59049  -9168961.84947  22404439.265    22404440.2844   22404448.9314
       206.0004        205.0004
  -9153978.97448  -7106896.54746  23022367.109    23022367.9794   23022373.1854
       173.0004        174.0004
  -2037703.34647  -1580113.45945  23354524.337    23354525.4514   23354530.0144
       158.0004        159.0004
 -23714681.75849 -18455360.04347  20919024.597    20919025.2864   20919029.2134
       203.0004        204.0004
 -17598861.34848 -13697696.92247  21342637.979    21342639.2304   21342648.2804
       189.0004        190.0004
 -12278265.15648  -9559206.97646  21792270.131    21792271.0734   21792274.8744
       186.0004        186.0004
 21  2  2  0 18  0.0000000  0 10G04G30G28G09G08G17G14G07G01G21
  -6216146.10547  -4825330.20045  23266775.409    23266776.8624   23266783.8724
       159.0004        161.0004
  -8815830.56148  -6845858.74146  22738220.992    22738221.6204   22738227.8934
       179.0004        181.0004
   -856162.65847   -661793.38645  23668048.041    23668047.7994   23668053.4334
       143.0004        148.0004
 -13892797.97349 -10806102.56447  21629304.817    21629305.3184   21629313.1984
       202.0004        201.0004
 -11696253.49049  -9097847.74247  22421806.720    22421807.0264   22421815.8734
       205.0004        205.0004
  -9230851.26748  -7166796.93146  23007738.512    23007738.2764   23007744.6514
       172.0004        173.0004
  -2063723.91947  -1600389.19045  23349572.246    23349573.1934   23349578.0924
       158.0004        160.0004
 -23774774.31249 -18502185.39947  20907589.899    20907590.4184   20907593.8394
       204.0004        204.0004
 -17653452.79748 -13740235.65747  21332249.897    21332250.1624   21332259.3384
       190.0004        190.0004
 -12261374.65948  -9546045.51046  21795485.239    21795484.6864   21795489.7184
       186.0004        186.0004
 21  2  2  0 18 30.0000000  0 10G04G30G28G09G08G17G14G07G01G21
  -6118021.39347  -4748869.40546  23285449.000    23285449.4354   23285455.8994
       161.0004        163.0004
  -8902974.55748  -6913763.11446  22721638.289    22721638.2874   22721645.0214
       180.0004        181.0004
   -871093.76747   -673427.97445  23665207.795    23665207.0784   23665211.5184
       147.0004        151.0004
 -13829778.35049 -10756996.35747  21641297.273    21641297.6544   21641304.9924
       200.0004        200.0004
 -11604860.89249  -9026632.71747  22439199.427    22439199.1294   22439207.1794
       205.0004        206.0004
  -9307368.44448  -7226420.64046  22993176.033    22993177.3694   22993183.9274
       171.0004        172.0004
  -2089748.90247  -1620668.38145  23344620.640    23344620.9324   23344626.1064
       160.0004        162.0004
 -23834581.83649 -18548788.63947  20896208.486    20896208.9184   20896213.6664
       204.0004        204.0004
 -17707655.93848 -13782471.82047  21321935.772    21321936.3304   21321944.6944
       190.0004        190.0004
 -12243988.14548  -9532497.52946  21798793.181    21798792.7224   21798798.0954
       186.0004        186.0004
 21  2  2  0 19  0.0000000  0 10G04G30G28G09G08G17G14G07G01G21
  -6019860.75247  -4672380.61146  23304127.686    23304128.2034   23304135.2164
       162.0004        163.0004
  -8990051.39048  -6981615.18646  22705067.925    22705067.6634   22705074.9704
       180.0004        179.0004
   -886018.12847   -685057.31045  23662366.464    23662366.6314   23662372.4744
       149.0004        153.0004
 -13766441.10349 -10707642.66347  21653350.053    21653350.1384   21653357.6814
       200.0004        200.0004
 -11513341.99449  -8955319.27647  22456614.677    22456614.8124   22456622.6594
       206.0004        206.0004
  -9383529.22548  -7285766.66246  22978685.360    22978684.7474   22978690.8934
       172.0004        173.0004
  -2115779.58347  -1640952.01245  23339666.590    23339667.3714   23339672.6064
       160.0004        162.0004
 -23894102.24149 -18595168.16547  20884881.880    20884882.5554   20884887.2564
       204.0004        204.0004
 -17761467.95248 -13824403.23447  21311696.262    21311696.3164   21311704.1644
       190.0004        192.0004
 -12226105.40048  -9518562.90746  21802195.715    21802195.2324   21802200.7954
       185.0004        185.0004
 21  2  2  0 19 30.0000000  0 10G04G30G28G09G08G17G14G07G01G21
  -5921667.36647  -4595866.30845  23322814.100    23322813.8614   23322821.5734
       162.0004        162.0004
  -9077059.06948  -7049413.37446  22688510.045    22688510.1984   22688517.3534
       179.0004        179.0004
   -900937.28447   -696682.59345  23659527.109    23659527.4454   23659533.2684
       149.0004        152.0004
 -13702789.52449 -10658044.03447  21665462.201    21665462.6164   21665470.3454
       200.0004        200.0004
 -11421699.81649  -8883909.78947  22474052.709    22474052.9594   22474061.5414
       205.0004        205.0004
  -9459332.69548  -7344834.24446  22964259.932    22964260.2984   22964265.4004
       173.0004        174.0004
  -2141817.45747  -1661241.23946  23334713.202    23334713.6394   23334718.0214
       162.0004        163.0004
 -23953332.74249 -18641321.80747  20873610.890    20873611.2774   20873615.4874
       204.0004        204.0004
 -17814886.16548 -13866027.79147  21301530.904    21301531.2024   21301538.7344
       192.0004        193.0004
 -12207726.65348  -9504241.78446  21805693.317    21805692.9914   21805698.1254
       185.0004        185.0004
 21  2  2  0 20  0.0000000  0 10G04G30G28G09G08G17G14G07G01G21
  -5823443.25647  -4519328.06446  23341506.248    23341506.1144   23341513.0564
       162.0004        163.0004
  -9163994.50948  -7117155.28346  22671966.335    22671967.1234   22671972.9714
       177.0004        178.0004
   -915851.88947   -708304.34245  23656689.742    23656689.4964   23656694.5094
       150.0004        153.0004
 -13638825.72449 -10608202.11047  21677634.863    21677634.8434   21677641.4144
       199.0004        198.0004
 -11329935.84349  -8812405.39647  22491515.674    22491515.3114   22491523.4874
       205.0004        204.0004
  -9534776.43948  -7403621.53746  22949903.046    22949903.3394   22949908.0974
       172.0004        173.0004
  -2167862.73747  -1681536.25245  23329756.727    23329756.6644   23329761.4764
       161.0004        162.0004
 -24012269.74449 -18687246.74547  20862395.267    20862396.0664   20862400.0314
       204.0004        204.0004
 -17867906.83248 -13907342.58447  21291441.157    21291442.1374   21291449.7724
       193.0004        194.0004
 -12188850.70148  -9489533.23146  21809285.002    21809285.5064   21809290.1264
       185.0004        186.0004
 21  2  2  0 20 30.0000000  0 10G04G30G28G09G08G17G14G07G01G21
  -5725191.18747  -4442768.02246  23360203.307    23360203.7994   23360210.0594
       162.0004        163.0004
  -9250855.30548  -7184839.02346  22655438.675    22655438.7644   22655444.5464
       179.0004        181.0004
   -930764.24347   -719924.34245  23653852.629    23653851.5564   23653857.8414
       151.0004        154.0004
 -13574552.54649 -10558119.11147  21689864.836    21689865.2194   21689872.8844
       198.0004        199.0004
 -11238052.89449  -8740808.29147  22509000.208    22508999.9404   22509007.7894
       204.0004        203.0004
  -9609858.94548  -7462127.32746  22935614.224    22935615.5434   22935619.0294
       170.0004        170.0004
  -2193916.54047  -1701837.88745  23324797.769    23324798.4654   23324803.1404
       159.0004        159.0004
 -24070910.95549 -18732941.19047  20851237.614    20851237.5924   20851241.2494
       204.0004        205.0004
 -17920526.86848 -13948345.17547  21281427.693    21281428.3134   21281436.6814
       194.0004        194.0004
 -12169477.63048  -9474437.30746  21812972.466    21812971.5034   21812977.4354
       185.0004        185.0004
 21  2  2  0 21  0.0000000  0 10G04G30G28G09G08G17G14G07G01G21
  -5626913.78347  -4366188.22445  23378905.491    23378904.9884   23378910.6444
       162.0004        162.0004
  -9337638.93348  -7252462.61146  22638924.244    22638924.5594   22638930.4324
       181.0004        182.0004
   -945675.44747   -731543.42445  23651014.052    23651013.8844   23651018.0934
       151.0004        154.0004
 -13509972.73349 -10507797.19147  21702155.022    21702154.9164   21702161.9244
       199.0004        199.0004
 -11146053.42449  -8669120.39047  22526505.875    22526506.2794   22526514.9414
       202.0004        202.0004
  -9684578.97648  -7520350.67646  22921396.032    22921397.1724   22921399.9684
       170.0004        171.0004
  -2219979.71447  -1722146.81745  23319838.228    23319839.7204   23319844.3644
       158.0004        159.0004
 -24129253.24749 -18778402.71747  20840134.290    20840135.1234   20840138.8194
       204.0004        204.0004
 -17972743.18848 -13989033.18647  21271492.057    21271492.1234   21271500.6774
       194.0004        195.0004
 -12149607.09848  -9458953.75746  21816753.753    21816753.1714   21816757.4294
       185.0004        186.0004
 21  2  2  0 21 30.0000000  0 10G04G30G28G09G08G17G14G07G01G21
  -5528614.24047  -4289591.17045  23397610.892    23397610.4444   23397616.6634
       160.0004        161.0004
  -9424343.41748  -7320024.52246  22622425.306    22622424.9184   22622431.8884
       182.0004        181.0004
   -960587.25347   -743162.97745  23648176.635    23648176.4514   23648181.9344
       152.0004        154.0004
 -13445089.62849 -10457238.91147  21714501.390    21714501.5894   21714509.2874
       199.0004        200.0004
 -11053940.60149  -8597344.15747  22544034.318    22544035.0094   22544043.6224
       202.0004        202.0004
  -9758935.20248  -7578290.52746  22907248.186    22907247.6324   22907251.9074
       171.0004        174.0004
  -2246053.65547  -1742464.17345  23314876.455    23314877.0264   23314881.8894
       157.0004        158.0004
 -24187293.65149 -18823628.99647  20829089.577    20829090.3194   20829094.2484
       204.0004        204.0004
 -18024553.16149 -14029404.56047  21261632.807    21261633.1834   21261641.0674
       195.0004        195.0004
 -12129239.09448  -9443082.55846  21820629.106    21820629.0124   21820633.5474
       185.0004        185.0004
 21  2  2  0 22  0.0000000  0 10G04G30G28G09G08G17G14G07G01G21
  -5430294.91547  -4212978.72945  23416318.572    23416319.4754   23416325.9654
       159.0004        160.0004
  -9510966.06648  -7387522.67746  22605941.979    22605940.9374   22605948.2094
       181.0004        181.0004
   -975500.88347   -754783.97945  23645340.138    23645339.5424   23645342.9974
       152.0004        154.0004
 -13379905.73749 -10406446.27347  21726905.321    21726905.7944   21726912.9294
       199.0004        200.0004
 -10961716.93149  -8525481.55447  22561584.010    22561584.8364   22561593.6644
       202.0004        203.0004
  -9832925.99948  -7635945.65046  22893166.671    22893167.6384   22893172.1754
       172.0004        172.0004
  -2272139.11147  -1762790.48545  23309911.656    23309911.9514   23309918.7284
       156.0004        156.0004
 -24245029.77549 -18868618.18747  20818103.453    20818103.9764   20818107.6564
       204.0004        205.0004
 -18075953.49849 -14069456.74647  21251851.747    21251851.9974   21251859.7084
       195.0004        195.0004
 -12108373.25648  -9426823.44746  21824599.847    21824599.6034   21824604.5534
       185.0004        185.0004
 21  2  2  0 22 30.0000000  0 10G04G30G28G09G08G17G14G07G01G21
  -5331958.43547  -4136352.91545  23435030.297    23435031.6514   23435038.5654
       157.0004        157.0004
  -9597504.25048  -7454955.02046  22589473.239    22589472.9354   22589479.2214
       180.0004        180.0004
   -990417.47947   -766407.25745  23642499.958    23642499.8714   23642504.8874
       151.0004        153.0004
 -13314423.80649 -10355421.40847  21739365.231    21739366.3894   21739373.0484
       198.0004        198.0004
 -10869384.81349  -8453534.45947  22579154.418    22579154.7214   22579164.2094
       203.0004        203.0004
  -9906549.86648  -7693314.84346  22879156.783    22879156.6074   22879162.3974
       172.0004        173.0004
  -2298236.90247  -1783126.39345  23304946.684    23304946.9884   23304951.4784
       155.0004        158.0004
 -24302458.15849 -18913367.56647  20807175.034    20807175.5244   20807179.3514
       205.0004        205.0004
 -18126941.05549 -14109187.27447  21242149.183    21242149.0334   21242157.2294
       195.0004        195.0004
 -12087009.34748  -9410176.23046  21828665.377    21828664.8214   21828669.8374
       185.0004        185.0004
 21  2  2  0 23  0.0000000  0 10G04G30G28G09G08G17G14G07G01G21
  -5233607.51347  -4059715.85445  23453748.228    23453748.3094   23453753.4064
       157.0004        158.0004
  -9683955.60148  -7522319.69146  22573021.818    22573022.1364   22573029.2294
       180.0004        181.0004
  -1005338.57047   -778034.03145  23639661.284    23639660.9234   23639666.1294
       152.0004        156.0004
 -13248646.83449 -10304166.62347  21751883.389    21751883.1574   21751890.6534
       198.0004        199.0004
 -10776946.90849  -8381504.92147  22596744.064    22596744.9504   22596753.6594
       202.0004        201.0004
  -9979805.62948  -7750397.20846  22865216.136    22865216.9974   22865220.7634
       172.0004        173.0004
  -2324348.13447  -1803472.80945  23299977.551    23299977.7564   23299983.4024
       158.0004        160.0004
 -24359576.46549 -18957875.33447  20796305.572    20796306.1984   20796310.2634
       205.0004        206.0004
 -18177512.94748 -14148593.91647  21232525.013    21232525.2914   21232533.6394
       194.0004        194.0004
 -12065147.37348  -9393140.91446  21832825.739    21832825.2044   21832830.2404
       185.0004        185.0004
 21  2  2  0 23 30.0000000  0 10G04G30G28G09G08G17G14G07G01G21
  -5135246.03347  -3983070.56445  23472466.646    23472466.1994   23472471.0124
       157.0004        158.0004
  -9770318.77148  -7589615.64546  22556587.550    22556587.9954   22556594.4694
       180.0004        180.0004
  -1020266.17347   -789665.89145  23636821.058    23636819.8414   23636824.5524
       152.0004        153.0004
 -13182578.71949 -10252684.97047  21764455.196    21764455.4664   21764462.9004
       198.0004        197.0004
 -10684406.99649  -8309395.89047  22614352.993    22614353.8074   22614363.6144
       200.0004        199.0004
 -10052692.93248  -7807192.42146  22851346.506    22851346.3924   22851351.5694
       173.0004        174.0004
  -2350474.79147  -1823831.23345  23295006.024    23295006.6104   23295010.9814
       159.0004        162.0004
 -24416382.76549 -19002139.97147  20785495.407    20785495.9284   20785500.1704
       205.0004        206.0004
 -18227667.27048 -14187675.17247  21222981.426    21222982.1094   21222990.0244
       194.0004        194.0004
 -12042788.17848  -9375718.13146  21837079.687    21837079.4144   21837084.7794
       185.0004        185.0004
 21  2  2  0 24  0.0000000  0 10G04G30G28G09G08G17G14G07G01G21
  -5036876.39147  -3906418.92145  23491183.055    23491184.0744   23491191.4434
       154.0004        154.0004
  -9856591.03448  -7656840.76746  22540170.148    22540170.8194   22540177.9064
       179.0004        180.0004
  -1035201.79747   -801304.01045  23633976.135    23633976.8464   23633981.9984
       149.0004        152.0004
 -13116222.15849 -10200978.56547  21777083.362    21777083.1364   21777090.1374
       198.0004        198.0004
 -10591767.33649  -8237209.16747  22631983.627    22631983.4824   22631992.4274
       199.0004        199.0004
 -10125209.78848  -7863699.03646  22837546.122    22837546.9824   22837552.7184
       173.0004        174.0004
  -2376617.65247  -1844202.29445  23290029.530    23290030.9554   23290036.5204
       159.0004        160.0004
 -24472873.73149 -19046158.90347  20774745.706    20774746.0854   20774750.4574
       205.0004        205.0004
 -18277400.83748 -14226428.57547  21213516.961    21213517.3534   21213525.9454
       194.0004        194.0004
 -12019931.30948  -9357907.58046  21841429.722    21841429.4044   21841433.7204
       185.0004        185.0004
 21  2  2  0 24 30.0000000  0 10G04G30G28G09G08G17G14G07G01G21
  -4938500.12647  -3829762.07245  23509903.482    23509904.1604   23509910.7134
       153.0004        154.0004
  -9942768.78148  -7723992.23046  22523771.274    22523770.9314   22523778.3684
       178.0004        178.0004
  -1050145.87447   -812948.72445  23631134.430    23631134.4334   23631138.3594
       149.0004        151.0004
 -13049578.88249 -10149048.73947  21789764.861    21789765.0064   21789772.1264
       198.0004        199.0004
 -10499029.26849  -8164945.72547  22649631.450    22649631.4804   22649640.1884
       200.0004        201.0004
 -10197353.83348  -7919915.11846  22823817.373    22823817.5804   22823823.4354
       173.0004        174.0004
  -2402776.51647  -1864585.79546  23285053.949    23285053.0774   23285059.6174
       161.0004        163.0004
 -24529045.58149 -19089929.17447  20764056.332    20764056.9094   20764061.3814
       206.0004        206.0004
 -18326709.51748 -14264850.89547  21204133.192    21204133.7824   21204142.5314
       193.0004        193.0004
 -11996575.81848  -9339708.46646  21845874.313    21845873.6654   21845878.7324
       185.0004        185.0004
 21  2  2  0 25  0.0000000  0 10G04G30G28G09G08G17G14G07G01G21
  -4840121.24047  -3753103.22745  23528626.335    23528625.8444   23528633.1884
       153.0004        155.0004
 -10028850.85248  -7791069.16446  22507390.551    22507389.7614   22507396.7124
       177.0004        178.0004
  -1065101.26447   -824602.25845  23628287.899    23628288.3004   23628292.3274
       150.0004        152.0004
 -12982653.09349 -10096898.76647  21802500.792    21802500.7714   21802507.0644
       198.0004        198.0004
 -10406196.82949  -8092608.76447  22667296.914    22667296.7034   22667305.1864
       201.0004        200.0004
 -10269125.53748  -7975841.05546  22810161.683    22810161.9904   22810165.6444
       175.0004        178.0004
  -2428953.67447  -1884983.53946  23280071.071    23280071.9094   23280078.1304
       162.0004        163.0004
 -24584897.11649 -19133449.85347  20753428.343    20753428.8314   20753432.8874
       206.0004        206.0004
 -18375591.73448 -14302940.91947  21194831.547    21194832.2174   21194840.0054
       193.0004        193.0004
 -11972722.96048  -9321121.81346  21850413.170    21850413.2134   21850417.3424
       185.0004        185.0004
 21  2  2  0 25 30.0000000  0 10G04G30G28G09G08G17G14G07G01G21
  -4741742.11747  -3676444.20345  23547346.542    23547347.0994   23547353.5374
       153.0004        156.0004
 -10114834.45548  -7858069.36946  22491028.493    22491028.7054   22491034.7214
       178.0004        179.0004
  -1080068.93947   -836265.38645  23625439.269    23625440.1844   23625444.3754
       150.0004        152.0004
 -12915447.40949 -10044530.70847  21815289.296    21815289.3444   21815295.9774
       197.0004        197.0004
 -10313272.48149  -8020200.20547  22684979.045    22684979.2094   22684987.5954
       200.0004        198.0004
 -10340523.35248  -8031475.67146  22796573.303    22796574.2004   22796579.9954
       176.0004        177.0004
  -2455149.74847  -1905396.06245  23275086.817    23275087.3844   23275090.8404
       161.0004        162.0004
 -24640424.93949 -19176718.29147  20742861.504    20742861.6594   20742866.2124
       205.0004        206.0004
 -18424044.25148 -14340696.11047  21185611.558    21185611.7444   21185619.8054
       193.0004        194.0004
 -11948372.50548  -9302147.42546  21855046.924    21855046.3344   21855051.6794
       185.0004        185.0004
 21  2  2  0 26  0.0000000  0 10G04G30G28G09G08G17G14G07G01G21
  -4643365.82847  -3599787.37045  23566067.066    23566067.9504   23566075.2014
       155.0004        157.0004
 -10200717.52548  -7924991.22846  22474685.592    22474685.1064   22474692.1514
       179.0004        180.0004
  -1095050.54647   -847939.33645  23622589.348    23622588.8784   23622593.4214
       149.0004        153.0004
 -12847965.17549  -9991947.14547  21828129.981    21828130.6574   21828138.4064
       197.0004        197.0004
 -10220258.66249  -7947721.90747  22702678.081    22702679.1484   22702688.0724
       198.0004        198.0004
 -10411546.06348  -8086817.98046  22783058.855    22783058.9104   22783064.3034
       175.0004        175.0004
  -2481366.09347  -1925824.39246  23270098.761    23270098.5164   23270103.6164
       163.0004        165.0004
 -24695626.84249 -19219732.76047  20732356.777    20732357.4104   20732361.6734
       205.0004        206.0004
 -18472064.60148 -14378114.54047  21176472.913    21176473.6774   21176482.1044
       194.0004        194.0004
 -11923524.66148  -9282785.44246  21859776.755    21859775.5344   21859779.9314
       185.0004        185.0004
