     2.11           OBSERVATION DATA    G (GPS)             RINEX VERSION / TYPE
teqc  2018Jun8                          20210202 03:10:41UTCPGM / RUN BY / DATE
Linux2.6.32-573.12.1.el6.x86_64|x86_64|gcc|Win64-MinGW64|=+ COMMENT
BIT 2 OF LLI FLAGS DATA COLLECTED UNDER A/S CONDITION       COMMENT
-Unknown-                                                   MARKER NAME
CRNO                                                        MARKER NUMBER
-Unknown-           -Unknown-                               OBSERVER / AGENCY
-Unknown-           ASHTECH             -Unknown-           REC # / TYPE / VERS
-Unknown-           -Unknown-                               ANT # / TYPE
   408077.4631 -6158369.2810  1605160.8670                  APPROX POSITION XYZ
        0.0000        0.0000        0.0000                  ANTENNA: DELTA H/E/N
     1     1                                                WAVELENGTH FACT L1/2
     7    L1    L2    C1    P1    P2    S1    S2            # / TYPES OF OBSERV
    30.0000                                                 INTERVAL
Forced Modulo Decimation to 30 seconds                      COMMENT
 SNR is mapped to RINEX snr flag value [1-9]                COMMENT
  L1: 1 -> 1;  90 -> 5; 210 -> 9                            COMMENT
  L2: 1 -> 1; 150 -> 5; 250 -> 9                            COMMENT
pseudorange smoothing corrections not applied               COMMENT
  2021     2     3     0     0   30.0000000     GPS         TIME OF FIRST OBS
                                                            END OF HEADER
 21  2  3  0  0 30.0000000  0  7G09G21G08G27G07G01G04
 -19179677.19649 -14915918.68048  20777739.051    20777739.3234   20777746.2434
       213.0004        214.0004
 -11511514.73248  -8782708.59946  22193009.739    22193009.1524   22193014.8294
       169.0004        170.0004
 -22367579.39249 -17114265.31947  20493432.352    20493432.7854   20493439.9394
       208.0004        209.0004
 -12143372.22649  -9199166.19447  22852571.091    22852571.4964   22852576.7414
       200.0004        201.0004
 -10205773.66648  -7939794.29346  22978030.759    22978032.3394   22978036.3634
       178.0004        178.0004
  -7897295.52347  -6143332.42445  23238254.159    23238254.9904   23238264.1954
       153.0004        156.0004
 -18825472.68649 -14379283.63047  20943802.886    20943803.5114   20943809.6454
       200.0004        199.0004
 21  2  3  0  1  0.0000000  0  7G09G21G08G27G07G01G04
 -19185172.84449 -14920201.00048  20776693.848    20776693.9864   20776700.3024
       213.0004        213.0004
 -11551076.82748  -8813536.15746  22185481.148    22185481.8554   22185486.6844
       169.0004        169.0004
 -22321545.54249 -17078394.77547  20502191.992    20502192.3334   20502200.2014
       208.0004        208.0004
 -12044750.87649  -9122318.38347  22871337.874    22871337.5104   22871343.5864
       201.0004        200.0004
 -10280390.29548  -7997937.12246  22963832.380    22963832.9194   22963837.8874
       178.0004        179.0004
  -7974453.52247  -6203455.50445  23223572.381    23223572.6274   23223582.1124
       154.0004        157.0004
 -18762579.31249 -14330275.80147  20955771.060    20955771.6164   20955778.1294
       200.0004        199.0004
 21  2  3  0  1 30.0000000  0  7G09G21G08G27G07G01G04
 -19190099.23349 -14924039.75448  20775755.695    20775755.9144   20775763.0904
       213.0004        213.0004
 -11590375.21848  -8844158.27446  22178002.680    22178002.2284   22178007.7634
       168.0004        169.0004
 -22275000.04349 -17042125.54747  20511049.213    20511049.9164   20511057.2294
       208.0004        208.0004
 -11945890.04649  -9045283.99147  22890149.971    22890150.2294   22890156.6974
       201.0004        200.0004
 -10355060.41548  -8056121.61746  22949623.394    22949623.1784   22949628.2174
       179.0004        180.0004
  -8051665.64347  -6263620.76445  23208878.269    23208879.6714   23208889.1884
       156.0004        159.0004
 -18699243.66649 -14280923.35747  20967823.692    20967824.0674   20967829.9384
       200.0004        198.0004
 21  2  3  0  2  0.0000000  0  7G09G21G08G27G07G01G04
 -19194456.76449 -14927435.22347  20774926.145    20774926.7484   20774933.3794
       212.0004        212.0004
 -11629407.54248  -8874573.04446  22170574.619    22170573.4944   22170579.6784
       167.0004        166.0004
 -22227945.84549 -17005459.92047  20520003.710    20520003.9764   20520011.2964
       208.0004        208.0004
 -11846793.08449  -8968065.57147  22909006.244    22909007.1374   22909014.6374
       200.0004        200.0004
 -10429783.10448  -8114347.07046  22935405.192    22935405.0324   22935409.1434
       180.0004        181.0004
  -8128929.31747  -6323826.20145  23194177.985    23194177.9654   23194185.4484
       158.0004        161.0004
 -18635468.35149 -14231228.31147  20979959.774    20979960.3394   20979966.2944
       200.0004        199.0004
 21  2  3  0  2 30.0000000  0  7G09G21G08G27G07G01G04
 -19198245.32249 -14930387.35348  20774206.404    20774206.4654   20774212.6464
       213.0004        214.0004
 -11668171.14748  -8904778.42846  22163197.276    22163197.3394   22163204.7304
       166.0004        168.0004
 -22180384.27049 -16968398.94447  20529054.481    20529055.0014   20529062.2954
       208.0004        208.0004
 -11747462.70749  -8890665.28647  22927907.758    22927909.3014   22927916.1574
       199.0004        198.0004
 -10504556.09948  -8172611.74646  22921175.733    22921176.5914   22921179.7854
       180.0004        181.0004
  -8206241.49347  -6384069.42445  23179464.553    23179465.1634   23179472.9744
       157.0004        160.0004
 -18571255.51549 -14181192.33847  20992179.287    20992179.2524   20992185.3214
       200.0004        198.0004
 21  2  3  0  3  0.0000000  0  7G09G21G08G27G07G01G04
 -19201464.49549 -14932895.80448  20773593.117    20773593.3984   20773600.4114
       213.0004        214.0004
 -11706662.69148  -8934771.81646  22155874.565    22155873.6124   22155879.5034
       167.0004        168.0004
 -22132317.19249 -16930944.06947  20538200.817    20538201.3274   20538209.1604
       208.0004        208.0004
 -11647901.33549  -8813084.99147  22946854.912    22946855.1744   22946861.5924
       198.0004        198.0004
 -10579377.08148  -8230913.80846  22906937.131    22906937.6734   22906942.4874
       180.0004        181.0004
  -8283598.70447  -6444347.73945  23164745.252    23164744.6504   23164753.3474
       159.0004        162.0004
 -18506606.87149 -14130816.78247  21004481.383    21004481.6304   21004487.8454
       199.0004        198.0004
 21  2  3  0  3 30.0000000  0  7G09G21G08G27G07G01G04
 -19204115.50249 -14934961.52348  20773088.714    20773088.9954   20773096.0794
       214.0004        214.0004
 -11744880.35748  -8964551.78746  22148601.745    22148601.6614   22148606.0094
       168.0004        170.0004
 -22083748.16449 -16893098.06347  20547443.035    20547443.4694   20547451.6374
       207.0004        207.0004
 -11548112.90549  -8735327.77247  22965845.035    22965844.3824   22965851.1024
       198.0004        198.0004
 -10654245.17148  -8289252.56046  22892690.231    22892691.4864   22892695.4744
       180.0004        182.0004
  -8360999.11947  -6504659.70345  23150015.300    23150016.0174   23150023.8584
       160.0004        162.0004
 -18441525.83749 -14080104.28847  21016865.215    21016865.9594   21016872.2154
       199.0004        197.0004
 21  2  3  0  4  0.0000000  0  7G09G21G08G27G07G01G04
 -19206198.15249 -14936584.36648  20772691.996    20772692.4804   20772699.6244
       214.0004        214.0004
 -11782820.91548  -8994115.85046  22141382.274    22141381.4984   22141387.6764
       170.0004        171.0004
 -22034678.62449 -16854862.05847  20556781.242    20556781.6444   20556789.1704
       207.0004        208.0004
 -11448100.07949  -8657395.70947  22984877.095    22984876.2804   22984882.9574
       198.0004        199.0004
 -10729158.13348  -8347626.28546  22878434.047    22878434.9814   22878439.8244
       180.0004        180.0004
  -8438439.47247  -6565002.79546  23135278.761    23135279.5454   23135287.9224
       161.0004        163.0004
 -18376014.39049 -14029056.41047  21029332.019    21029332.3054   21029338.6364
       199.0004        197.0004
 21  2  3  0  4 30.0000000  0  7G09G21G08G27G07G01G04
 -19207712.63549 -14937764.47448  20772403.838    20772404.2714   20772410.9354
       213.0004        214.0004
 -11820481.90248  -9023462.05446  22134215.530    22134215.1174   22134219.7154
       171.0004        173.0004
 -21985110.66049 -16816237.65347  20566214.055    20566214.1784   20566221.5064
       208.0004        208.0004
 -11347865.75749  -8579291.04747  23003950.382    23003950.5024   23003957.0654
       199.0004        198.0004
 -10804114.34748  -8406033.72046  22864170.636    22864171.3814   22864176.2274
       178.0004        179.0004
  -8515916.78647  -6625374.68646  23120535.757    23120536.4794   23120544.7914
       161.0004        163.0004
 -18310074.87949 -13977674.97247  21041879.471    21041879.9204   21041886.3124
       198.0004        196.0004
 21  2  3  0  5  0.0000000  0  7G09G21G08G27G07G01G04
 -19208658.53349 -14938501.54548  20772223.749    20772224.0664   20772231.1534
       213.0004        213.0004
 -11857860.11548  -9052587.92346  22127103.175    22127102.7384   22127107.1814
       172.0004        173.0004
 -21935045.90149 -16777226.14747  20575740.955    20575741.2374   20575748.6134
       208.0004        209.0004
 -11247412.25549  -8501015.59247  23023065.686    23023066.0114   23023073.0934
       198.0004        197.0004
 -10879111.04148  -8464472.68746  22849901.200    22849900.3204   22849904.5964
       179.0004        179.0004
  -8593427.52147  -6685772.62845  23105784.822    23105785.3564   23105794.1574
       160.0004        160.0004
 -18243709.03349 -13925961.33647  21054508.898    21054509.6064   21054515.0584
       198.0004        196.0004
 21  2  3  0  5 30.0000000  0  7G09G21G08G27G07G01G04
 -19209036.97549 -14938796.44548  20772151.998    20772152.3424   20772159.3444
       213.0004        214.0004
 -11894953.98148  -9081492.22946  22120043.415    22120044.1024   22120048.2224
       172.0004        172.0004
 -21884487.71249 -16737830.15447  20585362.036    20585362.3854   20585369.5644
       208.0004        209.0004
 -11146743.31949  -8422572.28047  23042222.615    23042223.0434   23042229.9094
       196.0004        196.0004
 -10954147.38848  -8522942.57646  22835622.086    22835622.5174   22835626.1924
       180.0004        181.0004
  -8670969.59747  -6746195.00345  23091028.525    23091029.7084   23091037.4434
       159.0004        161.0004
 -18176920.12449 -13873918.04647  21067218.771    21067218.9904   21067224.4364
       197.0004        195.0004
 21  2  3  0  6  0.0000000  0  7G09G21G08G27G07G01G04
 -19208848.39249 -14938649.50148  20772187.714    20772188.0754   20772194.9704
       213.0004        214.0004
 -11931760.79348  -9110172.83946  22113038.255    22113038.4084   22113044.6644
       172.0004        172.0004
 -21833438.24849 -16698051.34247  20595076.078    20595076.5254   20595084.0014
       208.0004        208.0004
 -11045862.00049  -8343963.45947  23061419.957    23061419.9214   23061426.6494
       195.0004        195.0004
 -11029221.53648  -8581441.90046  22821334.754    22821335.9874   22821338.4104
       179.0004        179.0004
  -8748540.18547  -6806639.60845  23076267.707    23076268.7524   23076276.7034
       159.0004        162.0004
 -18109710.66549 -13821547.03847  21080007.287    21080008.3804   21080014.1684
       197.0004        196.0004
 21  2  3  0  6 30.0000000  0  7G09G21G08G27G07G01G04
 -19208092.95049 -14938060.84548  20772331.190    20772331.6204   20772338.6174
       213.0004        214.0004
 -11968277.66448  -9138627.55546  22106089.529    22106089.8384   22106095.9984
       171.0004        172.0004
 -21781899.87049 -16657891.55847  20604882.808    20604883.3574   20604891.1314
       207.0004        207.0004
 -10944771.06749  -8265191.31547  23080655.476    23080656.4694   23080663.7174
       195.0004        195.0004
 -11104331.43548  -8639969.09646  22807043.715    22807043.0244   22807046.4814
       180.0004        181.0004
  -8826136.13147  -6867103.97846  23061503.175    23061503.8004   23061510.2394
       160.0004        163.0004
 -18042082.95849 -13768850.12747  21092877.269    21092877.6474   21092883.9414
       197.0004        197.0004
 21  2  3  0  7  0.0000000  0  7G09G21G08G27G07G01G04
 -19206772.66249 -14937032.04648  20772583.132    20772583.5244   20772590.2294
       214.0004        215.0004
 -12004503.70848  -9166855.63146  22099197.922    22099196.6104   22099201.4484
       171.0004        172.0004
 -21729876.06049 -16617353.52347  20614782.558    20614783.2224   20614791.0194
       207.0004        207.0004
 -10843475.20848  -8186259.48747  23099931.998    23099932.1214   23099939.6244
       194.0004        194.0004
 -11179476.77148  -8698523.90246  22792742.073    22792742.1544   22792746.6914
       179.0004        179.0004
  -8903756.17847  -6927587.08746  23046731.797    23046733.1574   23046740.4754
       161.0004        164.0004
 -17974041.08849 -13715830.47947  21105825.447    21105825.4094   21105832.0184
       198.0004        197.0004
 21  2  3  0  7 30.0000000  0  7G09G21G08G27G07G01G04
 -19204885.43649 -14935561.48448  20772941.847    20772942.4384   20772949.2814
       214.0004        214.0004
 -12040433.83448  -9194853.12646  22092359.369    22092360.0714   22092364.5224
       170.0004        170.0004
 -21677366.96049 -16576437.33647  20624776.074    20624776.1834   20624783.1034
       207.0004        207.0004
 -10741974.86148  -8107168.30447  23119246.322    23119246.8124   23119254.0054
       194.0004        192.0004
 -11254653.65248  -8757103.28046  22778435.315    22778436.2674   22778441.5734
       178.0004        178.0004
  -8981394.87547  -6988084.71146  23031957.169    23031957.5254   23031967.0284
       162.0004        163.0004
 -17905585.04249 -13662488.10947  21118851.501    21118851.7104   21118858.9854
       198.0004        196.0004
 21  2  3  0  8  0.0000000  0  7G09G21G08G27G07G01G04
 -19202431.01149 -14933648.94548  20773409.251    20773409.4844   20773416.6864
       214.0004        215.0004
 -12076064.95348  -9222617.60446  22085578.817    22085579.0984   22085583.8704
       169.0004        171.0004
 -21624374.00849 -16535144.11747  20634859.985    20634860.4084   20634867.6464
       207.0004        208.0004
 -10640272.25248  -8027919.52647  23138600.447    23138600.3524   23138607.8084
       193.0004        193.0004
 -11329859.06548  -8815704.88946  22764126.310    22764126.5124   22764130.3094
       178.0004        180.0004
  -9059048.60647  -7048594.08646  23017180.961    23017180.9134   23017189.3434
       161.0004        163.0004
 -17836716.61049 -13608824.40447  21131956.973    21131957.2424   21131963.4074
       197.0004        195.0004
 21  2  3  0  8 30.0000000  0  7G09G21G08G27G07G01G04
 -19199412.14149 -14931296.58848  20773983.518    20773984.0944   20773990.9464
       214.0004        215.0004
 -12111396.59148  -9250148.73446  22078856.291    22078855.4634   22078860.9814
       171.0004        172.0004
 -21570901.91449 -16493477.54247  20645035.488    20645035.6584   20645042.9654
       207.0004        208.0004
 -10538372.64148  -7948517.23147  23157989.343    23157990.8324   23157999.6404
       191.0004        191.0004
 -11405093.41548  -8874329.05946  22749809.280    22749809.7174   22749813.1314
       178.0004        179.0004
  -9136716.67647  -7109114.64646  23002399.327    23002400.7434   23002409.3684
       162.0004        163.0004
 -17767440.61849 -13554843.12347  21145139.820    21145140.0264   21145146.4244
       197.0004        195.0004
 21  2  3  0  9  0.0000000  0  7G09G21G08G27G07G01G04
 -19195827.84749 -14928503.64248  20774666.250    20774666.4714   20774673.0714
       214.0004        215.0004
 -12146424.19248  -9277442.94146  22072189.720    22072188.7904   22072195.0464
       171.0004        171.0004
 -21516951.72049 -16451438.41347  20655301.837    20655302.1464   20655309.0344
       207.0004        207.0004
 -10436277.50448  -7868962.59647  23177417.871    23177418.6334   23177427.3594
       190.0004        190.0004
 -11480353.38748  -8932973.18546  22735487.471    22735488.3024   22735491.5404
       178.0004        178.0004
  -9214394.66547  -7169642.91446  22987619.474    22987620.0724   22987627.8394
       162.0004        163.0004
 -17697758.13149 -13500545.08847  21158400.512    21158400.6784   21158407.4384
       197.0004        196.0004
 21  2  3  0  9 30.0000000  0  7G09G21G08G27G07G01G04
 -19191680.22449 -14925271.72748  20775454.868    20775455.2834   20775462.1674
       214.0004        214.0004
 -12181148.09148  -9304500.51846  22065581.487    22065580.7384   22065588.4274
       170.0004        172.0004
 -21462527.58549 -16409029.98747  20665657.598    20665657.8044   20665665.1614
       206.0004        206.0004
 -10333991.47448  -7789259.19447  23196883.092    23196883.2864   23196892.3894
       190.0004        191.0004
 -11555638.68548  -8991637.04746  22721160.416    22721160.2494   22721165.4044
       177.0004        177.0004
  -9292081.11047  -7230177.78646  22972836.022    22972836.7754   22972845.5244
       161.0004        163.0004
 -17627673.26149 -13445933.51047  21171737.050    21171737.1484   21171743.0114
       197.0004        195.0004
 21  2  3  0 10  0.0000000  0  7G09G21G08G27G07G01G04
 -19186969.72149 -14921601.20448  20776351.337    20776351.5464   20776358.5774
       214.0004        214.0004
 -12215564.99148  -9331318.87446  22059033.677    22059032.6154   22059037.5324
       171.0004        171.0004
 -21407631.41349 -16366253.75047  20676103.620    20676104.1204   20676111.8284
       205.0004        206.0004
 -10231517.27048  -7709409.18347  23216383.675    23216382.8974   23216391.5034
       189.0004        188.0004
 -11630947.26148  -9050319.04246  22706830.586    22706830.4484   22706834.3654
       178.0004        180.0004
  -9369773.00347  -7290716.90246  22958051.256    22958051.7884   22958059.9274
       161.0004        163.0004
 -17557188.47049 -13391010.29647  21185149.933    21185150.0834   21185156.0034
       197.0004        196.0004
 21  2  3  0 10 30.0000000  0  7G09G21G08G27G07G01G04
 -19181698.21749 -14917493.54548  20777354.743    20777355.0104   20777361.4464
       214.0004        214.0004
 -12249673.49648  -9357896.92246  22052542.370    22052541.9594   22052547.1224
       172.0004        173.0004
 -21352267.48049 -16323113.02347  20686639.988    20686640.0514   20686647.6794
       206.0004        206.0004
 -10128859.23848  -7629415.93747  23235920.744    23235919.2934   23235926.8174
       189.0004        188.0004
 -11706278.15648  -9109018.44046  22692495.690    22692495.4994   22692499.5414
       180.0004        180.0004
  -9447468.62347  -7351258.91645  22943266.771    22943265.7624   22943275.4014
       160.0004        162.0004
 -17486307.61149 -13335778.47247  21198637.202    21198637.8574   21198644.2934
       197.0004        195.0004
 21  2  3  0 11  0.0000000  0  7G09G21G08G27G07G01G04
 -19175864.70949 -14912947.95648  20778465.235    20778465.1704   20778471.7584
       214.0004        214.0004
 -12283469.29148  -9384231.27946  22046110.919    22046111.3904   22046115.3864
       172.0004        173.0004
 -21296435.99749 -16279607.96147  20697264.487    20697264.6344   20697271.8804
       206.0004        206.0004
 -10026018.71648  -7549280.46747  23255489.725    23255489.5164   23255497.4004
       189.0004        190.0004
 -11781628.10148  -9167732.68846  22678156.519    22678157.5854   22678161.5684
       179.0004        180.0004
  -9525163.32747  -7411800.19845  22928479.914    22928481.5464   22928489.9594
       160.0004        161.0004
 -17415031.71149 -13280238.80647  21212201.188    21212201.2094   21212208.1734
       196.0004        195.0004
 21  2  3  0 11 30.0000000  0  7G09G21G08G27G07G01G04
 -19169468.51449 -14907963.90748  20779681.524    20779681.7054   20779689.1404
       214.0004        214.0004
 -12316949.26148  -9410319.56546  22039741.459    22039741.0284   22039745.2424
       173.0004        175.0004
 -21240138.70349 -16235739.93547  20707977.645    20707977.7834   20707984.9834
       206.0004        207.0004
  -9922997.19348  -7469003.97146  23275091.676    23275093.2894   23275100.4614
       188.0004        187.0004
 -11856994.04248  -9226459.37446  22663814.506    22663814.7044   22663820.0594
       179.0004        180.0004
  -9602852.88047  -7472337.47845  22913697.495    22913698.0094   22913706.7174
       160.0004        162.0004
 -17343361.96649 -13224392.26147  21225839.310    21225839.6294   21225846.8084
       196.0004        195.0004
 21  2  3  0 12  0.0000000  0  7G09G21G08G27G07G01G04
 -19162511.30149 -14902542.71248  20781005.819    20781005.9354   20781012.7744
       214.0004        214.0004
 -12350111.31548  -9436160.13746  22033430.623    22033429.9314   22033434.4184
       173.0004        173.0004
 -21183378.50049 -16191511.19947  20718779.032    20718779.1874   20718785.8114
       206.0004        207.0004
  -9819798.77948  -7388589.61647  23294729.970    23294731.4294   23294739.3244
       189.0004        190.0004
 -11932374.75248  -9285197.59046  22649469.519    22649469.9984   22649475.0784
       179.0004        180.0004
  -9680535.24647  -7532869.15246  22898916.089    22898916.5734   22898924.3914
       161.0004        163.0004
 -17271302.06349 -13168241.70047  21239551.814    21239552.2864   21239558.7944
       196.0004        194.0004
 21  2  3  0 12 30.0000000  0  7G09G21G08G27G07G01G04
 -19154993.20849 -14896684.46048  20782435.858    20782436.4714   20782443.2874
       213.0004        214.0004
 -12382952.99248  -9461751.02746  22027180.467    22027179.7284   22027184.6244
       174.0004        175.0004
 -21126157.63049 -16146923.49547  20729667.391    20729667.6144   20729674.7334
       206.0004        206.0004
  -9716425.77148  -7308039.23647  23314401.934    23314401.9544   23314409.5404
       188.0004        188.0004
 -12007767.90148  -9343945.47846  22635122.532    22635123.1534   22635128.1554
       180.0004        181.0004
  -9758206.87447  -7593392.45545  22884135.320    22884136.1644   22884142.9164
       161.0004        162.0004
 -17198854.04049 -13111788.69847  21253338.310    21253338.9614   21253344.6584
       195.0004        193.0004
 21  2  3  0 13  0.0000000  0  7G09G21G08G27G07G01G04
 -19146916.82449 -14890391.19148  20783973.283    20783973.4984   20783980.1564
       213.0004        214.0004
 -12415473.53448  -9487091.70546  22020992.549    22020991.6964   22020996.1314
       174.0004        175.0004
 -21068480.87649 -16101980.56847  20740642.346    20740642.5984   20740650.1264
       205.0004        204.0004
  -9612882.98648  -7227356.56247  23334106.613    23334106.0944   23334113.2074
       188.0004        188.0004
 -12083173.17348  -9402702.82346  22620774.902    22620775.0014   22620779.3454
       181.0004        182.0004
  -9835866.57747  -7653906.47945  22869356.396    22869356.7464   22869365.0984
       160.0004        161.0004
 -17126022.41849 -13055036.78647  21267197.573    21267197.4404   21267204.1734
       195.0004        194.0004
 21  2  3  0 13 30.0000000  0  7G09G21G08G27G07G01G04
 -19138282.88349 -14883663.44948  20785615.819    20785616.2714   20785623.2344
       213.0004        213.0004
 -12447670.28448  -9512180.06846  22014864.459    22014865.0294   22014869.8914
       174.0004        174.0004
 -21010350.10849 -16056683.87347  20751703.814    20751704.5894   20751712.0694
       205.0004        205.0004
  -9509173.37648  -7146543.87047  23353841.732    23353841.9634   23353848.7754
       188.0004        189.0004
 -12158588.52248  -9461468.04546  22606423.388    22606424.4664   22606427.2854
       182.0004        182.0004
  -9913511.49547  -7714408.98346  22854581.159    22854581.6604   22854589.8804
       160.0004        163.0004
 -17052809.84349 -12997988.03847  21281129.467    21281129.8334   21281135.6664
       195.0004        193.0004
 21  2  3  0 14  0.0000000  0  7G09G21G08G27G07G01G04
 -19129092.05649 -14876501.76648  20787365.211    20787365.5594   20787372.2924
       213.0004        214.0004
 -12479540.67548  -9537014.13546  22008800.740    22008800.2224   22008804.8474
       174.0004        175.0004
 -20951767.99049 -16011035.46747  20762852.067    20762852.4334   20762859.3694
       204.0004        204.0004
  -9405299.76848  -7065603.43347  23373608.576    23373608.1444   23373615.9364
       189.0004        191.0004
 -12234011.81948  -9520239.45346  22592071.132    22592071.4494   22592074.7294
       182.0004        184.0004
  -9991138.16147  -7774897.26746  22839811.037    22839810.3614   22839818.5324
       161.0004        163.0004
 -16979218.86749 -12940644.42047  21295134.184    21295134.4114   21295139.6724
       195.0004        193.0004
 21  2  3  0 14 30.0000000  0  7G09G21G08G27G07G01G04
 -19119345.31249 -14868906.89748  20789219.680    20789219.7904   20789226.9774
       213.0004        213.0004
 -12511083.09248  -9561592.62246  22002798.704    22002797.7574   22002802.5054
       174.0004        175.0004
 -20892737.45549 -15965037.64247  20774085.707    20774086.5734   20774093.0514
       205.0004        205.0004
  -9301265.28948  -6984537.60447  23393405.157    23393405.5474   23393413.1074
       191.0004        191.0004
 -12309441.30348  -9579015.64746  22577716.967    22577717.8684   22577721.9324
       184.0004        185.0004
 -10068743.86147  -7835369.22646  22825042.326    22825042.4504   22825050.1814
       162.0004        165.0004
 -16905252.38149 -12883008.19447  21309208.274    21309209.3084   21309215.2014
       195.0004        194.0004
 21  2  3  0 15  0.0000000  0  7G09G21G08G27G07G01G04
 -19109041.09449 -14860877.64148  20791180.705    20791181.0844   20791187.8564
       213.0004        213.0004
 -12542292.19248  -9585911.38646  21996860.030    21996858.7574   21996863.7384
       174.0004        174.0004
 -20833258.58649 -15918690.44947  20785404.010    20785404.8444   20785411.5154
       205.0004        206.0004
  -9197070.39048  -6903346.77647  23413232.810    23413233.1604   23413240.6374
       191.0004        192.0004
 -12384872.55048  -9637793.22446  22563362.898    22563363.8744   22563367.6854
       184.0004        184.0004
 -10146323.16747  -7895820.59146  22810277.545    22810278.9314   22810287.6814
       162.0004        163.0004
 -16830910.64449 -12825079.57347  21323354.944    21323355.7414   21323362.4414
       195.0004        194.0004
 21  2  3  0 15 30.0000000  0  7G09G21G08G27G07G01G04
 -19098180.69849 -14852415.00748  20793247.782    20793247.6534   20793254.5164
       213.0004        213.0004
 -12573165.82548  -9609968.75646  21990983.672    21990983.7174   21990987.7254
       173.0004        173.0004
 -20773334.29449 -15871996.18847  20796807.092    20796807.3244   20796814.8444
       205.0004        205.0004
  -9092718.50448  -6822033.64547  23433089.938    23433090.7274   23433098.7514
       192.0004        192.0004
 -12460303.98748  -9696570.96946  22549008.694    22549009.9694   22549013.0744
       184.0004        185.0004
 -10223873.44247  -7956249.33746  22795521.900    22795521.8754   22795530.0834
       162.0004        164.0004
 -16756196.75649 -12766860.96747  21337573.342    21337573.8574   21337579.4664
       195.0004        193.0004
 21  2  3  0 16  0.0000000  0  7G09G21G08G27G07G01G04
 -19086766.05849 -14843520.48848  20795419.572    20795419.7524   20795426.5714
       213.0004        213.0004
 -12603702.89748  -9633763.87446  21985173.403    21985173.0234   21985176.7984
       172.0004        172.0004
 -20712968.05449 -15824957.55847  20808294.189    20808294.7564   20808302.3664
       204.0004        205.0004
  -8988213.62148  -6740601.26047  23452976.788    23452977.1004   23452983.7334
       191.0004        190.0004
 -12535734.60948  -9755348.06646  22534654.528    22534654.6744   22534658.8814
       184.0004        184.0004
 -10301392.76247  -8016653.97246  22780769.412    22780770.5374   22780778.8294
       163.0004        166.0004
 -16681114.57648 -12708355.36947  21351860.912    21351861.1514   21351867.6564
       194.0004        192.0004
 21  2  3  0 16 30.0000000  0  7G09G21G08G27G07G01G04
 -19074798.56649 -14834195.17048  20797696.844    20797697.1504   20797704.2694
       213.0004        214.0004
 -12633901.60748  -9657295.32646  21979424.564    21979425.9954   21979431.3954
       173.0004        173.0004
 -20652163.21649 -15777577.16647  20819865.397    20819865.7514   20819872.7544
       204.0004        204.0004
  -8883559.02648  -6659052.24847  23472891.565    23472892.5494   23472899.2894
       190.0004        190.0004
 -12611162.83348  -9814123.30046  22520301.381    22520301.6264   22520305.6924
       185.0004        186.0004
 -10378878.44748  -8077032.40646  22766025.843    22766025.3724   22766033.2294
       165.0004        168.0004
 -16605667.26248 -12649565.27047  21366218.257    21366218.5904   21366224.6394
       194.0004        193.0004
 21  2  3  0 17  0.0000000  0  7G09G21G08G27G07G01G04
 -19062279.23249 -14824439.85348  20800079.244    20800079.5584   20800086.5154
       213.0004        213.0004
 -12663759.64248  -9680561.30346  21973744.117    21973744.0994   21973749.2934
       173.0004        174.0004
 -20590922.70649 -15729857.28547  20831518.645    20831518.9904   20831526.0264
       203.0004        203.0004
  -8778757.72148  -6577388.87047  23492835.009    23492835.8994   23492842.3894
       189.0004        190.0004
 -12686586.51948  -9872895.00446  22505949.343    22505949.7594   22505953.3984
       186.0004        186.0004
 -10456327.46748  -8137382.26846  22751286.637    22751287.5194   22751296.0504
       167.0004        169.0004
 -16529857.57648 -12590492.78947  21380644.427    21380644.6624   21380650.6914
       194.0004        192.0004
 21  2  3  0 17 30.0000000  0  7G09G21G08G27G07G01G04
 -19049208.48249 -14814254.85948  20802566.321    20802566.7194   20802573.8934
       213.0004        214.0004
 -12693274.05248  -9703559.53446  21968126.897    21968126.4574   21968132.4474
       172.0004        173.0004
 -20529248.31449 -15681799.30547  20843255.010    20843255.3794   20843262.0854
       203.0004        204.0004
  -8673812.21748  -6495613.18247  23512805.422    23512806.0664   23512812.4694
       189.0004        189.0004
 -12762003.50348  -9931661.46846  22491597.632    22491598.2414   22491601.2414
       185.0004        185.0004
 -10533736.32648  -8197700.82446  22736557.172    22736557.2374   22736564.7454
       167.0004        169.0004
 -16453687.79148 -12531139.70847  21395138.532    21395139.2334   21395145.5084
       193.0004        192.0004
 21  2  3  0 18  0.0000000  0  7G09G21G08G27G07G01G04
 -19035587.99449 -14803641.49648  20805158.499    20805158.5594   20805165.7884
       213.0004        214.0004
 -12722443.28248  -9726288.78246  21962577.174    21962576.8284   21962581.2994
       172.0004        172.0004
 -20467143.18849 -15633405.69147  20855074.350    20855074.3094   20855080.2484
       204.0004        204.0004
  -8568725.92048  -6413727.75946  23532803.245    23532802.7704   23532809.2934
       188.0004        187.0004
 -12837412.11348  -9990421.42046  22477247.625    22477248.0584   22477252.2694
       186.0004        186.0004
 -10611102.48848  -8257986.12446  22721835.621    22721836.0964   22721843.3844
       167.0004        168.0004
 -16377161.26948 -12471508.65847  21409701.505    21409702.1834   21409708.3484
       193.0004        192.0004
 21  2  3  0 18 30.0000000  0  7G09G21G08G27G07G01G04
 -19021416.60349 -14792598.86148  20807855.157    20807855.2324   20807862.3204
       213.0004        213.0004
 -12751262.57048  -9748745.35946  21957092.586    21957092.5914   21957097.2034
       172.0004        174.0004
 -20404608.13649 -15584677.06447  20866973.625    20866973.7384   20866981.1964
       204.0004        204.0004
  -8463499.66648  -6331733.30947  23552826.643    23552827.0614   23552833.3964
       188.0004        189.0004
 -12912808.18748 -10049171.59546  22462900.281    22462900.1174   22462904.5684
       186.0004        186.0004
 -10688420.78048  -8318234.11846  22707120.803    22707121.7434   22707128.9784
       167.0004        168.0004
 -16300278.67848 -12411600.14447  21424331.368    21424332.0634   21424338.4024
       193.0004        193.0004
 21  2  3  0 19  0.0000000  0  7G09G21G08G27G07G01G04
 -19006696.30749 -14781128.50748  20810656.539    20810656.5404   20810663.7544
       213.0004        213.0004
 -12779731.14248  -9770928.64846  21951675.294    21951674.8974   21951681.4444
       172.0004        173.0004
 -20341646.79449 -15535616.28347  20878954.186    20878954.6774   20878962.3904
       203.0004        203.0004
  -8358137.20548  -6249632.67947  23572875.928    23572876.6274   23572883.5614
       188.0004        188.0004
 -12988190.08048 -10107910.74947  22448555.005    22448556.5224   22448559.9314
       186.0004        188.0004
 -10765689.00148  -8378443.10946  22692416.735    22692417.4374   22692426.2034
       168.0004        170.0004
 -16223043.68148 -12351417.03747  21439029.328    21439029.6644   21439036.2394
       193.0004        192.0004
 21  2  3  0 19 30.0000000  0  7G09G21G08G27G07G01G04
 -18991428.73949 -14769231.70748  20813561.591    20813561.9324   20813568.8464
       213.0004        214.0004
 -12807846.68248  -9792836.84346  21946325.561    21946325.5724   21946330.8974
       173.0004        175.0004
 -20278262.14549 -15486225.64847  20891015.688    20891016.3294   20891023.7694
       203.0004        203.0004
  -8252642.04648  -6167428.67547  23592950.710    23592951.4354   23592958.8414
       189.0004        188.0004
 -13063556.38048 -10166637.72846  22434213.785    22434214.3394   22434218.1214
       187.0004        187.0004
 -10842904.55548  -8438611.03446  22677723.682    22677724.0564   22677731.8574
       169.0004        171.0004
 -16145459.64048 -12290961.93347  21453792.565    21453793.1294   21453799.6594
       193.0004        192.0004
 21  2  3  0 20  0.0000000  0  7G09G21G08G27G07G01G04
 -18975614.78349 -14756909.15248  20816571.125    20816571.5594   20816578.0334
       213.0004        214.0004
 -12835607.09848  -9814468.33446  21941042.488    21941042.3954   21941046.5644
       174.0004        175.0004
 -20214456.73749 -15436507.14547  20903157.399    20903157.7074   20903165.8974
       202.0004        202.0004
  -8147016.85448  -6085123.32346  23613050.525    23613051.3974   23613058.2114
       186.0004        185.0004
 -13138905.18748 -10225351.06346  22419874.935    22419875.4364   22419879.5974
       186.0004        186.0004
 -10920064.20748  -8498735.40746  22663040.277    22663040.6454   22663048.4654
       169.0004        170.0004
 -16067529.20148 -12230236.92147  21468622.559    21468622.9434   21468628.7444
       193.0004        191.0004
 21  2  3  0 20 30.0000000  0  7G09G21G08G27G07G01G04
 -18959255.90549 -14744161.98348  20819683.576    20819684.1564   20819691.2494
       213.0004        213.0004
 -12863010.51748  -9835821.62446  21935827.597    21935826.9334   21935832.7604
       174.0004        175.0004
 -20150233.60049 -15386463.13747  20915378.949    20915379.4204   20915386.2844
       202.0004        203.0004
  -8041264.71248  -6002719.10146  23633174.173    23633175.6824   23633183.0074
       185.0004        184.0004
 -13214234.34148 -10284049.09546  22405540.407    22405541.1384   22405545.4874
       186.0004        187.0004
 -10997164.99048  -8558813.91946  22648366.971    22648367.9094   22648376.6294
       168.0004        169.0004
 -15989255.27748 -12169244.25347  21483517.516    21483517.8264   21483523.7684
       192.0004        191.0004
 21  2  3  0 21  0.0000000  0  7G09G21G08G27G07G01G04
 -18942351.99749 -14730990.10848  20822900.380    20822900.7294   20822907.4874
       213.0004        213.0004
 -12890053.26648  -9856893.87346  21930681.735    21930681.5654   21930687.8664
       175.0004        176.0004
 -20085594.80549 -15336095.23047  20927679.439    20927679.5254   20927686.9174
       202.0004        202.0004
  -7935387.40548  -5920217.30446  23653324.447    23653323.9274   23653330.4334
       184.0004        184.0004
 -13289540.50748 -10342729.21746  22391209.933    22391210.5564   22391214.1824
       186.0004        187.0004
 -11074202.71648  -8618843.29046  22633709.272    22633708.9224   22633717.7784
       169.0004        171.0004
 -15910639.64848 -12107985.33347  21498476.573    21498477.8354   21498484.3874
       192.0004        192.0004
 21  2  3  0 21 30.0000000  0  7G09G21G08G27G07G01G04
 -18924907.01949 -14717396.63148  20826220.218    20826220.5914   20826227.5224
       213.0004        213.0004
 -12916735.99848  -9877685.61446  21925605.415    21925604.0624   21925608.8204
       176.0004        176.0004
 -20020545.26249 -15285407.27747  20940057.710    20940057.9864   20940065.4404
       201.0004        201.0004
  -7829390.55848  -5837622.37446  23673494.449    23673495.0804   23673501.7494
       183.0004        184.0004
 -13364824.44148 -10401392.03146  22376884.672    22376884.7674   22376888.2464
       186.0004        187.0004
 -11151177.06148  -8678823.28346  22619061.804    22619062.3874   22619070.2644
       171.0004        172.0004
 -15831687.99248 -12046464.57247  21513501.029    21513501.7924   21513508.2994
       192.0004        190.0004
 21  2  3  0 22  0.0000000  0  7G09G21G08G27G07G01G04
 -18906921.51849 -14703381.95948  20829643.268    20829643.4574   20829650.1724
       213.0004        214.0004
 -12943055.65248  -9898194.42046  21920596.405    21920595.9154   21920601.3794
       176.0004        176.0004
 -19955087.16649 -15234400.96347  20952513.357    20952514.0854   20952521.8324
       201.0004        201.0004
  -7723276.41448  -5754936.01446  23693688.251    23693688.0184   23693693.6494
       184.0004        185.0004
 -13440083.23648 -10460035.24846  22362563.276    22362563.5414   22362567.5704
       186.0004        187.0004
 -11228084.18248  -8738750.88146  22604426.445    22604427.3074   22604435.2584
       170.0004        171.0004
 -15752402.39948 -11984683.59947  21528588.555    21528589.0234   21528596.3094
       192.0004        190.0004
 21  2  3  0 22 30.0000000  0  7G09G21G08G27G07G01G04
 -18888396.78449 -14688947.10948  20833167.749    20833168.0594   20833174.8154
       213.0004        213.0004
 -12969009.98448  -9918418.56346  21915656.989    21915656.0694   21915661.8044
       176.0004        176.0004
 -19889223.32949 -15183078.49047  20965047.056    20965047.4174   20965055.3354
       201.0004        201.0004
  -7617047.77748  -5672160.47746  23713903.380    23713902.9114   23713908.2354
       186.0004        186.0004
 -13515314.65348 -10518657.12446  22348246.762    22348247.4004   22348250.6694
       186.0004        186.0004
 -11304921.01048  -8798623.71446  22589804.681    22589804.9384   22589813.8274
       170.0004        171.0004
 -15672785.75348 -11922644.66247  21543740.184    21543740.2614   21543745.9884
       191.0004        191.0004
 21  2  3  0 23  0.0000000  0  7G09G21G08G27G07G01G04
 -18869333.45749 -14674092.56548  20836795.336    20836795.7424   20836803.1444
       213.0004        214.0004
 -12994596.66348  -9938356.22546  21910787.470    21910787.9334   21910792.6314
       176.0004        177.0004
 -19822955.82849 -15131441.46947  20977657.102    20977658.0614   20977665.6414
       201.0004        201.0004
  -7510706.89948  -5589297.45546  23734140.228    23734138.8204   23734144.5794
       185.0004        185.0004
 -13590516.15548 -10577255.68446  22333936.313    22333936.3134   22333941.0914
       185.0004        186.0004
 -11381683.76448  -8858438.82146  22575196.442    22575196.7124   22575205.4194
       169.0004        170.0004
 -15592840.22548 -11860349.45247  21558952.530    21558953.3344   21558958.6844
       192.0004        191.0004
 21  2  3  0 23 30.0000000  0  8G30G09G21G08G27G07G01G04
  -1398699.38056  -1060239.94045  24270989.490                    24270996.4924
       122.0004        153.0004
 -18849731.38349 -14658818.22848  20840525.744    20840526.1894   20840533.4894
       214.0004        214.0004
 -13019811.93048  -9958004.46446  21905989.915    21905989.2484   21905995.2044
       177.0004        179.0004
 -19756285.81349 -15079490.79847  20990345.041    20990345.1024   20990352.3904
       201.0004        201.0004
  -7404255.21848  -5506348.10846  23754396.058    23754395.7124   23754401.4274
       185.0004        185.0004
 -13665683.96648 -10635827.98546  22319631.929    22319632.1334   22319636.9764
       186.0004        187.0004
 -11458367.85048  -8918192.60746  22560604.702    22560604.4734   22560612.7644
       169.0004        169.0004
 -15512567.31048 -11797799.13647  21574227.303    21574228.3894   21574234.8924
       191.0004        190.0004
 21  2  3  0 24  0.0000000  0  8G30G09G21G08G27G07G01G04
  -1482940.06747  -1125882.01445  24254957.020    24254959.0594   24254965.9274
       149.0004        155.0004
 -18829591.91549 -14643125.14348  20844358.467    20844358.7134   20844365.3584
       214.0004        214.0004
 -13044653.46548  -9977361.50546  21901263.230    21901262.5224   21901267.9864
       178.0004        178.0004
 -19689216.79949 -15027229.22847  21003107.028    21003107.4744   21003115.2754
       200.0004        200.0004
  -7297695.57448  -5423314.63546  23774671.511    23774671.8114   23774679.4564
       183.0004        183.0004
 -13740816.04848 -10694372.46047  22305336.206    22305335.8114   22305340.0154
       187.0004        188.0004
 -11534970.26248  -8977882.80246  22546027.895    22546028.5454   22546035.5914
       168.0004        169.0004
 -15431969.93348 -11734995.99547  21589565.343    21589565.7744   21589572.1124
       192.0004        191.0004
 21  2  3  0 24 30.0000000  0  8G30G09G21G08G27G07G01G04
  -1567287.20847  -1191607.03745  24238908.588    24238908.0194   24238915.3414
       152.0004        155.0004
 -18808918.09349 -14627015.68348  20848292.245    20848292.5264   20848299.6474
       213.0004        213.0004
 -13069120.47948  -9996426.69146  21896607.093    21896606.2284   21896611.4324
       178.0004        179.0004
 -19621752.60949 -14974659.73347  21015944.616    21015945.5334   21015953.1444
       199.0004        199.0004
  -7191032.62848  -5340200.66946  23794968.264    23794969.1484   23794976.9354
       182.0004        182.0004
 -13815911.81748 -10752888.64146  22291044.969    22291045.5794   22291049.3984
       187.0004        187.0004
 -11611489.35848  -9037508.06546  22531466.433    22531467.2264   22531475.4314
       168.0004        169.0004
 -15351052.65648 -11671943.58147  21604962.914    21604963.4234   21604970.2794
       191.0004        190.0004
 21  2  3  0 25  0.0000000  0  8G30G09G21G08G27G07G01G04
  -1651739.72047  -1257414.15745  24222837.316    24222837.4064   24222844.8684
       152.0004        155.0004
 -18787711.48749 -14610491.06748  20852327.800    20852328.2954   20852334.8754
       213.0004        213.0004
 -13093211.93448 -10015199.26746  21892022.640    21892021.8434   21892026.4144
       178.0004        178.0004
 -19553896.50349 -14921784.84747  21028857.465    21028857.8144   21028865.3254
       199.0004        199.0004
  -7084269.30048  -5257008.49046  23815285.835    23815286.5604   23815292.5194
       181.0004        180.0004
 -13890969.26748 -10811374.96447  22276761.957    22276762.8854   22276766.9544
       187.0004        188.0004
 -11687922.26048  -9097066.15846  22516921.096    22516922.3164   22516930.3224
       169.0004        170.0004
 -15269818.59448 -11608644.32747  21620421.522    21620422.2964   21620428.1364
       190.0004        189.0004
 21  2  3  0 25 30.0000000  0  8G30G09G21G08G27G07G01G04
  -1736295.03347  -1323301.38845  24206746.696    24206746.9914   24206754.4234
       153.0004        156.0004
 -18765972.30449 -14593551.44847  20856464.799    20856464.9904   20856471.4434
       213.0004        212.0004
 -13116924.20348 -10033676.34346  21887509.837    21887509.8134   21887514.7384
       178.0004        178.0004
 -19485650.38649 -14868606.05147  21041844.998    21041844.9664   21041852.2214
       199.0004        199.0004
  -6977407.23348  -5173739.35046  23835620.785    23835621.5714   23835628.7214
       180.0004        180.0004
 -13965984.92448 -10869828.71746  22262487.456    22262487.1464   22262491.8824
       187.0004        187.0004
 -11764264.67048  -9156553.72546  22502394.839    22502394.8914   22502403.3724
       169.0004        170.0004
 -15188269.43748 -11545099.53647  21635940.338    21635940.6404   21635946.7414
       190.0004        190.0004
 21  2  3  0 26  0.0000000  0  8G30G09G21G08G27G07G01G04
  -1820950.66947  -1389266.79345  24190635.693    24190637.3624   24190645.1704
       154.0004        157.0004
 -18743700.69849 -14576196.94848  20860703.006    20860703.2104   20860709.7834
       213.0004        213.0004
 -13140253.82848 -10051855.26846  21883069.948    21883069.5084   21883075.6854
       178.0004        179.0004
 -19417015.49349 -14815124.30947  21054905.411    21054905.8494   21054913.3614
       199.0004        199.0004
  -6870448.08448  -5090394.52946  23855974.631    23855975.1374   23855980.8254
       180.0004        180.0004
 -14040955.31448 -10928247.19646  22248220.299    22248220.5214   22248225.3704
       186.0004        186.0004
 -11840512.15648  -9215967.31446  22487884.860    22487884.7684   22487893.2574
       169.0004        170.0004
 -15106406.87548 -11481310.53247  21651518.107    21651518.1554   21651524.8014
       190.0004        190.0004
 21  2  3  0 26 30.0000000  0  8G30G09G21G08G27G07G01G04
  -1905705.29647  -1455309.33545  24174508.694    24174509.0714   24174517.6974
       155.0004        158.0004
 -18720898.16049 -14558428.74348  20865042.378    20865042.7154   20865049.1884
       213.0004        214.0004
 -13163198.77448 -10069734.42346  21878703.628    21878703.7304   21878709.2524
       177.0004        179.0004
 -19347994.72949 -14761341.88447  21068039.761    21068039.9884   21068047.2774
       199.0004        199.0004
  -6763394.67948  -5006976.32246  23876345.509    23876346.5274   23876352.9884
       180.0004        181.0004
 -14115878.36948 -10986628.78846  22233962.601    22233963.1684   22233968.2564
       186.0004        186.0004
 -11916661.60548  -9275304.51846  22473393.620    22473394.6244   22473402.5484
       169.0004        171.0004
 -15024233.88548 -11417279.63247  21667154.991    21667155.2464   21667162.1324
       191.0004        190.0004
 21  2  3  0 27  0.0000000  0  8G30G09G21G08G27G07G01G04
  -1990557.86947  -1521428.20845  24158362.474    24158362.2424   24158369.0004
       156.0004        158.0004
 -18697566.49249 -14540248.23248  20869481.170    20869481.7614   20869488.8744
       213.0004        213.0004
 -13185757.51348 -10087312.65646  21874411.380    21874410.9704   21874416.5294
       178.0004        178.0004
 -19278591.39749 -14707261.36447  21081245.929    21081246.4334   21081254.7774
       198.0004        198.0004
  -6656250.12748  -4923487.06046  23896734.441    23896735.2504   23896741.9334
       181.0004        182.0004
 -14190752.07748 -11044971.93547  22219715.645    22219715.8144   22219719.9244
       187.0004        188.0004
 -11992710.12348  -9334563.08546  22458923.689    22458923.5974   22458930.5014
       170.0004        170.0004
 -14941753.62948 -11353009.31947  21682849.920    21682850.9664   21682857.1974
       191.0004        190.0004
 21  2  3  0 27 30.0000000  0  8G30G09G21G08G27G07G01G04
  -2075508.84847  -1587623.76645  24142197.058    24142196.4564   24142204.0344
       156.0004        158.0004
 -18673708.96049 -14521657.96148  20874021.701    20874022.0344   20874029.1614
       212.0004        213.0004
 -13207929.57648 -10104589.59646  21870192.472    21870192.1444   21870196.9024
       178.0004        179.0004
 -19208810.07449 -14652886.31647  21094524.982    21094525.5204   21094533.6994
       197.0004        198.0004
  -6549019.02948  -4839930.38846  23917141.070    23917140.7794   23917148.0284
       179.0004        179.0004
 -14265576.01748 -11103276.29847  22205476.769    22205477.6144   22205481.0954
       188.0004        189.0004
 -12068656.37248  -9393741.97646  22444470.763    22444471.1764   22444478.4254
       169.0004        171.0004
 -14858970.90948 -11288503.31747  21698603.593    21698603.7674   21698610.1524
       191.0004        189.0004
 21  2  3  0 28  0.0000000  0  8G30G09G21G08G27G07G01G04
  -2160555.94147  -1653894.21245  24126012.136    24126012.7644   24126020.0914
       156.0004        158.0004
 -18649326.17349 -14502658.37948  20878661.573    20878661.8684   20878668.7844
       213.0004        213.0004
 -13229712.28248 -10121563.10946  21866048.153    21866047.1784   21866052.0124
       179.0004        179.0004
 -19138652.67949 -14598218.20747  21107875.804    21107876.2974   21107883.6474
       197.0004        197.0004
  -6441703.31848  -4756307.74446  23937563.048    23937562.0614   23937569.6674
       178.0004        177.0004
 -14340346.85548 -11161539.27447  22191248.615    22191249.3354   22191253.1954
       189.0004        190.0004
 -12144496.19648  -9452837.90646  22430039.394    22430039.5794   22430047.3524
       169.0004        171.0004
 -14775887.70248 -11223763.16047  21714413.676    21714414.0644   21714420.4444
       190.0004        189.0004
 21  2  3  0 28 30.0000000  0  8G30G09G21G08G27G07G01G04
  -2245697.42047  -1720238.18345  24109810.007    24109809.9594   24109817.4814
       156.0004        158.0004
 -18624419.23249 -14483250.38048  20883401.391    20883401.6794   20883408.6504
       213.0004        213.0004
 -13251103.08148 -10138231.24146  21861976.183    21861975.7824   21861981.0864
       178.0004        179.0004
 -19068121.36049 -14543258.73047  21121297.760    21121297.9954   21121305.7294
       197.0004        197.0004
  -6334305.23648  -4672620.94746  23958000.295    23957999.6874   23958005.4364
       177.0004        178.0004
 -14415061.88448 -11219758.78647  22177030.610    22177030.9264   22177035.5934
       189.0004        189.0004
 -12220226.02448  -9511848.12846  22415627.650    22415628.0304   22415636.1334
       170.0004        172.0004
 -14692506.55348 -11158790.84247  21730281.204    21730281.5804   21730287.2704
       190.0004        190.0004
 21  2  3  0 29  0.0000000  0  8G30G09G21G08G27G07G01G04
  -2330932.18147  -1786654.85445  24093591.891    24093591.5354   24093597.4624
       156.0004        158.0004
 -18598990.09249 -14463435.47147  20888240.286    20888240.3924   20888247.7284
       212.0004        212.0004
 -13272100.29048 -10154592.68046  21857980.727    21857980.5054   21857985.2134
       177.0004        177.0004
 -18997220.33749 -14488011.18247  21134789.268    21134790.0654   21134797.8164
       197.0004        198.0004
  -6226828.04548  -4588872.51146  23978450.197    23978450.3644   23978457.7164
       175.0004        174.0004
 -14489719.53248 -11277933.57646  22162823.455    22162823.3504   22162828.4114
       188.0004        187.0004
 -12295843.08248  -9570770.48946  22401237.968    22401238.5764   22401247.2714
       171.0004        171.0004
 -14608830.79848 -11093588.96347  21746203.806    21746204.1844   21746210.1544
       189.0004        188.0004
 21  2  3  0 29 30.0000000  0  8G30G09G21G08G27G07G01G04
  -2416258.18547  -1853142.63645  24077354.459    24077355.0004   24077360.9644
       156.0004        158.0004
 -18573039.63249 -14443214.33247  20893178.427    20893178.8134   20893185.9084
       212.0004        212.0004
 -13292701.35448 -10170645.44346  21854060.543    21854059.7144   21854064.8074
       177.0004        177.0004
 -18925950.86149 -14432476.51247  21148351.352    21148351.8534   21148360.1264
       197.0004        197.0004
  -6119273.79948  -4505064.04546  23998917.868    23998917.9344   23998925.1664
       174.0004        175.0004
 -14564316.75648 -11336061.26347  22148628.486    22148628.4744   22148632.5144
       188.0004        189.0004
 -12371343.37248  -9629601.85246  22386871.274    22386870.9824   22386878.3734
       170.0004        171.0004
 -14524862.65848 -11028159.24846  21762182.691    21762182.6144   21762188.6534
       189.0004        187.0004
 21  2  3  0 30  0.0000000  0  8G30G09G21G08G27G07G01G04
  -2501675.23347  -1919701.32445  24061100.680    24061099.6074   24061106.8754
       157.0004        160.0004
 -18546570.73949 -14422589.22547  20898215.133    20898215.7624   20898222.4524
       212.0004        212.0004
 -13312905.55648 -10186388.95746  21850216.131    21850215.4224   21850220.6844
       178.0004        178.0004
 -18854317.25249 -14376658.12047  21161982.845    21161983.1384   21161991.2184
       196.0004        196.0004
  -6011646.51348  -4421198.63046  24019398.922    24019398.4694   24019405.3144
       171.0004        171.0004
 -14638852.25748 -11394140.87247  22134444.443    22134444.9494   22134449.4564
       190.0004        190.0004
 -12446724.99848  -9688340.77346  22372525.763    22372526.3274   22372534.5334
       171.0004        174.0004
 -14440606.37548 -10962505.00947  21778215.225    21778216.0844   21778222.3434
       189.0004        188.0004
 21  2  3  0 30 30.0000000  0  8G30G09G21G08G27G07G01G04
  -2587180.57747  -1986328.83145  24044827.995    24044828.4954   24044835.5254
       158.0004        161.0004
 -18519583.61649 -14401560.30747  20903351.102    20903351.0504   20903358.0864
       212.0004        212.0004
 -13332709.65848 -10201820.71846  21846447.241    21846446.2534   21846452.6874
       178.0004        178.0004
 -18782321.22049 -14320557.32147  21175683.378    21175683.6794   21175691.5464
       196.0004        197.0004
  -5903947.59848  -4337277.43446  24039894.026    24039893.1634   24039900.6754
       172.0004        173.0004
 -14713322.35548 -11452169.52247  22120273.194    22120274.6994   22120278.4984
       191.0004        192.0004
 -12521983.43748  -9746983.69446  22358204.685    22358205.5274   22358213.8354
       172.0004        174.0004
 -14356063.54248 -10896627.48846  21794303.512    21794303.5804   21794309.8804
       188.0004        186.0004
 21  2  3  0 31  0.0000000  0  8G30G09G21G08G27G07G01G04
  -2672773.14747  -2053024.31545  24028540.689    24028540.8884   24028548.9014
       160.0004        162.0004
 -18492080.35949 -14380129.21247  20908584.250    20908584.8414   20908591.5914
       211.0004        212.0004
 -13352112.04748 -10216939.44446  21842755.320    21842754.9544   21842759.6964
       178.0004        177.0004
 -18709966.03449 -14264176.65547  21189452.422    21189452.8954   21189460.0844
       196.0004        197.0004
  -5796180.12648  -4253302.79746  24060400.215    24060400.0834   24060407.1624
       171.0004        171.0004
 -14787724.90048 -11510145.53147  22106115.323    22106115.8124   22106120.0214
       191.0004        191.0004
 -12597115.76248  -9805528.34446  22343908.299    22343908.1154   22343916.3844
       173.0004        174.0004
 -14271237.46848 -10830529.25546  21810444.981    21810445.7884   21810451.7284
       187.0004        186.0004
 21  2  3  0 31 30.0000000  0  8G30G09G21G08G27G07G01G04
  -2758451.68847  -2119786.79045  24012236.932    24012237.2344   24012244.0054
       159.0004        160.0004
 -18464062.76249 -14358297.32247  20913916.176    20913916.4684   20913923.3044
       211.0004        212.0004
 -13371110.86548 -10231743.69846  21839140.178    21839139.2564   21839143.9284
       179.0004        179.0004
 -18637254.38449 -14207518.21447  21203289.102    21203289.2664   21203296.8854
       197.0004        197.0004
  -5688347.07148  -4169277.07146  24080919.705    24080920.1354   24080927.2934
       173.0004        174.0004
 -14862058.53648 -11568067.82947  22091969.724    22091969.7484   22091973.8834
       190.0004        189.0004
 -12672118.99648  -9863972.41346  22329635.312    22329636.0324   22329643.6864
       174.0004        175.0004
 -14186131.33948 -10764212.79346  21826641.160    21826641.1894   21826647.0964
       188.0004        187.0004
 21  2  3  0 32  0.0000000  0  8G30G09G21G08G27G07G01G04
  -2844214.12947  -2186614.65345  23995916.483    23995917.0644   23995922.8484
       156.0004        156.0004
 -18435532.00449 -14336065.56747  20919345.051    20919345.5694   20919352.8724
       211.0004        212.0004
 -13389703.91548 -10246231.76946  21835601.516    21835600.9904   21835606.6454
       179.0004        179.0004
 -18564188.91849 -14150584.06947  21217192.368    21217192.4144   21217200.8594
       196.0004        195.0004
  -5580450.57048  -4085201.85346  24101452.293    24101452.8364   24101459.9334
       174.0004        175.0004
 -14936319.89848 -11625933.83147  22077839.193    22077838.9294   22077842.4834
       190.0004        191.0004
 -12746989.35348  -9922312.91646  22315388.327    22315388.3214   22315396.0384
       174.0004        175.0004
 -14100747.54848 -10697679.97146  21842888.340    21842889.0334   21842895.0184
       187.0004        186.0004
 21  2  3  0 32 30.0000000  0  8G30G09G21G08G27G07G01G04
  -2930060.17747  -2253507.68645  23979581.262    23979580.8914   23979587.5684
       155.0004        156.0004
 -18406490.86049 -14313436.11447  20924871.557    20924871.8704   20924878.9674
       211.0004        212.0004
 -13407890.27248 -10260402.94946  21832140.700    21832140.2394   21832146.4764
       179.0004        180.0004
 -18490774.09849 -14093377.72547  21231162.424    21231162.9314   21231171.7244
       195.0004        195.0004
  -5472494.39848  -4001080.20046  24121996.169    24121996.6494   24122002.9694
       173.0004        174.0004
 -15010507.65648 -11683742.48647  22063721.380    22063721.8084   22063725.7834
       191.0004        192.0004
 -12821724.63548  -9980548.20446  22301165.408    22301166.0974   22301174.6364
       174.0004        175.0004
 -14015090.17848 -10630933.98946  21859188.013    21859188.6514   21859195.0324
       186.0004        184.0004
 21  2  3  0 33  0.0000000  0  8G30G09G21G08G27G07G01G04
  -3015987.64547  -2320464.14045  23963229.165    23963229.1474   23963237.4314
       156.0004        159.0004
 -18376940.42749 -14290409.79547  20930494.701    20930495.0054   20930502.0854
       211.0004        211.0004
 -13425667.27348 -10274255.12646  21828757.645    21828757.5654   21828762.4684
       179.0004        179.0004
 -18417011.32949 -14035900.23847  21245200.253    21245200.4214   21245207.7294
       195.0004        196.0004
  -5364480.68548  -3916913.65346  24142550.645    24142551.0344   24142557.7134
       173.0004        174.0004
 -15084618.69248 -11741491.33547  22049617.804    22049618.5714   22049622.4314
       192.0004        191.0004
 -12896321.06448 -10038675.27546  22286970.386    22286970.9454   22286979.6614
       174.0004        174.0004
 -13929161.54648 -10563976.60046  21875540.371    21875540.3824   21875546.5414
       185.0004        185.0004
 21  2  3  0 33 30.0000000  0  8G30G09G21G08G27G07G01G04
  -3101995.13147  -2387482.94045  23946861.468    23946862.6214   23946870.3954
       156.0004        158.0004
 -18346882.51449 -14266988.06647  20936215.174    20936215.2814   20936221.6574
       211.0004        212.0004
 -13443033.45748 -10287787.22046  21825453.425    21825453.2954   21825458.0754
       179.0004        179.0004
 -18342904.46849 -13978154.62647  21259301.766    21259302.1544   21259309.6874
       195.0004        195.0004
  -5256412.13548  -3832704.44946  24163116.269    24163116.0214   24163122.6664
       174.0004        176.0004
 -15158650.81148 -11799178.71047  22035529.898    22035530.7114   22035534.7064
       191.0004        191.0004
 -12970775.40248 -10096691.63146  22272802.566    22272803.0464   22272812.3734
