     2.11           OBSERVATION DATA    G (GPS)             RINEX VERSION / TYPE
teqc  2018Jun8                          20210202 03:10:39UTCPGM / RUN BY / DATE
Linux2.6.32-573.12.1.el6.x86_64|x86_64|gcc|Win64-MinGW64|=+ COMMENT
BIT 2 OF LLI FLAGS DATA COLLECTED UNDER A/S CONDITION       COMMENT
-Unknown-                                                   MARKER NAME
CRNO                                                        MARKER NUMBER
-Unknown-           -Unknown-                               OBSERVER / AGENCY
-Unknown-           ASHTECH             -Unknown-           REC # / TYPE / VERS
-Unknown-           -Unknown-                               ANT # / TYPE
   408077.8019 -6158368.6978  1605161.6147                  APPROX POSITION XYZ
        0.0000        0.0000        0.0000                  ANTENNA: DELTA H/E/N
     1     1                                                WAVELENGTH FACT L1/2
     7    L1    L2    C1    P1    P2    S1    S2            # / TYPES OF OBSERV
    30.0000                                                 INTERVAL
Forced Modulo Decimation to 30 seconds                      COMMENT
 SNR is mapped to RINEX snr flag value [1-9]                COMMENT
  L1: 1 -> 1;  90 -> 5; 210 -> 9                            COMMENT
  L2: 1 -> 1; 150 -> 5; 250 -> 9                            COMMENT
pseudorange smoothing corrections not applied               COMMENT
  2021     2     6     0     0   30.0000000     GPS         TIME OF FIRST OBS
                                                            END OF HEADER
 21  2  6  0  0 30.0000000  0  8G07G08G27G21G04G09G01G03
  -7179007.07248  -5580525.08046  23441810.333    23441811.8484   23441816.5674
       168.0004        169.0004
 -23920779.72449 -18613705.55347  20268310.744    20268310.7824   20268318.4704
       211.0004        211.0004
 -15838301.14249 -12290684.48747  22267139.096    22267139.5574   22267147.2254
       211.0004        211.0004
  -8674706.73247  -6743217.52046  22464805.881    22464807.1164   22464812.1004
       164.0004        166.0004
 -20530844.73049 -15985079.36147  20596552.901    20596553.1514   20596559.3714
       206.0004        205.0004
 -19000742.31749 -14757458.88347  20878209.581    20878209.7574   20878216.5794
       211.0004        212.0004
  -5418195.95847  -4207614.58745  23706282.094    23706283.9434   23706293.3684
       147.0004        151.0004
    774201.61148    616596.36446  24522502.105    24522503.4744   24522512.8674
       169.0004        169.0004
 21  2  6  0  1  0.0000000  0  8G07G08G27G21G04G09G01G03
  -7251044.95248  -5636658.47146  23428102.785    23428103.3404   23428108.2324
       168.0004        171.0004
 -23892225.16249 -18591455.24047  20273744.325    20273744.7234   20273751.9694
       211.0004        211.0004
 -15749195.06749 -12221251.19347  22284095.369    22284096.0934   22284103.3874
       211.0004        211.0004
  -8721260.53047  -6779493.19546  22455946.456    22455946.8744   22455953.6214
       163.0004        165.0004
 -20483953.69349 -15948540.90647  20605476.237    20605476.6754   20605482.0154
       206.0004        204.0004
 -19025132.51249 -14776464.23947  20873567.999    20873568.3244   20873575.0044
       212.0004        212.0004
  -5492120.55947  -4265218.12345  23692215.931    23692215.6604   23692226.2044
       148.0004        151.0004
    825467.11048    656543.46846  24532259.077    24532259.7114   24532268.8794
       169.0004        170.0004
 21  2  6  0  1 30.0000000  0  8G07G08G27G21G04G09G01G03
  -7323187.64848  -5692873.56446  23414376.108    23414376.1854   23414380.5784
       172.0004        175.0004
 -23863101.11249 -18568761.17247  20279286.650    20279287.0904   20279294.3344
       211.0004        212.0004
 -15659751.96949 -12151555.27147  22301117.538    22301117.0594   22301123.8564
       211.0004        211.0004
  -8767639.39447  -6815632.55646  22447121.747    22447121.6554   22447128.0514
       163.0004        164.0004
 -20436552.96849 -15911605.27947  20614495.804    20614496.5444   20614502.2984
       205.0004        204.0004
 -19048965.10649 -14795035.10547  20869032.348    20869033.1334   20869039.7804
       211.0004        212.0004
  -5566185.57247  -4322931.07445  23678122.645    23678122.1784   23678131.9244
       148.0004        152.0004
    876496.35648    696306.46846  24541969.958    24541970.0374   24541978.4574
       168.0004        169.0004
 21  2  6  0  2  0.0000000  0  8G07G08G27G21G04G09G01G03
  -7395434.32748  -5749169.66446  23400627.261    23400627.0024   23400632.4234
       173.0004        174.0004
 -23833409.24349 -18545624.64347  20284936.858    20284937.3284   20284944.2754
       211.0004        211.0004
 -15569975.19849 -12081599.35747  22318201.358    22318201.0704   22318208.0694
       211.0004        211.0004
  -8813841.26547  -6851634.01446  22438331.226    22438330.7104   22438334.5224
       164.0004        166.0004
 -20388644.61749 -15874274.10947  20623612.497    20623612.9034   20623618.5234
       205.0004        203.0004
 -19072239.75649 -14813171.20247  20864604.085    20864604.3294   20864610.7374
       211.0004        212.0004
  -5640388.87047  -4380751.77545  23664001.547    23664003.3824   23664010.0704
       149.0004        152.0004
    927287.41948    735883.87746  24551635.454    24551635.5434   24551645.0394
       169.0004        171.0004
 21  2  6  0  2 30.0000000  0  8G07G08G27G21G04G09G01G03
  -7467781.16248  -5805543.79146  23386858.465    23386860.1104   23386864.1564
       172.0004        173.0004
 -23803149.48449 -18522045.56847  20290695.171    20290695.3304   20290702.8614
       211.0004        211.0004
 -15479865.97349 -12011384.34647  22335346.182    22335348.0324   22335354.9354
       211.0004        211.0004
  -8859861.20348  -6887493.65846  22429572.873    22429572.5114   22429578.1874
       165.0004        166.0004
 -20340228.67249 -15836547.38447  20632826.187    20632826.5944   20632832.0584
       205.0004        203.0004
 -19094954.01649 -14830870.59647  20860281.840    20860281.9564   20860288.3274
       212.0004        212.0004
  -5714726.28447  -4438676.97545  23649856.271    23649857.2644   23649864.6524
       149.0004        153.0004
    977840.42148    775275.82346  24561255.007    24561255.3704   24561264.7914
       170.0004        171.0004
 21  2  6  0  3  0.0000000  0  8G07G08G27G21G04G09G01G03
  -7540226.59548  -5861994.82646  23373076.012    23373075.0864   23373078.4324
       173.0004        175.0004
 -23772322.15549 -18498024.28547  20296561.044    20296561.3704   20296569.2424
       211.0004        211.0004
 -15389426.30749 -11940911.90947  22352557.252    22352557.7274   22352564.5304
       211.0004        210.0004
  -8905695.39548  -6923208.58746  22420850.685    22420850.4924   22420856.4554
       165.0004        167.0004
 -20291305.96749 -15798425.82047  20642135.496    20642135.9504   20642141.7604
       205.0004        203.0004
 -19117106.21849 -14848132.07747  20856065.796    20856066.4934   20856073.0654
       212.0004        212.0004
  -5789194.35747  -4496703.99945  23635686.359    23635685.3524   23635694.0394
       150.0004        153.0004
   1028154.73148    814481.70946  24570827.530    24570828.3384   24570838.0384
       166.0004        165.0004
 21  2  6  0  3 30.0000000  0  8G07G08G27G21G04G09G01G03
  -7612770.51948  -5918522.52646  23359269.171    23359268.8394   23359273.4504
       171.0004        170.0004
 -23740929.93449 -18473562.78247  20302534.577    20302535.1574   20302543.1524
       211.0004        212.0004
 -15298660.52149 -11870185.30247  22369829.044    22369830.0284   22369836.2954
       209.0004        208.0004
  -8951342.43648  -6958777.69046  22412165.522    22412165.1884   22412168.8144
       165.0004        166.0004
 -20241879.55649 -15759911.72047  20651541.097    20651541.5094   20651547.8064
       205.0004        203.0004
 -19138696.97849 -14864956.02747  20851957.005    20851957.4804   20851964.5494
       212.0004        212.0004
  -5863791.96647  -4554831.92345  23621489.733    23621490.3014   23621498.2614
       150.0004        153.0004
   1078227.55048    853499.47746  24580356.948    24580357.8634   24580365.5884
       165.0004        166.0004
 21  2  6  0  4  0.0000000  0  8G07G08G27G21G04G09G01G03
  -7685411.01048  -5975125.51446  23345446.737    23345447.4184   23345450.4964
       170.0004        172.0004
 -23708974.49749 -18448662.44447  20308616.474    20308616.4684   20308623.9754
       211.0004        212.0004
 -15207571.10849 -11799206.54747  22387163.310    22387164.3604   22387170.3134
       209.0004        209.0004
  -8996799.28448  -6994198.60446  22403514.309    22403514.9884   22403519.7224
       165.0004        166.0004
 -20191950.86649 -15721006.26347  20661042.229    20661042.6504   20661048.6634
       204.0004        203.0004
 -19159725.21149 -14881341.67947  20847956.140    20847956.2264   20847962.8384
       212.0004        212.0004
  -5938516.05647  -4613058.43445  23607270.766    23607270.7194   23607278.5654
       151.0004        154.0004
   1128057.75648    892328.15346  24589839.726    24589840.4984   24589847.7204
       167.0004        169.0004
 21  2  6  0  4 30.0000000  0  8G07G08G27G21G04G09G01G03
  -7758146.63648  -6031802.63146  23331605.256    23331605.4334   23331610.4994
       171.0004        173.0004
 -23676456.97849 -18423324.10547  20314803.848    20314804.3894   20314811.5294
       211.0004        211.0004
 -15116160.97249 -11727977.86347  22404558.115    22404558.5744   22404565.2704
       209.0004        208.0004
  -9042063.07848  -7029469.06446  22394901.506    22394900.6444   22394906.4414
       165.0004        166.0004
 -20141521.65349 -15681710.77947  20670638.593    20670639.1374   20670645.0264
       204.0004        203.0004
 -19180190.25849 -14897288.46447  20844061.455    20844061.5734   20844068.4124
       211.0004        212.0004
  -6013364.05347  -4671381.48945  23593028.607    23593028.7754   23593035.6664
       153.0004        156.0004
   1177643.79748    930966.58146  24599277.116    24599277.0194   24599284.9664
       169.0004        171.0004
 21  2  6  0  5  0.0000000  0  8G07G08G27G21G04G09G01G03
  -7830976.30548  -6088553.00946  23317745.575    23317746.6794   23317751.7314
       172.0004        174.0004
 -23643379.74349 -18397549.62647  20321098.387    20321098.8344   20321105.7604
       211.0004        211.0004
 -15024433.67149 -11656502.05247  22422012.343    22422013.7034   22422019.8914
       208.0004        207.0004
  -9087131.67248  -7064587.44146  22386325.874    22386325.2334   22386329.7334
       165.0004        166.0004
 -20090594.31049 -15642027.13547  20680330.053    20680330.1974   20680335.7504
       204.0004        202.0004
 -19200092.02749 -14912796.33447  20840274.087    20840274.6844   20840281.5974
       212.0004        212.0004
  -6088334.01347  -4729799.60045  23578760.796    23578761.5374   23578768.9664
       154.0004        157.0004
   1226983.66348    969413.20646  24608664.394    24608665.6174   24608674.6484
       170.0004        171.0004
 21  2  6  0  5 30.0000000  0  8G07G08G27G21G04G09G01G03
  -7903897.76148  -6145374.87346  23303868.613    23303869.6124   23303874.9574
       172.0004        172.0004
 -23609743.31849 -18371339.40247  20327498.819    20327499.8454   20327506.3424
       211.0004        211.0004
 -14932391.17449 -11584780.61847  22439529.357    22439529.1784   22439535.2694
       208.0004        208.0004
  -9132001.26248  -7099550.73746  22377786.731    22377786.0024   22377791.7934
       165.0004        166.0004
 -20039169.67349 -15601955.99247  20690115.215    20690115.7484   20690121.7374
       203.0004        202.0004
 -19219428.93049 -14927864.04047  20836595.172    20836595.2154   20836601.4654
       212.0004        212.0004
  -6163422.42247  -4788309.95045  23564472.012    23564472.7924   23564480.5934
       154.0004        156.0004
   1276076.92848   1007667.68246  24618007.927    24618008.0294   24618016.5884
       172.0004        173.0004
 21  2  6  0  6  0.0000000  0  8G07G08G27G21G04G09G01G03
  -7976910.25748  -6202267.71446  23289975.828    23289976.3124   23289978.9204
       170.0004        171.0004
 -23575549.78749 -18344695.08447  20334006.068    20334006.3374   20334013.2014
       211.0004        212.0004
 -14840037.02349 -11512816.34147  22457103.553    22457103.6714   22457109.6974
       208.0004        208.0004
  -9176669.27948  -7134356.96546  22369286.906    22369285.8904   22369291.0664
       165.0004        166.0004
 -19987250.24449 -15561499.29947  20699995.202    20699995.4034   20700001.4264
       203.0004        201.0004
 -19238201.00149 -14942491.63547  20833022.449    20833022.7624   20833029.4784
       212.0004        212.0004
  -6238627.18147  -4846911.00845  23550160.110    23550160.0784   23550169.1164
       153.0004        154.0004
   1324921.45648   1045728.31346  24627302.035    24627302.6484   24627312.2914
       172.0004        173.0004
 21  2  6  0  6 30.0000000  0  8G07G08G27G21G04G09G01G03
  -8050011.70448  -6259229.87846  23276065.307    23276065.6324   23276068.8664
       170.0004        173.0004
 -23540800.55949 -18317617.76147  20340618.489    20340618.7414   20340626.4044
       211.0004        211.0004
 -14747373.66349 -11440611.12747  22474736.729    22474737.2084   22474743.1424
       208.0004        207.0004
  -9221133.04148  -7169004.02746  22360825.622    22360825.5014   22360829.9224
       165.0004        168.0004
 -19934837.37149 -15520658.10047  20709969.330    20709969.6164   20709975.5994
       203.0004        202.0004
 -19256407.18549 -14956678.27747  20829557.397    20829558.0844   20829565.0874
       212.0004        212.0004
  -6313945.30247  -4905600.38645  23535827.629    23535828.2064   23535835.8814
       151.0004        154.0004
   1373516.28348   1083594.36946  24636549.419    24636549.7534   24636558.6424
       170.0004        170.0004
 21  2  6  0  7  0.0000000  0  8G07G08G27G21G04G09G01G03
  -8123201.85548  -6316261.12946  23262137.814    23262138.5334   23262142.0674
       172.0004        173.0004
 -23505498.21649 -18290109.43747  20347336.197    20347336.3084   20347343.9394
       211.0004        211.0004
 -14654405.20649 -11368168.17147  22492428.203    22492427.8484   22492435.2594
       207.0004        207.0004
  -9265390.70147  -7203490.49646  22352401.921    22352401.4874   22352408.2804
       164.0004        165.0004
 -19881934.07749 -15479434.76547  20720036.591    20720036.7314   20720043.1184
       203.0004        201.0004
 -19274048.05349 -14970424.41048  20826201.089    20826201.2454   20826208.3914
       212.0004        213.0004
  -6389375.21047  -4964376.87345  23521473.557    23521473.4464   23521482.9724
       153.0004        155.0004
   1421858.91548   1121263.89846  24645748.220    24645748.9064   24645757.3234
       167.0004        168.0004
 21  2  6  0  7 30.0000000  0  8G07G08G27G21G04G09G01G03
  -8196478.43548  -6373359.75646  23248193.146    23248194.5044   23248197.9934
       171.0004        170.0004
 -23469644.12749 -18262171.17847  20354159.195    20354159.2794   20354166.8274
       211.0004        211.0004
 -14561134.22849 -11295489.48747  22510177.261    22510177.0304   22510183.9174
       208.0004        207.0004
  -9309439.14948  -7237813.96046  22344021.208    22344020.8084   22344026.5874
       165.0004        166.0004
 -19828541.86749 -15437830.45047  20730195.902    20730196.7294   20730203.3214
       203.0004        201.0004
 -19291122.67449 -14983729.31148  20822951.552    20822952.2014   20822958.8734
       213.0004        213.0004
  -6464913.89747  -5023238.11845  23507100.078    23507099.9994   23507108.8224
       154.0004        157.0004
   1469948.35248   1158736.15346  24654899.253    24654900.3294   24654909.3304
       168.0004        170.0004
 21  2  6  0  8  0.0000000  0  8G07G08G27G21G04G09G01G03
  -8269840.48348  -6430524.98146  23234232.623    23234233.4834   23234237.6954
       169.0004        170.0004
 -23433239.90349 -18233804.24547  20361086.368    20361086.6864   20361094.1004
       210.0004        211.0004
 -14467563.61349 -11222577.32547  22527981.824    22527982.7484   22527990.0454
       207.0004        206.0004
  -9353275.06847  -7271971.81546  22335679.182    22335678.9814   22335683.3504
       164.0004        164.0004
 -19774662.72949 -15395846.71747  20740449.667    20740450.2414   20740455.6944
       203.0004        202.0004
 -19307630.66649 -14996592.68148  20819810.303    20819810.4794   20819817.7604
       213.0004        213.0004
  -6540558.82347  -5082182.16845  23492704.251    23492705.2214   23492713.7634
       155.0004        156.0004
   1517783.08948   1196009.93946  24664002.934    24664003.6734   24664012.6334
       170.0004        171.0004
 21  2  6  0  8 30.0000000  0  8G07G08G27G21G04G09G01G03
  -8343286.22048  -6487755.41346  23220257.699    23220257.9944   23220260.7674
       170.0004        172.0004
 -23396287.29349 -18205010.00347  20368118.549    20368118.6474   20368125.6544
       210.0004        211.0004
 -14373696.56349 -11149434.18447  22545845.018    22545845.1994   22545851.7334
       206.0004        205.0004
  -9396896.54247  -7305962.53846  22327377.194    22327377.6524   22327382.9054
       164.0004        166.0004
 -19720298.75249 -15353485.18047  20750794.722    20750795.2024   20750801.3894
       203.0004        202.0004
 -19323571.71249 -15009014.27547  20816776.752    20816777.2284   20816783.7984
       212.0004        212.0004
  -6616307.42547  -5141207.00345  23478289.656    23478290.6254   23478299.2044
       153.0004        155.0004
   1565361.57848   1233084.03246  24673056.892    24673057.4944   24673066.0664
       170.0004        171.0004
 21  2  6  0  9  0.0000000  0  8G07G08G27G21G04G09G01G03
  -8416813.42448  -6545049.32046  23206263.900    23206264.5194   23206268.5314
       170.0004        170.0004
 -23358788.04449 -18175789.81347  20375253.553    20375254.3484   20375261.7044
       210.0004        211.0004
 -14279535.46849 -11076061.91647  22563761.906    22563762.8764   22563770.0034
       204.0004        204.0004
  -9440299.96248  -7339783.38446  22319119.491    22319119.5614   22319123.0324
       166.0004        168.0004
 -19665451.42149 -15310747.01047  20761231.413    20761232.0344   20761238.3924
       203.0004        202.0004
 -19338944.80849 -15020993.31748  20813851.775    20813852.1434   20813858.2244
       212.0004        213.0004
  -6692156.57747  -5200310.17845  23463854.395    23463855.4624   23463865.0064
       152.0004        155.0004
   1612682.98648   1269957.80346  24682060.857    24682061.6484   24682071.1544
       168.0004        169.0004
 21  2  6  0  9 30.0000000  0  8G07G08G27G21G04G09G01G03
  -8490421.75348  -6602406.42946  23192256.447    23192258.3254   23192263.2184
       170.0004        172.0004
 -23320744.52449 -18146145.50147  20382493.268    20382493.8234   20382501.3184
       210.0004        211.0004
 -14185084.07749 -11002463.42747  22581735.479    22581736.1714   22581743.8534
       204.0004        204.0004
  -9483483.16848  -7373432.63146  22310902.720    22310902.1134   22310906.5524
       167.0004        167.0004
 -19610123.43749 -15267634.29447  20771760.194    20771760.4434   20771766.8414
       203.0004        201.0004
 -19353750.32649 -15032530.07948  20811034.473    20811034.9454   20811041.1384
       213.0004        214.0004
  -6768104.26547  -5259490.13545  23449403.755    23449404.6424   23449413.9144
       154.0004        158.0004
   1659745.19248   1306629.63846  24691016.313    24691016.5804   24691026.0464
       167.0004        168.0004
 21  2  6  0 10  0.0000000  0  8G07G08G27G21G04G09G01G03
  -8564109.06248  -6659825.10146  23178235.565    23178235.6164   23178239.9654
       172.0004        172.0004
 -23282157.82849 -18116077.94747  20389835.791    20389836.5384   20389843.9604
       210.0004        210.0004
 -14090344.68149 -10928640.52147  22599762.915    22599763.7124   22599772.1414
       203.0004        203.0004
  -9526443.09348  -7406907.87446  22302725.570    22302725.9874   22302731.4984
       165.0004        165.0004
 -19554316.13549 -15224148.09847  20782380.034    20782380.2724   20782386.7564
       202.0004        201.0004
 -19367987.22849 -15043623.77648  20808325.149    20808325.6504   20808332.0744
       213.0004        214.0004
  -6844147.15147  -5318744.28945  23434933.172    23434932.9944   23434942.7014
       154.0004        156.0004
   1706547.50748   1343098.93646  24699922.650    24699924.0744   24699933.8954
       170.0004        172.0004
 21  2  6  0 10 30.0000000  0  8G07G08G27G21G04G09G01G03
  -8637874.50048  -6717304.64646  23164197.870    23164198.7984   23164202.5544
       170.0004        172.0004
 -23243030.66349 -18085589.24547  20397282.021    20397282.7034   20397289.7364
       210.0004        211.0004
 -13995321.59149 -10854596.57047  22617845.477    22617846.4024   22617854.0404
       203.0004        203.0004
  -9569177.49247  -7440207.38846  22294593.738    22294594.3104   22294599.1724
       164.0004        165.0004
 -19498032.89049 -15180291.03547  20793090.087    20793090.9154   20793096.7834
       202.0004        201.0004
 -19381656.51249 -15054275.16648  20805723.678    20805724.1884   20805730.9064
       213.0004        213.0004
  -6920283.96747  -5378071.61945  23420442.819    23420445.1614   23420453.3744
       153.0004        155.0004
   1753087.31348   1379363.67146  24708779.757    24708780.1924   24708790.3324
       170.0004        171.0004
 21  2  6  0 11  0.0000000  0  8G07G08G27G21G04G09G01G03
  -8711716.04248  -6774843.50446  23150147.597    23150147.5814   23150151.6604
       171.0004        173.0004
 -23203364.77549 -18054680.74947  20404830.325    20404830.4304   20404837.7544
       210.0004        210.0004
 -13900016.84849 -10780333.13747  22635983.264    22635983.1004   22635990.0464
       202.0004        203.0004
  -9611683.54048  -7473328.97546  22286507.106    22286506.8334   22286511.3224
       165.0004        165.0004
 -19441274.84649 -15136064.00047  20803891.805    20803892.1174   20803897.3384
       202.0004        201.0004
 -19394756.92649 -15064483.27748  20803230.944    20803231.4444   20803237.9724
       213.0004        214.0004
  -6996511.07847  -5437469.32045  23405939.404    23405939.3194   23405948.0404
       153.0004        157.0004
   1799364.06348   1415423.44046  24717585.147    24717585.2324   24717595.5744
       167.0004        167.0004
 21  2  6  0 11 30.0000000  0  8G07G08G27G21G04G09G01G03
  -8785633.12648  -6832441.19146  23136080.426    23136081.4944   23136086.1284
       171.0004        172.0004
 -23163162.46549 -18023354.26347  20412479.986    20412480.4414   20412488.1244
       210.0004        210.0004
 -13804434.67949 -10705853.52947  22654171.347    22654171.1104   22654178.9994
       203.0004        202.0004
  -9653959.58347  -7506271.31445  22278457.861    22278458.3924   22278465.1854
       163.0004        162.0004
 -19384045.30649 -15091469.55047  20814781.247    20814781.9814   20814788.4324
       202.0004        201.0004
 -19407289.40049 -15074248.84548  20800846.130    20800846.7904   20800853.2654
       213.0004        214.0004
  -7072826.87447  -5496936.15545  23391416.989    23391417.7214   23391425.5324
       154.0004        156.0004
   1845375.31748   1451276.34846  24726341.812    24726342.2234   24726351.1454
       168.0004        170.0004
 21  2  6  0 12  0.0000000  0  8G07G08G27G21G04G09G01G03
  -8859624.15348  -6890096.52546  23122000.519    23122001.2224   23122004.9854
       171.0004        171.0004
 -23122425.82049 -17991611.42447  20420232.753    20420232.9734   20420240.3564
       210.0004        210.0004
 -13708577.88849 -10631159.95447  22672413.226    22672412.5044   22672419.9084
       202.0004        202.0004
  -9696002.53947  -7539032.01646  22270457.542    22270459.0454   22270464.6904
       161.0004        164.0004
 -19326346.23949 -15046509.25347  20825761.160    20825761.9244   20825768.3614
       202.0004        201.0004
 -19419253.57849 -15083571.59048  20798568.803    20798569.3604   20798576.6514
       213.0004        213.0004
  -7149228.66047  -5556469.97045  23376878.223    23376878.8364   23376887.7674
       152.0004        154.0004
   1891119.81948   1486921.34646  24735048.272    24735048.3954   24735056.0344
       171.0004        173.0004
 21  2  6  0 12 30.0000000  0  8G07G08G27G21G04G09G01G03
  -8933686.70648  -6947807.59246  23107907.153    23107907.7364   23107911.4274
       171.0004        174.0004
 -23081156.26649 -17959453.32147  20428085.362    20428085.9024   20428093.4834
       210.0004        210.0004
 -13612448.82649 -10556254.20147  22690704.399    22690704.8864   22690712.4754
       201.0004        201.0004
  -9737809.17648  -7571608.61346  22262507.813    22262506.0244   22262508.6274
       166.0004        171.0004
 -19268179.08149 -15001184.19447  20836830.316    20836830.6044   20836836.8094
       202.0004        201.0004
 -19430648.54749 -15092450.78948  20796400.839    20796401.0784   20796408.0084
       213.0004        213.0004
  -7225712.96047  -5616068.10245  23362324.187    23362324.1664   23362332.9854
       152.0004        155.0004
   1936596.90648   1522357.96246  24743701.093    24743701.6844   24743709.6814
       170.0004        170.0004
 21  2  6  0 13  0.0000000  0  8G07G08G27G21G04G09G01G03
  -9007819.89748  -7005573.70546  23093799.177    23093800.0174   23093804.3354
       173.0004        174.0004
 -23039356.14249 -17926881.79547  20436040.014    20436040.4164   20436047.5714
       210.0004        210.0004
 -13516050.96449 -10481138.97547  22709048.155    22709049.3594   22709056.1504
       202.0004        201.0004
  -9779377.05148  -7603999.19046  22254596.954    22254596.0294   22254598.7474
       169.0004        171.0004
 -19209546.43349 -14955496.42347  20847987.660    20847987.9294   20847994.4494
       202.0004        200.0004
 -19441474.55749 -15100886.65148  20794340.543    20794341.0944   20794347.7874
       213.0004        213.0004
  -7302277.56247  -5675728.75545  23347753.359    23347754.7204   23347762.8154
       152.0004        156.0004
   1981804.91448   1557584.93446  24752301.902    24752302.5814   24752312.2814
       165.0004        165.0004
 21  2  6  0 13 30.0000000  0  8G07G08G27G21G04G09G01G03
  -9082020.10148  -7063392.02846  23079678.861    23079680.2294   23079684.0004
       173.0004        173.0004
 -22997025.30949 -17893896.72547  20444094.827    20444095.4544   20444102.7644
       209.0004        209.0004
 -13419385.65249 -10405815.34847  22727444.491    22727444.8214   22727451.6594
       202.0004        203.0004
  -9820702.21748  -7636200.61446  22246730.652    22246730.4234   22246734.5124
       168.0004        167.0004
 -19150448.81049 -14909446.34147  20859233.792    20859234.1804   20859240.1324
       202.0004        201.0004
 -19451729.85449 -15108877.79348  20792389.766    20792389.8524   20792396.3624
       213.0004        214.0004
  -7378918.06147  -5735448.58345  23333169.107    23333170.2474   23333177.7894
       152.0004        155.0004
   2026744.07348   1592602.40246  24760855.261    24760855.1384   24760864.7984
       166.0004        168.0004
 21  2  6  0 14  0.0000000  0  8G07G08G27G21G04G09G01G03
  -9156287.13748  -7121262.42646  23065547.056    23065547.3024   23065552.1954
       174.0004        175.0004
 -22954167.43249 -17860500.97647  20452251.059    20452251.3504   20452258.5234
       209.0004        210.0004
 -13322457.11149 -10330286.61547  22745889.225    22745889.4784   22745895.8454
       202.0004        201.0004
  -9861783.00947  -7668211.56146  22238910.519    22238910.4344   22238917.5724
       164.0004        163.0004
 -19090889.67649 -14863036.63047  20870567.067    20870567.6194   20870573.1904
       201.0004        199.0004
 -19461415.53549 -15116425.06948  20790545.772    20790546.2284   20790553.5504
       213.0004        214.0004
  -7455632.99447  -5795226.41345  23318571.810    23318571.8134   23318579.6274
       151.0004        154.0004
   2071411.93048   1627408.47546  24769354.704    24769355.3254   24769365.0814
       168.0004        170.0004
 21  2  6  0 14 30.0000000  0  8G07G08G27G21G04G09G01G03
  -9230619.52548  -7179183.74846  23051403.230    23051404.2714   23051407.1944
       176.0004        178.0004
 -22910784.80449 -17826696.30947  20460506.075    20460506.4824   20460514.2444
       209.0004        210.0004
 -13225268.52049 -10254555.24447  22764383.511    22764383.2454   22764390.1884
       201.0004        200.0004
  -9902616.49947  -7700029.85246  22231141.739    22231142.0694   22231146.9094
       163.0004        165.0004
 -19030871.38249 -14816269.12947  20881987.891    20881988.5474   20881994.7304
       201.0004        200.0004
 -19470531.65349 -15123528.53948  20788811.355    20788811.5094   20788818.5064
       213.0004        213.0004
  -7532419.73547  -5855060.20745  23303960.120    23303959.7824   23303968.5944
       152.0004        155.0004
   2115806.91448   1662001.94146  24777802.512    24777803.4874   24777813.1834
       169.0004        170.0004
 21  2  6  0 15  0.0000000  0  8G07G08G27G21G04G09G01G03
  -9305016.35448  -7237155.29846  23037245.837    23037246.5054   23037250.0584
       178.0004        179.0004
 -22866879.95849 -17792484.73347  20468860.857    20468861.4234   20468868.7554
       209.0004        209.0004
 -13127823.58449 -10178624.13547  22782926.810    22782926.9074   22782932.8094
       200.0004        200.0004
  -9943200.76348  -7731653.93646  22223419.741    22223419.3414   22223425.3784
       165.0004        168.0004
 -18970396.79649 -14769146.08247  20893495.990    20893496.6024   20893502.3224
       201.0004        199.0004
 -19479078.82349 -15130188.68048  20787184.269    20787184.9454   20787192.1114
       213.0004        213.0004
  -7609276.21247  -5914948.33345  23289333.923    23289334.0294   23289343.2914
       153.0004        155.0004
   2159927.25148   1696381.35446  24786199.324    24786199.5634   24786208.4534
       168.0004        169.0004
 21  2  6  0 15 30.0000000  0  7G07G08G27G21G04G09G01
  -9379471.23848  -7295172.05746  23023077.063    23023077.4394   23023081.7614
       177.0004        178.0004
 -22822450.45849 -17757864.33447  20477315.768    20477316.1314   20477323.4704
       209.0004        209.0004
 -13030120.78549 -10102492.08747  22801519.034    22801519.0294   22801525.5404
       200.0004        201.0004
  -9983529.28748  -7763078.76346  22215746.946    22215746.2604   22215750.8774
       168.0004        171.0004
 -18909463.70349 -14721665.75047  20905091.086    20905091.8434   20905097.6824
       201.0004        200.0004
 -19487052.45349 -15136401.89248  20785667.160    20785667.9654   20785674.5294
       213.0004        214.0004
  -7686195.11747  -5974885.12145  23274696.602    23274697.3344   23274705.1024
       153.0004        156.0004
 21  2  6  0 16  0.0000000  0  7G07G08G27G21G04G09G01
  -9453983.47148  -7353233.53946  23008898.061    23008898.1604   23008902.4984
       177.0004        179.0004
 -22777499.03049 -17722837.25847  20485869.529    20485870.0794   20485877.2814
       209.0004        209.0004
 -12932164.05349 -10026162.18547  22820159.483    22820159.4584   22820165.8754
       201.0004        201.0004
 -10023599.98348  -7794302.69646  22208121.741    22208120.9824   22208124.5494
       170.0004        171.0004
 -18848075.25749 -14673830.62147  20916773.336    20916773.7904   20916779.7524
       201.0004        199.0004
 -19494453.48749 -15142168.94748  20784259.709    20784259.6104   20784266.1464
       213.0004        214.0004
  -7763174.70047  -6034869.18145  23260046.113    23260047.9154   23260055.3764
       153.0004        155.0004
 21  2  6  0 16 30.0000000  0  7G07G08G27G21G04G09G01
  -9528556.79148  -7411342.59446  22994706.817    22994707.7924   22994711.7604
       179.0004        181.0004
 -22732033.68649 -17687409.69947  20494522.067    20494521.9884   20494529.0234
       209.0004        210.0004
 -12833961.72649  -9949640.88147  22838846.316    22838847.0034   22838853.1934
       200.0004        200.0004
 -10063415.31548  -7825327.60846  22200544.082    22200543.4364   22200548.9804
       170.0004        170.0004
 -18786239.05149 -14625646.55447  20928539.972    20928540.6104   20928545.9504
       201.0004        199.0004
 -19501287.25149 -15147493.94948  20782958.457    20782958.9924   20782965.6124
       213.0004        213.0004
  -7840217.42547  -6094902.46345  23245386.996    23245387.7084   23245395.5144
       153.0004        156.0004
 21  2  6  0 17  0.0000000  0  7G07G08G27G21G04G09G01
  -9603188.34648  -7469497.03546  22980504.506    22980505.1404   22980509.5134
       179.0004        179.0004
 -22686055.22149 -17651582.31947  20503270.938    20503271.1974   20503278.7134
       209.0004        209.0004
 -12735515.86749  -9872929.82147  22857581.603    22857580.8054   22857587.7134
       201.0004        202.0004
 -10102971.83348  -7856150.85146  22193016.587    22193016.0784   22193021.5114
       169.0004        169.0004
 -18723956.40549 -14577114.63447  20940392.506    20940392.9944   20940398.3904
       200.0004        199.0004
 -19507552.84549 -15152376.23248  20781766.225    20781766.5684   20781773.6774
       213.0004        214.0004
  -7917319.54947  -6154982.00445  23230715.266    23230716.0464   23230724.5414
       155.0004        158.0004
 21  2  6  0 17 30.0000000  0  7G07G08G27G21G04G09G01
  -9677876.78548  -7527695.81346  22966291.955    22966292.7964   22966296.8764
       178.0004        178.0004
 -22639565.72349 -17615356.73147  20512117.673    20512118.0044   20512125.2564
       209.0004        209.0004
 -12636829.43849  -9796031.32647  22876359.436    22876360.1984   22876366.7314
       201.0004        202.0004
 -10142266.34848  -7886769.94746  22185538.395    22185538.6374   22185544.0794
       168.0004        169.0004
 -18661229.64849 -14528236.64747  20952328.390    20952328.9894   20952335.3264
       201.0004        199.0004
 -19513250.29549 -15156815.80348  20780682.799    20780682.9264   20780689.5014
       214.0004        214.0004
  -7994478.26647  -6215105.66345  23216031.410    23216032.3534   23216041.6634
       156.0004        159.0004
 21  2  6  0 18  0.0000000  0  7G07G08G27G21G04G09G01
  -9752618.57248  -7585936.14646  22952069.585    22952069.6154   22952074.7914
       179.0004        181.0004
 -22592565.67949 -17578733.30547  20521061.022    20521061.6774   20521068.9534
       208.0004        209.0004
 -12537903.71849  -9718946.35947  22895184.430    22895184.8454   22895191.0574
       201.0004        200.0004
 -10181295.19248  -7917182.01746  22178111.485    22178111.9534   22178116.2534
       167.0004        168.0004
 -18598059.35649 -14479013.04147  20964349.628    20964349.8764   20964355.9224
       200.0004        198.0004
 -19518377.95449 -15160811.38548  20779706.686    20779707.1084   20779713.4764
       214.0004        214.0004
  -8071688.97947  -6275269.84445  23201340.119    23201340.4654   23201349.0354
       158.0004        161.0004
 21  2  6  0 18 30.0000000  0  7G07G08G27G21G04G09G01
  -9827413.07748  -7644217.56446  22937836.822    22937836.8774   22937841.6434
       180.0004        181.0004
 -22545058.68849 -17541714.87347  20530102.207    20530102.3504   20530109.4314
       209.0004        209.0004
 -12438743.21749  -9641678.44347  22914053.236    22914054.3074   22914061.5124
       200.0004        200.0004
 -10220057.24748  -7947386.20846  22170734.978    22170734.9864   22170740.4954
       167.0004        167.0004
 -18534449.36549 -14429446.83047  20976454.992    20976455.1954   20976460.6954
       200.0004        199.0004
 -19522937.46149 -15164364.25548  20778838.784    20778839.0724   20778845.8114
       213.0004        213.0004
  -8148950.46947  -6335473.60045  23186637.731    23186637.8874   23186645.3144
       158.0004        159.0004
 21  2  6  0 19  0.0000000  0  7G07G08G27G21G04G09G01
  -9902257.63548  -7702537.98846  22923594.594    22923594.6904   22923598.8934
       180.0004        181.0004
 -22497045.73549 -17504302.17547  20539238.141    20539238.6974   20539245.9154
       208.0004        208.0004
 -12339349.65749  -9564228.91547  22932967.333    22932967.9684   22932975.3404
       199.0004        199.0004
 -10258547.90848  -7977378.91746  22163410.910    22163410.1454   22163415.9584
       167.0004        167.0004
 -18470400.74749 -14379538.81747  20988642.753    20988643.3024   20988648.6894
       201.0004        199.0004
 -19526927.66749 -15167473.50448  20778079.478    20778080.1234   20778086.4104
       213.0004        214.0004
  -8226258.48647  -6395713.61745  23171927.380    23171927.1294   23171934.7734
       158.0004        161.0004
 21  2  6  0 19 30.0000000  0  7G07G08G27G21G04G09G01
  -9977151.34448  -7760896.70546  22909341.933    22909342.4194   22909346.8304
       180.0004        180.0004
 -22448530.13649 -17466497.80447  20548470.245    20548470.8214   20548478.2134
       208.0004        208.0004
 -12239726.94949  -9486600.83447  22951924.116    22951925.3824   22951932.4974
       199.0004        199.0004
 -10296766.30648  -8007159.44846  22156138.209    22156137.4374   22156144.2474
       167.0004        169.0004
 -18405916.80549 -14329291.60047  21000912.910    21000913.5894   21000919.3644
       200.0004        198.0004
 -19530349.69749 -15170140.02348  20777428.578    20777428.8224   20777435.7374
       214.0004        215.0004
  -8303611.18447  -6455988.39745  23157205.832    23157207.0354   23157215.1264
       159.0004        162.0004
 21  2  6  0 20  0.0000000  0  7G07G08G27G21G04G09G01
 -10052091.53948  -7819291.64146  22895081.266    22895082.4084   22895085.9534
       180.0004        181.0004
 -22399513.34349 -17428302.89547  20557798.743    20557798.8684   20557805.9024
       208.0004        209.0004
 -12139877.23249  -9408795.86747  22970926.181    22970926.2274   22970933.3294
       199.0004        198.0004
 -10334708.46048  -8036724.74846  22148919.032    22148918.4394   22148924.2184
       169.0004        172.0004
 -18340999.04949 -14278706.33547  21013267.081    21013267.0744   21013273.1854
       199.0004        198.0004
 -19533202.85349 -15172363.26348  20776885.776    20776885.9774   20776892.7554
       214.0004        215.0004
  -8381004.81047  -6516295.10346  23142479.336    23142480.1434   23142487.9944
       161.0004        163.0004
 21  2  6  0 20 30.0000000  0  7G07G08G27G21G04G09G01
 -10127076.23148  -7877721.25446  22880812.361    22880813.0024   22880817.0734
       181.0004        181.0004
 -22349997.10349 -17389718.80447  20567221.279    20567221.5674   20567228.4204
       209.0004        209.0004
 -12039803.41749  -9330816.28047  22989969.707    22989969.8964   22989977.0584
       199.0004        200.0004
 -10372371.67148  -8066072.68246  22141751.592    22141751.3814   22141756.5984
       171.0004        173.0004
 -18275649.80049 -14227784.85247  21025701.927    21025702.2994   21025708.9034
       199.0004        198.0004
 -19535487.29849 -15174143.35548  20776450.698    20776451.2134   20776458.0744
       214.0004        214.0004
  -8458436.49747  -6576631.44246  23127744.443    23127745.0114   23127753.1504
       162.0004        164.0004
 21  2  6  0 21  0.0000000  0  7G07G08G27G21G04G09G01
 -10202104.62748  -7936184.92946  22866534.364    22866535.0844   22866539.4734
       179.0004        179.0004
 -22299984.66249 -17350748.06347  20576738.283    20576738.5294   20576745.3724
       209.0004        209.0004
 -11939509.19349  -9252664.95447  23009055.333    23009055.5114   23009062.1094
       198.0004        198.0004
 -10409753.95948  -8095201.74146  22134638.814    22134637.9084   22134642.2224
       172.0004        172.0004
 -18209872.14549 -14176529.55447  21038219.613    21038219.9434   21038225.3364
       199.0004        198.0004
 -19537203.97449 -15175481.02948  20776124.004    20776124.2564   20776131.1084
       214.0004        214.0004
  -8535903.94647  -6636995.66945  23113002.297    23113002.2234   23113011.0834
       161.0004        162.0004
 21  2  6  0 21 30.0000000  0  7G07G08G27G21G04G09G01
 -10277174.14148  -7994680.63546  22852250.084    22852250.4394   22852255.1264
       179.0004        180.0004
 -22249477.50149 -17311391.83347  20586348.953    20586349.6714   20586356.7084
       208.0004        209.0004
 -11838997.05549  -9174343.81447  23028181.556    23028182.3164   23028189.5034
       197.0004        196.0004
 -10446852.31748  -8124109.54746  22127577.915    22127578.2144   22127582.5544
       172.0004        174.0004
 -18143668.05449 -14124941.96147  21050817.737    21050818.0244   21050823.8154
       199.0004        197.0004
 -19538352.69249 -15176376.14648  20775905.410    20775905.6384   20775912.5654
       213.0004        214.0004
  -8613403.87047  -6697385.19145  23098254.276    23098255.3674   23098262.4884
       160.0004        161.0004
 21  2  6  0 22  0.0000000  0  7G07G08G27G21G04G09G01
 -10352283.27648  -8053207.21246  22837958.406    22837958.2604   22837961.9314
       180.0004        181.0004
 -22198478.54049 -17271652.37647  20596053.470    20596053.9924   20596061.3284
       208.0004        208.0004
 -11738270.22349  -9095855.37947  23047350.571    23047350.9184   23047357.0954
       197.0004        197.0004
 -10483664.83648  -8152794.59546  22120572.435    22120571.7994   22120578.1614
       172.0004        171.0004
 -18077040.20149 -14073024.16347  21063496.159    21063497.1114   21063502.6344
       198.0004        197.0004
 -19538933.96949 -15176829.08848  20775795.110    20775795.3544   20775802.2644
       214.0004        215.0004
  -8690933.57647  -6757797.95545  23083500.464    23083501.6324   23083508.7364
       160.0004        162.0004
 21  2  6  0 22 30.0000000  0  7G07G08G27G21G04G09G01
 -10427431.51148  -8111764.25246  22823656.337    22823657.5594   22823660.9554
       180.0004        180.0004
 -22146991.02849 -17231532.22047  20605851.172    20605851.4054   20605859.1144
       207.0004        207.0004
 -11637332.98249  -9017202.97747  23066558.357    23066558.4944   23066564.9954
       196.0004        196.0004
 -10520189.81048  -8181255.60346  22113622.017    22113621.5204   22113626.4294
       171.0004        172.0004
 -18009992.34349 -14020779.07447  21076255.464    21076255.7964   21076261.0784
       198.0004        197.0004
 -19538949.46049 -15176841.15548  20775792.667    20775792.6614   20775799.0834
       215.0004        215.0004
  -8768491.45547  -6818232.65646  23068743.599    23068743.8244   23068750.4874
       161.0004        164.0004
 21  2  6  0 23  0.0000000  0  7G07G08G27G21G04G09G01
 -10502616.33248  -8170349.83246  22809350.462    22809350.3344   22809353.1924
       180.0004        181.0004
 -22095016.75649 -17191032.80047  20615740.697    20615741.5974   20615749.3274
       207.0004        207.0004
 -11536187.41349  -8938388.26547  23085803.936    23085804.9024   23085812.4894
       195.0004        196.0004
 -10556423.84148  -8209489.92346  22106727.446    22106727.2714   22106732.0644
       171.0004        172.0004
 -17942526.01249 -13968207.91547  21089093.150    21089093.8524   21089099.8094
       198.0004        197.0004
 -19538398.58749 -15176411.91948  20775896.421    20775897.0864   20775903.9944
       214.0004        214.0004
  -8846073.68447  -6878686.33146  23053979.684    23053980.2424   23053988.0154
       162.0004        164.0004
 21  2  6  0 23 30.0000000  0  7G07G08G27G21G04G09G01
 -10577835.41148  -8228962.09146  22795036.516    22795036.0014   22795039.4204
       179.0004        178.0004
 -22042558.14949 -17150155.95547  20625724.762    20625724.8434   20625732.1604
       207.0004        208.0004
 -11434836.52049  -8859413.55847  23105090.813    23105091.0574   23105098.7064
       195.0004        195.0004
 -10592364.23748  -8237495.40746  22099887.794    22099888.0944   22099892.6814
       171.0004        170.0004
 -17874643.73249 -13915312.63647  21102011.626    21102011.8534   21102018.0094
       198.0004        197.0004
 -19537281.76549 -15175541.66648  20776109.720    20776109.8344   20776116.3884
       214.0004        215.0004
  -8923677.33047  -6939156.67646  23039211.979    23039212.3964   23039220.0854
       163.0004        164.0004
 21  2  6  0 24  0.0000000  0  7G07G08G27G21G04G09G01
 -10653086.40148  -8287599.20346  22780714.722    22780715.8084   22780720.2604
       178.0004        178.0004
 -21989615.97549 -17108902.29947  20635799.491    20635799.5594   20635806.6924
       208.0004        208.0004
 -11333282.32948  -8780280.42547  23124413.740    23124415.2624   23124423.5094
       193.0004        192.0004
 -10628007.22048  -8265269.13646  22093105.225    22093105.3364   22093110.0884
       170.0004        171.0004
 -17806347.05349 -13862094.44447  21115006.988    21115007.6304   21115014.2994
       198.0004        196.0004
 -19535598.47249 -15174230.01248  20776430.055    20776430.1644   20776436.8804
       215.0004        215.0004
  -9001298.56947  -6999640.71845  23024440.546    23024441.3144   23024449.6594
       161.0004        162.0004
 21  2  6  0 24 30.0000000  0  7G07G08G27G21G04G09G01
 -10728365.12248  -8346257.92846  22766391.368    22766391.1964   22766396.3874
       178.0004        179.0004
 -21936190.97149 -17067272.41647  20645965.846    20645965.9564   20645972.8284
       208.0004        208.0004
 -11231525.76348  -8700989.60647  23143778.922    23143779.3014   23143787.0294
       192.0004        191.0004
 -10663348.94348  -8292808.12446  22086380.212    22086379.5434   22086384.0144
       171.0004        172.0004
 -17737636.42849 -13808553.70847  21128082.391    21128082.9784   21128088.9824
       197.0004        196.0004
 -19533347.13949 -15172475.73048  20776858.025    20776858.3904   20776865.3054
       215.0004        215.0004
  -9078932.42247  -7060134.61445  23009667.113    23009667.4264   23009675.4054
       161.0004        162.0004
 21  2  6  0 25  0.0000000  0  7G07G08G27G21G04G09G01
 -10803672.49948  -8404938.97346  22752060.558    22752060.4814   22752065.0064
       179.0004        179.0004
 -21882288.44449 -17025270.43547  20656223.246    20656223.1114   20656229.9634
       207.0004        207.0004
 -11129572.56848  -8621545.55547  23163179.546    23163180.5674   23163188.9524
       192.0004        192.0004
 -10698389.62448  -8320112.50946  22079711.876    22079711.0594   22079716.8744
       171.0004        172.0004
 -17668517.18349 -13754694.56547  21141235.592    21141236.0564   21141242.3064
       197.0004        196.0004
 -19530530.97849 -15170281.32048  20777393.779    20777394.1774   20777401.1244
       214.0004        215.0004
  -9156578.65747  -7120638.15146  22994891.333    22994891.6234   22994901.0744
       161.0004        163.0004
 21  2  6  0 25 30.0000000  0  7G07G08G27G21G04G09G01
 -10879007.49148  -8463641.55346  22737725.039    22737724.9094   22737729.1674
       179.0004        179.0004
 -21827911.37049 -16982898.68447  20666570.137    20666570.2154   20666577.8694
       206.0004        206.0004
 -11027426.53648  -8541951.26247  23182617.612    23182618.5404   23182626.4174
       191.0004        191.0004
 -10733127.21448  -8347180.75246  22073101.933    22073100.4804   22073106.3094
       171.0004        171.0004
 -17598992.67149 -13700519.63547  21154465.441    21154466.3424   21154472.3104
       197.0004        196.0004
 -19527151.29049 -15167647.80648  20778037.023    20778037.4864   20778044.1464
       214.0004        215.0004
  -9234235.16747  -7181149.70346  22980114.481    22980115.6644   22980122.9504
       162.0004        164.0004
 21  2  6  0 26  0.0000000  0  7G07G08G27G21G04G09G01
 -10954367.92948  -8522363.95646  22723383.683    22723384.0464   22723388.1424
       178.0004        178.0004
 -21773061.84649 -16940158.80147  20677007.222    20677007.8814   20677015.4034
       206.0004        206.0004
 -10925090.29448  -8462208.74847  23202092.473    23202092.1264   23202101.3744
       191.0004        191.0004
 -10767558.80048  -8374010.54246  22066549.755    22066548.9734   22066554.3684
       171.0004        173.0004
 -17529065.09149 -13646030.61847  21167773.224    21167773.1664   21167779.1864
       197.0004        196.0004
 -19523208.30249 -15164575.35048  20778787.157    20778787.7734   20778794.6704
       214.0004        215.0004
  -9311898.66547  -7241666.69346  22965335.081    22965335.8304   22965344.1854
       161.0004        163.0004
 21  2  6  0 26 30.0000000  0  7G07G08G27G21G04G09G01
 -11029752.62448  -8581105.27446  22709038.776    22709039.3234   22709043.4124
       178.0004        179.0004
 -21717743.34749 -16897053.47047  20687534.136    20687534.8664   20687542.2974
       206.0004        206.0004
 -10822567.61348  -8382320.96147  23221601.859    23221602.3054   23221610.3504
       189.0004        190.0004
 -10801682.94548  -8400600.76346  22060055.292    22060054.9474   22060060.3774
       171.0004        172.0004
 -17458737.84949 -13591230.18047  21181155.451    21181156.0824   21181161.7934
       197.0004        196.0004
 -19518703.37149 -15161065.00948  20779644.550    20779645.1114   20779651.8544
       214.0004        215.0004
  -9389567.01547  -7302187.47545  22950556.034    22950555.7424   22950563.8884
       161.0004        162.0004
 21  2  6  0 27  0.0000000  0  7G07G08G27G21G04G09G01
 -11105157.28948  -8639862.15346  22694689.171    22694689.6784   22694694.8474
       180.0004        181.0004
 -21661956.16449 -16853582.94247  20698150.973    20698150.9914   20698158.0434
       206.0004        207.0004
 -10719859.41548  -8302288.61247  23241147.101    23241147.1124   23241154.8824
       189.0004        190.0004
 -10835494.99948  -8426947.80146  22053621.075    22053621.3394   22053626.7724
       172.0004        173.0004
 -17388011.45349 -13536118.72647  21194614.181    21194614.7644   21194621.1164
       197.0004        196.0004
 -19513635.00549 -15157115.64148  20780609.196    20780609.6164   20780616.2414
       214.0004        215.0004
  -9467235.06947  -7362708.01945  22935774.722    22935775.6124   22935784.4344
       160.0004        161.0004
 21  2  6  0 27 30.0000000  0  7G07G08G27G21G04G09G01
 -11180580.19548  -8698633.22246  22680336.496    22680337.4574   22680341.1194
       179.0004        179.0004
 -21605702.46549 -16809748.86147  20708855.510    20708855.6284   20708862.7284
       206.0004        207.0004
 -10616968.31848  -8222113.72547  23260725.550    23260726.7404   23260734.2374
       190.0004        190.0004
 -10868991.88548  -8453049.26246  22047248.731    22047247.6694   22047251.9774
       173.0004        175.0004
 -17316888.16049 -13480697.97747  21208148.803    21208148.9364   21208155.0494
       197.0004        196.0004
 -19508003.49549 -15152727.44548  20781681.402    20781681.6444   20781687.9024
       215.0004        215.0004
  -9544899.62247  -7423225.83045  22920995.483    22920997.0794   22921004.5744
       160.0004        162.0004
 21  2  6  0 28  0.0000000  0  7G07G08G27G21G04G09G01
 -11256020.06848  -8757417.53546  22665981.063    22665981.3704   22665986.0384
       179.0004        179.0004
 -21548985.61949 -16765553.92347  20719648.634    20719648.6074   20719655.3894
       206.0004        206.0004
 -10513898.19348  -8141799.35447  23280339.171    23280339.6114   23280346.5274
       188.0004        188.0004
 -10902172.16548  -8478904.01946  22040933.849    22040932.6854   22040938.5964
       174.0004        174.0004
 -17245371.50149 -13424970.72247  21221758.070    21221758.2994   21221764.2574
       197.0004        195.0004
 -19501810.50949 -15147901.75248  20782859.231    20782859.4694   20782866.5304
       215.0004        214.0004
  -9622558.51247  -7483739.24746  22906219.700    22906219.1884   22906227.8754
       161.0004        163.0004
 21  2  6  0 28 30.0000000  0  7G07G08G27G21G04G09G01
 -11331475.99348  -8816214.34746  22651622.180    22651622.8154   22651626.7394
       179.0004        180.0004
 -21491808.85949 -16721000.59647  20730528.503    20730528.7244   20730535.9064
       206.0004        206.0004
 -10410652.81448  -8061348.41447  23299985.608    23299986.5654   23299994.7514
       189.0004        190.0004
 -10935034.51948  -8504511.03346  22034679.982    22034679.5454   22034684.3404
       174.0004        175.0004
 -17173464.90049 -13368939.62047  21235441.278    21235441.6614   21235448.0864
       197.0004        196.0004
 -19495057.30649 -15142639.51948  20784144.139    20784144.5254   20784151.6224
       214.0004        214.0004
  -9700209.60847  -7544246.55546  22891442.867    22891442.4164   22891451.2804
       161.0004        163.0004
 21  2  6  0 29  0.0000000  0  7G07G08G27G21G04G09G01
 -11406944.78648  -8875021.18046  22637260.612    22637260.8344   22637266.8524
       180.0004        181.0004
 -21434173.96349 -16676090.27647  20741495.827    20741496.1614   20741503.4724
       205.0004        205.0004
 -10307234.23348  -7980762.52847  23319666.913    23319666.9524   23319673.6324
       189.0004        190.0004
 -10967575.62648  -8529867.73546  22028488.165    22028487.4284   22028492.1974
       174.0004        175.0004
 -17101170.13849 -13312606.03747  21249197.961    21249198.9334   21249204.3154
       196.0004        194.0004
 -19487743.79549 -15136940.67948  20785535.940    20785536.3344   20785543.2384
       214.0004        214.0004
  -9777848.97547  -7604744.75045  22876668.503    22876668.2954   22876676.6764
       161.0004        162.0004
 21  2  6  0 29 30.0000000  0  7G07G08G27G21G04G09G01
 -11482425.88348  -8933837.60446  22622897.198    22622898.0544   22622901.7664
       181.0004        182.0004
 -21376085.08749 -16630826.22447  20752549.343    20752549.7414   20752557.0654
       205.0004        205.0004
 -10203646.96948  -7900045.18046  23339378.416    23339378.4094   23339385.3044
       188.0004        187.0004
 -10999794.29248  -8554973.18046  22022356.684    22022356.6394   22022361.4944
       174.0004        175.0004
 -17028491.37449 -13255973.24747  21263028.570    21263029.1794   21263034.7604
       195.0004        194.0004
 -19479872.26049 -15130807.02248  20787034.187    20787034.5904   20787040.8574
       214.0004        215.0004
  -9855475.13647  -7665232.63445  22861895.465    22861896.5074   22861904.5414
       160.0004        162.0004
 21  2  6  0 30  0.0000000  0  7G07G08G27G21G04G09G01
 -11557916.41248  -8992661.39646  22608532.933    22608533.0004   22608536.3874
       182.0004        183.0004
 -21317543.00249 -16585209.01147  20763690.375    20763690.4994   20763696.8994
       204.0004        205.0004
 -10099892.72348  -7819197.71447  23359122.569    23359122.7174   23359130.6804
       189.0004        191.0004
 -11031686.86248  -8579824.52646  22016287.900    22016287.3494   22016292.6284
       174.0004        175.0004
 -16955430.03649 -13199042.34447  21276931.483    21276932.1434   21276938.5984
       195.0004        194.0004
 -19471442.17949 -15124238.12748  20788638.141    20788638.6104   20788645.1224
       214.0004        214.0004
  -9933083.88247  -7725706.93746  22847128.383    22847129.1404   22847136.1764
       161.0004        163.0004
 21  2  6  0 30 30.0000000  0  7G07G08G27G21G04G09G01
 -11633414.78448  -9051491.29446  22594165.873    22594166.0224   22594169.7654
       183.0004        183.0004
 -21258551.73049 -16539241.76747  20774915.969    20774916.1794   20774923.2364
       205.0004        206.0004
  -9995975.05248  -7738222.92747  23378898.067    23378898.6754   23378904.3654
       191.0004        192.0004
 -11063251.40348  -8604420.25746  22010281.939    22010281.2504   22010285.2744
       174.0004        175.0004
 -16881989.46949 -13141815.92947  21290907.542    21290907.9184   21290912.7174
       195.0004        193.0004
 -19462455.02549 -15117235.14548  20790348.576    20790348.9324   20790355.5264
       214.0004        214.0004
 -10010672.79747  -7786165.81146  22832363.433    22832363.4454   22832371.5374
       162.0004        163.0004
 21  2  6  0 31  0.0000000  0  7G07G08G27G21G04G09G01
 -11708919.10848  -9110325.82346  22579797.865    22579798.2554   22579802.7234
       184.0004        185.0004
 -21199113.15749 -16492925.98147  20786226.797    20786227.0224   20786234.0754
       205.0004        205.0004
  -9891896.92348  -7657123.09247  23398704.302    23398703.9444   23398710.6554
       192.0004        192.0004
 -11094485.84048  -8628758.77246  22004338.132    22004337.5674   22004341.3254
       174.0004        174.0004
 -16808172.31249 -13084296.07447  21304954.602    21304955.0964   21304960.4624
       195.0004        194.0004
 -19452911.54849 -15109798.66648  20792163.987    20792164.3884   20792171.9104
       214.0004        214.0004
 -10088238.82047  -7846606.85846  22817603.002    22817602.9994   22817610.9154
       162.0004        164.0004
 21  2  6  0 31 30.0000000  0  7G07G08G27G21G04G09G01
 -11784426.62448  -9169162.82546  22565429.124    22565429.8684   22565433.9554
       184.0004        185.0004
 -21139229.71449 -16446263.55147  20797621.783    20797622.2554   20797629.6354
       205.0004        205.0004
  -9787660.65648  -7575900.03047  23418538.580    23418539.1694   23418545.6254
       191.0004        191.0004
 -11125387.18848  -8652837.73846  21998457.060    21998456.2594   21998462.0314
       173.0004        174.0004
 -16733980.68949 -13026484.43047  21319072.208    21319072.4034   21319079.0874
       196.0004        194.0004
 -19442812.02849 -15101928.92148  20794086.086    20794086.5544   20794093.4164
       213.0004        213.0004
 -10165778.37047  -7907027.25846  22802847.794    22802847.6194   22802855.2584
       162.0004        164.0004
 21  2  6  0 32  0.0000000  0  7G07G08G27G21G04G09G01
 -11859934.76748  -9228000.32846  22551059.899    22551060.5674   22551064.8014
       185.0004        184.0004
 -21078903.28349 -16399255.94147  20809101.198    20809101.3944   20809109.2404
       204.0004        203.0004
  -9683268.49148  -7494555.49947  23438403.972    23438404.3594   23438411.0014
       192.0004        192.0004
 -11155952.15248  -8676654.58346  21992641.864    21992641.3334   21992645.5694
       173.0004        174.0004
 -16659416.61549 -12968382.56547  21333261.151    21333261.6414   21333267.5064
       195.0004        193.0004
 -19432156.60349 -15093625.99948  20796113.780    20796114.1904   20796121.2364
       213.0004        214.0004
 -10243287.64747  -7967424.06646  22788096.988    22788097.9104   22788106.6804
       163.0004        165.0004
 21  2  6  0 32 30.0000000  0  7G07G08G27G21G04G09G01
 -11935442.59148  -9286837.57646  22536691.949    22536691.7604   22536696.3674
       184.0004        185.0004
 -21018137.10249 -16351905.66147  20820665.241    20820665.3264   20820672.5694
       204.0004        204.0004
  -9578724.24648  -7413092.41947  23458297.483    23458297.7544   23458304.8334
       191.0004        191.0004
 -11186179.89148  -8700208.66146  21986887.728    21986888.5894   21986894.0634
       173.0004        173.0004
 -16584483.73049 -12909993.29047  21347520.457    21347520.8594   21347527.0824
       195.0004        193.0004
 -19420947.09349 -15084891.31048  20798247.172    20798247.4974   20798254.0294
       213.0004        214.0004
 -10320764.51648  -8027795.62546  22773354.644    22773355.4234   22773363.1564
       165.0004        167.0004
 21  2  6  0 33  0.0000000  0  7G07G08G27G21G04G09G01
 -12010946.97148  -9345672.15146  22522324.184    22522323.9734   22522327.5944
       185.0004        186.0004
 -20956933.20749 -16304214.31247  20832311.049    20832311.5104   20832319.2114
       203.0004        203.0004
  -9474030.11748  -7331512.59847  23478220.608    23478220.7114   23478227.2514
       190.0004        189.0004
 -11216066.69248  -8723497.04746  21981199.836    21981200.6744   21981206.1634
       173.0004        173.0004
