     2.11           OBSERVATION DATA    G (GPS)             RINEX VERSION / TYPE
teqc  2018Jun8                          20210202 03:10:37UTCPGM / RUN BY / DATE
Linux2.6.32-573.12.1.el6.x86_64|x86_64|gcc|Win64-MinGW64|=+ COMMENT
BIT 2 OF LLI FLAGS DATA COLLECTED UNDER A/S CONDITION       COMMENT
-Unknown-                                                   MARKER NAME
CRNO                                                        MARKER NUMBER
-Unknown-           -Unknown-                               OBSERVER / AGENCY
-Unknown-           ASHTECH             -Unknown-           REC # / TYPE / VERS
-Unknown-           -Unknown-                               ANT # / TYPE
   408078.3534 -6158372.6261  1605162.9233                  APPROX POSITION XYZ
        0.0000        0.0000        0.0000                  ANTENNA: DELTA H/E/N
     1     1                                                WAVELENGTH FACT L1/2
     7    L1    L2    C1    P1    P2    S1    S2            # / TYPES OF OBSERV
    30.0000                                                 INTERVAL
Forced Modulo Decimation to 30 seconds                      COMMENT
 SNR is mapped to RINEX snr flag value [1-9]                COMMENT
  L1: 1 -> 1;  90 -> 5; 210 -> 9                            COMMENT
  L2: 1 -> 1; 150 -> 5; 250 -> 9                            COMMENT
pseudorange smoothing corrections not applied               COMMENT
  2021     2     3     0     0   30.0000000     GPS         TIME OF FIRST OBS
                                                            END OF HEADER
 21  2  3  0  0 30.0000000  0  9G16G21G07G01G03G09G08G27G04
  -2712121.73946  -2082822.19845  24362416.515    24362415.1024   24362421.1444
       130.0004        137.0004
 -10429242.54047  -8115696.38245  22690965.716    22690964.8254   22690971.2654
       157.0004        160.0004
  -5461494.91847  -4243904.78746  23775054.691    23775055.6614   23775059.8664
       162.0004        164.0004
  -2855614.46347  -2206890.92445  24039297.211    24039298.3854   24039305.2404
       146.0004        150.0004
   -268535.02948   -191939.84246  24269496.630    24269497.2034   24269505.5504
       176.0004        178.0004
 -18463875.58449 -14360224.83947  21029812.183    21029812.6534   21029818.6034
       209.0004        209.0004
 -23159055.47149 -18028150.71348  20172595.156    20172595.4084   20172602.9664
       213.0004        213.0004
 -16448065.85849 -12804600.76548  21873393.940    21873394.1074   21873400.7284
       219.0004        218.0004
 -20642859.02749 -16068227.38247  20406815.011    20406815.7994   20406821.2834
       211.0004        209.0004
 21  2  3  0  1  0.0000000  0  9G16G21G07G01G03G09G08G27G04
  -2633708.08046  -2021720.67645  24377339.269    24377338.6494   24377346.4804
       131.0004        139.0004
 -10479134.98347  -8154573.58045  22681470.549    22681470.7784   22681476.3444
       157.0004        159.0004
  -5530645.97847  -4297788.70946  23761896.953    23761897.0964   23761900.6854
       164.0004        166.0004
  -2925400.98947  -2261269.94045  24026015.857    24026016.0584   24026024.7054
       144.0004        148.0004
   -212062.07848   -147935.01546  24280243.032    24280243.7974   24280252.2804
       176.0004        176.0004
 -18501903.13849 -14389856.68847  21022575.222    21022575.8134   21022582.5444
       209.0004        209.0004
 -23144623.98349 -18016905.37848  20175341.515    20175341.7364   20175349.3614
       213.0004        213.0004
 -16368180.18749 -12742352.18048  21888595.597    21888596.0234   21888602.6614
       219.0004        218.0004
 -20609210.88749 -16042008.05847  20413218.818    20413218.8354   20413225.1274
       211.0004        209.0004
 21  2  3  0  1 30.0000000  0  9G16G21G07G01G03G09G08G27G04
  -2555445.50746  -1960736.85145  24392233.011    24392232.3274   24392236.0874
       130.0004        136.0004
 -10528917.17447  -8193364.86945  22671997.912    22671997.6484   22672003.4384
       157.0004        159.0004
  -5599928.20848  -4351774.83546  23748712.154    23748712.4594   23748716.9684
       165.0004        166.0004
  -2995381.72247  -2315800.27945  24012700.563    24012700.2114   24012707.6804
       146.0004        150.0004
   -155780.16048   -104079.06546  24290952.671    24290953.3764   24290961.9744
       173.0004        174.0004
 -18539397.39049 -14419072.97347  21015440.434    21015440.6304   21015447.3914
       209.0004        209.0004
 -23129592.97849 -18005192.88548  20178201.852    20178202.3054   20178209.5534
       213.0004        213.0004
 -16287884.51349 -12679784.10748  21903875.028    21903875.6134   21903882.1934
       219.0004        218.0004
 -20575014.78749 -16015361.73947  20419725.959    20419726.3194   20419731.3884
       211.0004        209.0004
 21  2  3  0  2  0.0000000  0  9G16G21G07G01G03G09G08G27G04
  -2477334.70846  -1899871.25345  24407098.126    24407095.5554   24407099.2654
       128.0004        136.0004
 -10578586.42547  -8232068.16245  22662545.386    22662545.9654   22662550.5854
       157.0004        158.0004
  -5669340.91847  -4405862.62146  23735502.482    23735503.4674   23735507.4954
       164.0004        164.0004
  -3065554.33147  -2370480.14345  23999345.999    23999346.8514   23999354.3394
       146.0004        149.0004
    -99691.11448    -60373.43546  24301624.686    24301626.1044   24301635.7784
       173.0004        174.0004
 -18576356.90949 -14447872.58547  21008406.968    21008407.5334   21008414.2984
       209.0004        210.0004
 -23113963.31849 -17993013.90748  20181175.660    20181176.3284   20181183.7664
       213.0004        213.0004
 -16207181.60049 -12616898.70048  21919232.700    21919233.1274   21919239.4044
       218.0004        218.0004
 -20540271.82649 -15988289.28847  20426336.896    20426337.7834   20426343.2234
       210.0004        208.0004
 21  2  3  0  2 30.0000000  0  9G16G21G07G01G03G09G08G27G04
  -2399376.61046  -1839124.69745  24421931.658    24421931.3384   24421933.8604
       129.0004        138.0004
 -10628140.07547  -8270681.39045  22653117.032    22653115.0324   22653121.8774
       157.0004        157.0004
  -5738882.73347  -4460051.03446  23722268.777    23722270.1314   23722274.4914
       162.0004        164.0004
  -3135916.86047  -2425307.96745  23985956.806    23985956.6444   23985966.5434
       145.0004        149.0004
    -43796.90848    -16819.58546  24312263.895    24312264.0274   24312273.4424
       175.0004        177.0004
 -18612780.51649 -14476254.59647  21001475.726    21001476.3634   21001483.6334
       210.0004        211.0004
 -23097736.06349 -17980369.28148  20184263.862    20184264.1144   20184271.3604
       212.0004        213.0004
 -16126074.31149 -12553698.19348  21934667.055    21934666.9414   21934673.8454
       218.0004        217.0004
 -20504983.30049 -15960791.73347  20433052.197    20433052.4644   20433058.5404
       210.0004        208.0004
 21  2  3  0  3  0.0000000  0  9G16G21G07G01G03G09G08G27G04
  -2321571.90446  -1778497.67845  24436736.587    24436737.0504   24436740.7124
       129.0004        137.0004
 -10677575.33447  -8309202.33845  22643708.989    22643708.2304   22643714.2314
       155.0004        157.0004
  -5808552.39047  -4514339.05246  23709011.577    23709012.2784   23709017.2804
       162.0004        165.0004
  -3206466.93747  -2480281.99645  23972532.653    23972532.8824   23972540.6724
       144.0004        148.0004
     11900.69848     26581.07146  24322860.452    24322861.7964   24322871.3744
       174.0004        175.0004
 -18648666.72949 -14504217.86147  20994647.588    20994647.5964   20994654.6104
       210.0004        211.0004
 -23080911.98649 -17967259.59347  20187465.083    20187465.5774   20187472.9664
       212.0004        212.0004
 -16044565.38349 -12490184.73348  21950176.438    21950177.6374   21950184.5684
       217.0004        217.0004
 -20469150.29649 -15932869.90547  20439870.713    20439870.9574   20439877.3654
       210.0004        208.0004
 21  2  3  0  3 30.0000000  0  9G16G21G07G01G03G09G08G27G04
  -2243922.08446  -1717991.32645  24451512.530    24451510.8404   24451516.4004
       125.0004        133.0004
 -10726889.90947  -8347629.28445  22634324.765    22634325.0474   22634330.0264
       155.0004        158.0004
  -5878349.85048  -4568726.64946  23695731.077    23695731.9434   23695735.6474
       165.0004        168.0004
  -3277203.11847  -2535401.04145  23959069.762    23959071.0044   23959078.9994
       143.0004        146.0004
     67399.13248     69826.53046  24333422.405    24333422.8464   24333432.4204
       172.0004        172.0004
 -18684015.01049 -14531761.97447  20987920.707    20987920.9274   20987927.9234
       210.0004        210.0004
 -23063492.47949 -17953685.94648  20190780.174    20190780.6094   20190787.8904
       212.0004        213.0004
 -15962658.34549 -12426361.05648  21965763.640    21965763.9594   21965770.6844
       217.0004        216.0004
 -20432774.71549 -15904525.29847  20446793.111    20446793.2804   20446799.1324
       209.0004        208.0004
 21  2  3  0  4  0.0000000  0  9G16G21G07G01G03G09G08G27G04
  -2166427.25346  -1657605.73945  24466259.820    24466260.3254   24466263.8294
       126.0004        135.0004
 -10776080.11947  -8385959.26645  22624963.270    22624963.7644   22624971.5774
       156.0004        158.0004
  -5948273.28748  -4623212.41646  23682424.641    23682425.2004   23682428.6394
       166.0004        168.0004
  -3348122.42947  -2590662.76545  23945574.900    23945576.4334   23945583.7704
       144.0004        149.0004
    122697.29248    112915.89546  24343946.441    24343946.8884   24343955.4704
       171.0004        172.0004
 -18718823.37149 -14558885.36347  20981296.967    20981297.4614   20981304.2764
       210.0004        211.0004
 -23045477.72049 -17939648.45748  20194208.651    20194208.7734   20194215.8814
       212.0004        213.0004
 -15880355.23849 -12362228.75048  21981424.682    21981425.3464   21981432.3384
       216.0004        215.0004
 -20395857.12549 -15875758.34247  20453818.173    20453818.6294   20453824.6114
       209.0004        208.0004
 21  2  3  0  4 30.0000000  0  9G16G21G07G01G03G09G08G27G04
  -2089088.66346  -1597341.88945  24480975.664    24480975.4144   24480981.6854
       127.0004        135.0004
 -10825144.73147  -8424191.41645  22615628.587    22615627.4224   22615633.4084
       157.0004        158.0004
  -6018322.27147  -4677796.03846  23669094.846    23669095.1874   23669098.6434
       164.0004        163.0004
  -3419223.42147  -2646066.04545  23932046.536    23932046.5934   23932053.7554
       144.0004        148.0004
    177792.73948    155847.32046  24354429.908    24354431.0364   24354439.3954
       172.0004        173.0004
 -18753091.29649 -14585587.63447  20974776.303    20974776.2944   20974783.5604
       211.0004        212.0004
 -23026869.37849 -17925148.44348  20197749.216    20197749.7144   20197757.0764
       212.0004        213.0004
 -15797659.66949 -12297790.63948  21997161.987    21997162.4034   21997168.9964
       216.0004        216.0004
 -20358399.52449 -15846570.60547  20460946.195    20460946.5774   20460952.1434
       209.0004        208.0004
 21  2  3  0  5  0.0000000  0  9G16G21G07G01G03G09G08G27G04
  -2011906.73346  -1537200.14445  24495662.842    24495661.2134   24495668.6214
       126.0004        134.0004
 -10874080.14947  -8462322.86145  22606315.708    22606314.8854   22606320.8784
       157.0004        159.0004
  -6088495.27147  -4732476.26245  23655739.153    23655740.2854   23655744.9284
       161.0004        162.0004
  -3490503.41347  -2701608.82445  23918482.563    23918481.7124   23918489.8514
       146.0004        150.0004
    232683.88848    198619.55446  24364874.463    24364875.8394   24364884.8404
       172.0004        172.0004
 -18786817.19249 -14611867.54047  20968357.729    20968358.4324   20968365.4884
       211.0004        211.0004
 -23007668.44749 -17910186.66448  20201403.167    20201403.5844   20201410.7624
       212.0004        213.0004
 -15714574.08149 -12233048.60048  22012972.719    22012972.9504   22012979.3144
       216.0004        216.0004
 -20320402.80449 -15816962.76747  20468176.831    20468177.3974   20468182.7434
       209.0004        208.0004
 21  2  3  0  5 30.0000000  0  9G16G21G07G01G03G09G08G27G04
  -1934882.11046  -1477180.96845  24510321.512    24510322.4564   24510323.7694
       127.0004        135.0004
 -10922883.19247  -8500351.17145  22597026.157    22597027.1414   22597032.8834
       155.0004        157.0004
  -6158790.88147  -4787252.03946  23642364.126    23642364.5404   23642367.8584
       162.0004        164.0004
  -3561959.73747  -2757288.99945  23904882.024    23904882.6694   23904892.9454
       146.0004        148.0004
    287369.47248    241231.60646  24375281.106    24375282.3334   24375290.6164
       172.0004        173.0004
 -18819999.40249 -14637723.80647  20962043.806    20962043.9884   20962051.1564
       211.0004        211.0004
 -22987875.14549 -17894763.30348  20205169.455    20205170.3094   20205177.3134
       212.0004        213.0004
 -15631100.91849 -12168004.57248  22028856.104    22028856.6964   22028864.0674
       215.0004        214.0004
 -20281867.88649 -15786935.55647  20475509.260    20475510.0444   20475515.9694
       209.0004        208.0004
 21  2  3  0  6  0.0000000  0  9G16G21G07G01G03G09G08G27G04
  -1858015.35846  -1417284.76145  24524949.906    24524948.8804   24524948.6824
       125.0004        132.0004
 -10971551.13347  -8538274.20645  22587766.789    22587766.0774   22587771.2104
       154.0004        156.0004
  -6229208.01947  -4842122.50146  23628965.474    23628964.2934   23628968.6454
       163.0004        165.0004
  -3633590.39347  -2813105.02045  23891251.705    23891251.6684   23891260.9144
       144.0004        146.0004
    341847.45948    283681.90246  24385648.867    24385649.4524   24385659.2224
       173.0004        174.0004
 -18852637.00949 -14663155.69747  20955832.390    20955833.3034   20955840.1694
       211.0004        211.0004
 -22967490.75449 -17878879.34248  20209048.965    20209049.3464   20209056.2774
       212.0004        213.0004
 -15547243.25249 -12102660.92648  22044814.617    22044814.4244   22044821.9044
       215.0004        214.0004
 -20242796.32749 -15756490.18447  20482944.812    20482945.2284   20482951.1944
       209.0004        208.0004
 21  2  3  0  6 30.0000000  0  9G16G21G07G01G03G09G08G27G04
  -1781308.38146  -1357513.08745  24539542.935    24539543.6494   24539550.7444
       126.0004        135.0004
 -11020082.33547  -8576090.71045  22578532.305    22578532.1784   22578536.9464
       155.0004        158.0004
  -6299746.85647  -4897087.78146  23615541.259    23615541.4824   23615545.5644
       162.0004        164.0004
  -3705394.28747  -2869056.03545  23877587.125    23877587.9524   23877597.7984
       141.0004        145.0004
    396114.87048    325968.09946  24395974.384    24395975.8724   24395987.1514
       175.0004        176.0004
 -18884730.00649 -14688163.22547  20949726.151    20949726.3984   20949733.0504
       211.0004        211.0004
 -22946517.41449 -17862536.45447  20213039.693    20213040.0584   20213047.2854
       212.0004        212.0004
 -15463005.11449 -12037020.80648  22060844.283    22060844.6354   22060851.7534
       214.0004        214.0004
 -20203190.67349 -15725628.63947  20490481.284    20490482.0004   20490487.8194
       209.0004        208.0004
 21  2  3  0  7  0.0000000  0  9G16G21G07G01G03G09G08G27G04
  -1704761.15146  -1297865.90345  24554111.731    24554110.9584   24554116.3824
       128.0004        136.0004
 -11068473.72047  -8613798.25345  22569324.590    22569323.0604   22569329.2684
       157.0004        160.0004
  -6370405.19347  -4952146.21046  23602095.662    23602096.1604   23602099.7864
       164.0004        166.0004
  -3777368.12347  -2925139.49545  23863892.383    23863892.8124   23863900.6634
       143.0004        147.0004
    450170.91048    368089.56646  24406262.258    24406262.9584   24406272.8744
       175.0004        176.0004
 -18916276.37749 -14712744.80147  20943722.478    20943722.9844   20943730.1004
       211.0004        212.0004
 -22924955.73449 -17845735.12247  20217142.214    20217142.7924   20217150.3884
       211.0004        212.0004
 -15378388.49849 -11971085.76247  22076945.934    22076946.4954   22076953.4944
       213.0004        212.0004
 -20163051.40749 -15694351.28147  20498119.408    20498120.0464   20498125.9844
       209.0004        207.0004
 21  2  3  0  7 30.0000000  0  9G16G21G07G01G03G09G08G27G04
  -1628374.64146  -1238343.98245  24568646.059    24568648.8664   24568655.1454
       128.0004        135.0004
 -11116722.31147  -8651394.50745  22560141.016    22560141.6434   22560146.8344
       158.0004        160.0004
  -6441182.48347  -5007297.31446  23588627.603    23588627.0504   23588631.9244
       164.0004        166.0004
  -3849510.23247  -2981354.09745  23850163.466    23850164.5794   23850171.7394
       141.0004        145.0004
    504013.30048    410044.54646  24416507.843    24416509.1674   24416517.6204
       172.0004        171.0004
 -18947275.49949 -14736899.94847  20937823.800    20937824.2704   20937831.1924
       211.0004        211.0004
 -22902807.21749 -17828476.50447  20221357.741    20221357.9724   20221365.2214
       212.0004        212.0004
 -15293396.68949 -11904858.36348  22093119.490    22093119.7374   22093127.1804
       213.0004        213.0004
 -20122380.41449 -15662659.59147  20505859.106    20505859.2774   20505865.4284
       209.0004        207.0004
 21  2  3  0  8  0.0000000  0  9G16G21G07G01G03G09G08G27G04
  -1552149.56146  -1178947.80545  24583151.729    24583150.9644   24583156.4514
       128.0004        134.0004
 -11164824.97547  -8688877.07145  22550988.440    22550988.7084   22550993.2154
       158.0004        160.0004
  -6512076.99847  -5062539.75546  23575135.434    23575135.4844   23575140.3934
       164.0004        165.0004
  -3921817.88847  -3037697.65045  23836401.341    23836402.1874   23836413.1174
       140.0004        144.0004
    557640.70648    451832.02846  24426713.332    24426713.8914   24426722.7604
       170.0004        171.0004
 -18977725.95649 -14760627.57947  20932029.458    20932029.6824   20932036.3824
       211.0004        211.0004
 -22880072.28949 -17810760.96247  20225683.851    20225684.1394   20225691.2414
       212.0004        212.0004
 -15208032.29049 -11838340.62947  22109363.078    22109363.7014   22109371.3254
       212.0004        212.0004
 -20081178.80449 -15630554.44347  20513699.407    20513699.7764   20513705.7174
       208.0004        207.0004
 21  2  3  0  8 30.0000000  0  9G16G21G07G01G03G09G08G27G04
  -1476085.08846  -1119676.78145  24597625.389    24597625.4684   24597632.8854
       127.0004        134.0004
 -11212778.51647  -8726243.42645  22541864.446    22541864.2934   22541867.5244
       159.0004        161.0004
  -6583086.92647  -5117872.12346  23561622.081    23561622.5134   23561627.3064
       163.0004        166.0004
  -3994287.81347  -3094167.67545  23822610.010    23822612.6794   23822623.4884
       140.0004        144.0004
    611052.17448    493451.31546  24436876.764    24436877.0674   24436886.1444
       170.0004        171.0004
 -19007625.79549 -14783926.13347  20926339.506    20926339.9424   20926346.3494
       210.0004        210.0004
 -22856751.73049 -17792589.07147  20230121.360    20230121.5474   20230129.2394
       211.0004        212.0004
 -15122297.28649 -11771534.13147  22125677.755    22125678.3894   22125686.2084
       212.0004        212.0004
 -20039447.12949 -15598036.25747  20521640.452    20521640.8334   20521646.9904
       208.0004        207.0004
 21  2  3  0  9  0.0000000  0  9G16G21G07G01G03G09G08G27G04
  -1400183.33146  -1060532.55245  24612070.638    24612070.6024   24612074.7944
       126.0004        133.0004
 -11260581.46347  -8763492.44345  22532766.536    22532765.5434   22532771.9554
       159.0004        161.0004
  -6654211.85048  -5173294.13646  23548088.010    23548089.1204   23548092.7444
       165.0004        168.0004
  -4066918.87847  -3150763.27445  23808789.233    23808790.7844   23808802.0134
       140.0004        145.0004
    664244.92948    534900.11846  24446999.884    24447000.8534   24447008.4994
       171.0004        174.0004
 -19036975.13049 -14806795.74447  20920754.606    20920755.0334   20920761.5564
       210.0004        211.0004
 -22832847.32549 -17773962.23947  20234669.823    20234670.3004   20234678.2204
       211.0004        212.0004
 -15036195.72749 -11704442.00447  22142063.465    22142063.4934   22142071.0464
       212.0004        212.0004
 -19997188.05649 -15565107.11247  20529682.209    20529682.4294   20529688.8784
       208.0004        207.0004
 21  2  3  0  9 30.0000000  0  9G16G21G07G01G03G09G08G27G04
  -1324444.95546  -1001515.65945  24626483.647    24626484.0874   24626485.3884
       125.0004        133.0004
 -11308230.17247  -8800621.27045  22523699.183    22523698.3684   22523703.2294
       160.0004        162.0004
  -6725451.04948  -5228805.19246  23534531.531    23534533.2384   23534536.9324
       168.0004        170.0004
  -4139708.54247  -3207482.45345  23794941.010    23794941.1244   23794948.7954
       142.0004        146.0004
    717217.39048    576177.29046  24457080.242    24457080.7714   24457089.1074
       172.0004        172.0004
 -19065772.79249 -14829235.47647  20915274.239    20915274.6694   20915281.5574
       210.0004        210.0004
 -22808360.35949 -17754881.47147  20239329.714    20239330.0594   20239338.0854
       211.0004        212.0004
 -14949730.38249 -11637066.38947  22158517.222    22158516.9434   22158524.8194
       212.0004        212.0004
 -19954402.89149 -15531768.02447  20537823.857    20537824.2524   20537830.8264
       208.0004        206.0004
 21  2  3  0 10  0.0000000  0  9G16G21G07G01G03G09G08G27G04
  -1248870.87146   -942626.76345  24640861.962    24640862.8584   24640869.8254
       124.0004        132.0004
 -11355722.82347  -8837628.51145  22514662.362    22514661.4504   22514666.7454
       160.0004        162.0004
  -6796803.55448  -5284404.51546  23520952.595    23520953.4644   23520958.7574
       167.0004        168.0004
  -4212655.15547  -3264323.93045  23781059.243    23781059.5044   23781068.3204
       143.0004        147.0004
    769967.23148    617281.00446  24467118.826    24467118.6234   24467128.2374
       172.0004        173.0004
 -19094018.54649 -14851245.14547  20909898.949    20909899.4934   20909906.7694
       210.0004        210.0004
 -22783292.95849 -17735348.41047  20244100.177    20244100.2694   20244107.8994
       211.0004        211.0004
 -14862904.83549 -11569410.11247  22175038.929    22175039.2144   22175047.2584
       211.0004        211.0004
 -19911093.92449 -15498020.77747  20546065.999    20546066.0504   20546072.0984
       208.0004        206.0004
 21  2  3  0 10 30.0000000  0  9G16G21G07G01G03G09G08G27G04
  -1173461.10446   -883865.92145  24655215.508    24655214.9194   24655217.4394
       123.0004        132.0004
 -11403056.25647  -8874511.64246  22505654.971    22505654.1594   22505659.6394
       161.0004        164.0004
  -6868267.44148  -5340090.62146  23507353.882    23507354.9004   23507359.5664
       166.0004        168.0004
  -4285755.62147  -3321285.27845  23767146.127    23767148.5784   23767157.4664
       144.0004        148.0004
    822493.46348    658210.42346  24477112.891    24477113.8694   24477123.4974
       172.0004        172.0004
 -19121710.62849 -14872823.38747  20904630.737    20904630.7404   20904637.1904
       211.0004        212.0004
 -22757645.92149 -17715363.68447  20248979.848    20248980.5464   20248988.4124
       211.0004        211.0004
 -14775721.25949 -11501474.86247  22191628.992    22191629.7564   22191637.0524
       211.0004        211.0004
 -19867261.92349 -15463865.96647  20554406.266    20554406.7844   20554413.0614
       207.0004        206.0004
 21  2  3  0 11  0.0000000  0  9G16G21G07G01G03G09G08G27G04
  -1098216.51046   -825233.73645  24669533.261    24669533.2064   24669538.0944
       128.0004        136.0004
 -11450227.76047  -8911268.61946  22496677.379    22496677.7454   22496682.5654
       162.0004        164.0004
  -6939841.82148  -5395862.84546  23493735.684    23493736.3984   23493739.4254
       168.0004        171.0004
  -4359007.74547  -3378364.80845  23753207.362    23753209.0084   23753218.6954
       144.0004        148.0004
    874794.22448    698964.16646  24487065.352    24487066.2294   24487076.1674
       169.0004        170.0004
 -19148848.40749 -14893969.69947  20899465.685    20899466.0594   20899472.8834
       211.0004        211.0004
 -22731420.28849 -17694928.10547  20253970.801    20253971.1014   20253978.6544
       210.0004        211.0004
 -14688182.83549 -11433263.09347  22208288.624    22208288.6694   22208294.8394
       211.0004        211.0004
 -19822908.71449 -15429305.02347  20562846.635    20562846.8074   20562853.0284
       207.0004        206.0004
 21  2  3  0 11 30.0000000  0  9G16G21G07G01G03G09G08G27G04
  -1023138.20646   -766731.19245  24683819.790    24683820.9604   24683826.3144
       132.0004        139.0004
 -11497234.78547  -8947897.42646  22487733.225    22487733.0024   22487738.1864
       163.0004        165.0004
  -7011525.87248  -5451720.55146  23480094.498    23480095.4154   23480098.5794
       170.0004        171.0004
  -4432409.82447  -3435561.20545  23739241.043    23739240.9894   23739250.9254
       145.0004        150.0004
    926867.14048    739540.35746  24496976.200    24496976.2944   24496985.4714
       170.0004        171.0004
 -19175431.56949 -14914683.83947  20894406.950    20894407.0484   20894414.1714
       211.0004        211.0004
 -22704618.29849 -17674043.41847  20259071.100    20259071.4794   20259079.0514
       211.0004        211.0004
 -14600293.11549 -11364777.58347  22225013.328    22225013.5364   22225019.6424
       211.0004        211.0004
 -19778036.52949 -15394339.68447  20571385.591    20571385.9794   20571391.9754
       207.0004        206.0004
 21  2  3  0 12  0.0000000  0  9G16G21G07G01G03G09G08G27G04
   -948226.37947   -708358.32145  24698077.022    24698075.9664   24698082.0774
       135.0004        141.0004
 -11544074.65047  -8984395.96246  22478818.464    22478818.1264   22478824.6594
       163.0004        164.0004
  -7083317.81748  -5507662.30746  23466431.001    23466431.1724   23466437.0614
       169.0004        169.0004
  -4505959.05547  -3492872.24645  23725243.407    23725244.8454   23725254.9624
       147.0004        150.0004
    978710.96348    779938.05546  24506840.253    24506841.3104   24506850.0164
       169.0004        170.0004
 -19201458.88549 -14934964.85247  20889453.969    20889454.5414   20889460.9974
       210.0004        211.0004
 -22677240.75049 -17652710.24847  20264280.955    20264281.3324   20264288.7974
       211.0004        212.0004
 -14512054.69149 -11296020.35447  22241805.705    22241805.1754   22241810.8424
       211.0004        211.0004
 -19732646.62949 -15358970.93447  20580022.699    20580023.4354   20580029.0774
       207.0004        205.0004
 21  2  3  0 12 30.0000000  0  8G21G07G01G03G09G08G27G04
 -11590743.75047  -9020761.44246  22469936.857    22469937.4284   22469942.8034
       163.0004        164.0004
  -7155216.01948  -5563686.86746  23452750.652    23452751.0514   23452754.8984
       169.0004        170.0004
  -4579652.12047  -3550295.35445  23711219.716    23711221.4574   23711231.5714
       148.0004        152.0004
   1030325.00048    820156.71046  24516662.270    24516663.4464   24516672.5734
       170.0004        171.0004
 -19226928.61349 -14954811.39147  20884608.030    20884608.1394   20884614.5794
       211.0004        212.0004
 -22649288.05249 -17630928.91047  20269600.239    20269600.6754   20269607.8344
       211.0004        211.0004
 -14423469.57949 -11226992.99647  22258661.261    22258661.8844   22258668.6434
       211.0004        211.0004
 -19686739.76549 -15323199.36147  20588758.757    20588758.8174   20588765.2644
       206.0004        205.0004
 21  2  3  0 13  0.0000000  0  8G21G07G01G03G09G08G27G04
 -11637237.64947  -9056990.41446  22461089.731    22461089.9334   22461096.9384
       164.0004        165.0004
  -7227217.32548  -5619791.74946  23439047.750    23439048.6084   23439053.9224
       168.0004        169.0004
  -4653485.06847  -3607827.49145  23697170.304    23697171.7724   23697182.5064
       149.0004        151.0004
   1081709.12448    860196.20646  24526441.015    24526441.8114   24526451.7514
       170.0004        171.0004
 -19251838.43249 -14974221.63747  20879867.907    20879867.9354   20879874.6384
       211.0004        212.0004
 -22620760.86249 -17608699.91547  20275029.063    20275029.1424   20275036.2394
       211.0004        211.0004
 -14334539.30049 -11157696.66747  22275583.973    22275584.8144   22275591.4434
       211.0004        211.0004
 -19640316.09849 -15287025.06947  20597591.973    20597592.7474   20597599.2284
       206.0004        204.0004
 21  2  3  0 13 30.0000000  0  8G21G07G01G03G09G08G27G04
 -11683556.13047  -9093082.72246  22452275.931    22452276.3664   22452281.8604
       163.0004        163.0004
  -7299323.19348  -5675978.10246  23425326.794    23425327.9234   23425333.0144
       168.0004        171.0004
  -4727458.35647  -3665468.96745  23683094.686    23683094.5884   23683104.0284
       149.0004        152.0004
   1132858.90248    900053.06046  24536174.760    24536175.3004   24536184.7234
       169.0004        170.0004
 -19276190.35649 -14993197.15847  20875233.698    20875233.9924   20875240.6934
       211.0004        212.0004
 -22591662.42649 -17586025.80147  20280565.927    20280566.3474   20280573.5964
       211.0004        211.0004
 -14245269.52049 -11088135.79847  22292572.137    22292572.5904   22292579.1524
       211.0004        211.0004
 -19593380.14049 -15250451.60847  20606524.390    20606524.9784   20606530.9274
       205.0004        204.0004
 21  2  3  0 14  0.0000000  0  8G21G07G01G03G09G08G27G04
 -11729697.33947  -9129036.85646  22443496.468    22443495.5544   22443500.6854
       163.0004        165.0004
  -7371532.80448  -5732245.30746  23411587.984    23411588.1734   23411592.1564
       172.0004        175.0004
  -4801570.01847  -3723218.28045  23668991.674    23668992.7604   23669000.5874
       149.0004        152.0004
   1183772.08548    939725.59446  24545863.123    24545863.8444   24545873.0954
       168.0004        169.0004
 -19299984.16449 -15011737.78647  20870704.991    20870705.7554   20870712.1094
       211.0004        211.0004
 -22561995.09249 -17562908.37447  20286211.727    20286212.1284   20286218.8824
       211.0004        212.0004
 -14155663.84949 -11018313.17247  22309623.773    22309624.0454   22309630.6334
       212.0004        211.0004
 -19545934.16649 -15213480.70747  20615553.090    20615553.5164   20615558.9034
       205.0004        204.0004
 21  2  3  0 14 30.0000000  0  8G21G07G01G03G09G08G27G04
 -11775657.84547  -9164850.20946  22434750.432    22434749.0534   22434756.0094
       164.0004        166.0004
  -7443844.79148  -5788592.28546  23397825.810    23397826.8304   23397831.6414
       173.0004        174.0004
  -4875817.04147  -3781073.10245  23654863.087    23654863.9774   23654871.6134
       149.0004        152.0004
   1234447.70248    979212.99446  24555507.290    24555507.0954   24555516.9794
       169.0004        171.0004
 -19323218.57449 -15029842.51447  20866284.490    20866284.4864   20866290.9704
       211.0004        211.0004
 -22531759.84949 -17539348.43147  20291965.178    20291965.5984   20291972.8884
       211.0004        212.0004
 -14065724.61549 -10948230.64647  22326738.110    22326738.5214   22326745.2364
       212.0004        211.0004
 -19497979.36849 -15176113.34647  20624678.207    20624679.0514   20624684.5714
       205.0004        203.0004
 21  2  3  0 15  0.0000000  0  8G21G07G01G03G09G08G27G04
 -11821434.27647  -9200520.11046  22426038.473    22426038.7224   22426045.3574
       164.0004        165.0004
  -7516256.83948  -5845017.23146  23384046.177    23384047.5554   23384050.9944
       173.0004        174.0004
  -4950196.49247  -3839031.09345  23640710.107    23640710.5634   23640718.7544
       150.0004        153.0004
   1284884.71148   1018514.44646  24565104.973    24565104.8284   24565114.1904
       168.0004        168.0004
 -19345892.38049 -15047510.40647  20861969.636    20861969.7304   20861976.5484
       211.0004        212.0004
 -22500958.00349 -17515346.97647  20297826.470    20297827.0914   20297834.3144
       211.0004        212.0004
 -13975454.39449 -10877890.20347  22343915.088    22343915.8394   22343923.3224
       211.0004        211.0004
 -19449517.04649 -15138350.49647  20633900.925    20633901.0694   20633906.6554
       205.0004        203.0004
 21  2  3  0 15 30.0000000  0  8G21G07G01G03G09G08G27G04
 -11867023.40748  -9236044.06446  22417364.890    22417364.3474   22417368.1344
       165.0004        166.0004
  -7588767.25848  -5901518.84846  23370250.048    23370248.5944   23370252.7524
       174.0004        174.0004
  -5024705.52347  -3897090.01645  23626531.107    23626531.6374   23626539.5144
       150.0004        153.0004
   1335081.83547   1057629.00946  24574653.902    24574655.3764   24574665.6824
       164.0004        164.0004
 -19368004.47449 -15064740.59847  20857762.174    20857762.2024   20857768.8834
       212.0004        212.0004
 -22469590.74549 -17490904.93447  20303795.116    20303796.0744   20303803.3474
       211.0004        212.0004
 -13884855.68949 -10807293.80147  22361156.440    22361156.3484   22361163.0464
       210.0004        209.0004
 -19400548.54249 -15100193.21947  20643218.957    20643219.3544   20643225.3434
       205.0004        203.0004
 21  2  3  0 16  0.0000000  0  8G21G07G01G03G09G08G27G04
 -11912424.15947  -9271421.24746  22408724.205    22408724.9164   22408728.7364
       164.0004        166.0004
  -7661376.03748  -5958097.08246  23356430.474    23356430.9364   23356435.6154
       170.0004        169.0004
  -5099342.86147  -3955248.95845  23612328.693    23612328.7514   23612336.2994
       151.0004        154.0004
   1385036.32748   1096554.51246  24584163.065    24584163.2114   24584171.9944
       166.0004        168.0004
 -19389555.45749 -15081533.55247  20853660.419    20853660.8594   20853667.6804
       211.0004        212.0004
 -22437660.53449 -17466024.23047  20309871.946    20309872.2354   20309879.5934
       211.0004        212.0004
 -13793932.80049 -10736444.76647  22378457.849    22378458.6924   22378465.1464
       210.0004        209.0004
 -19351076.95549 -15061643.92447  20652633.262    20652633.8844   20652639.7834
       205.0004        204.0004
 21  2  3  0 16 30.0000000  0  8G21G07G01G03G09G08G27G04
 -11957632.24547  -9306648.28946  22400122.086    22400122.0204   22400127.1084
       164.0004        165.0004
  -7734080.27048  -6014749.70746  23342596.766    23342596.4624   23342599.6774
       169.0004        171.0004
  -5174104.38447  -4013504.64645  23598102.714    23598102.7374   23598110.0394
       152.0004        156.0004
   1434748.22848   1135290.96746  24593623.500    24593623.4884   24593632.1074
       169.0004        171.0004
 -19410543.08749 -15097887.54347  20849667.070    20849667.2424   20849673.8844
       211.0004        212.0004
 -22405167.50049 -17440704.96747  20316054.749    20316055.1704   20316062.5564
       211.0004        212.0004
 -13702687.12749 -10665344.22347  22395821.387    22395821.6814   22395828.5574
       209.0004        208.0004
 -19301102.48149 -15022702.77947  20662142.946    20662143.2264   20662149.5984
       205.0004        203.0004
 21  2  3  0 17  0.0000000  0  8G21G07G01G03G09G08G27G04
 -12002646.03247  -9341723.95946  22391555.984    22391555.6214   22391561.8364
       164.0004        165.0004
  -7806880.12348  -6071476.85146  23328741.922    23328743.0324   23328747.3924
       171.0004        172.0004
  -5248989.25947  -4071856.49545  23583852.770    23583852.4544   23583860.0784
       154.0004        157.0004
   1484214.28848   1173835.87146  24603036.552    24603036.9204   24603045.5704
       171.0004        173.0004
 -19430968.42349 -15113803.38247  20845779.960    20845780.1164   20845787.0644
       211.0004        212.0004
 -22372114.62449 -17414949.46647  20322344.847    20322345.0774   20322352.5824
       211.0004        211.0004
 -13611123.26549 -10593995.75847  22413244.260    22413245.3704   22413252.8824
       208.0004        208.0004
 -19250628.64149 -14983372.52247  20671748.131    20671748.7144   20671753.9424
       204.0004        203.0004
 21  2  3  0 17 30.0000000  0  8G21G07G01G03G09G08G27G04
 -12047460.90648  -9376644.60746  22383028.487    22383027.8124   22383032.9484
       165.0004        165.0004
  -7879772.25448  -6128275.87746  23314871.318    23314871.2454   23314876.7834
       172.0004        172.0004
  -5323992.99747  -4130300.91545  23569577.728    23569578.5144   23569586.5574
       154.0004        156.0004
   1533435.01048   1212189.62146  24612401.813    24612402.5544   24612411.9164
       170.0004        171.0004
 -19450828.91249 -15129279.07647  20842000.038    20842000.5924   20842008.0814
       212.0004        212.0004
 -22338502.05249 -17388757.83347  20328741.548    20328741.3024   20328748.7404
       211.0004        211.0004
 -13519242.27249 -10522400.17147  22430729.382    22430730.0024   22430737.0414
       208.0004        208.0004
 -19199655.32649 -14943653.05447  20681447.722    20681448.1454   20681453.8894
       204.0004        202.0004
 21  2  3  0 18  0.0000000  0  8G21G07G01G03G09G08G27G04
 -12092075.34248  -9411409.06746  22374538.710    22374537.6504   22374543.8074
       165.0004        166.0004
  -7952756.19248  -6185146.43146  23300983.004    23300982.7844   23300988.0834
       172.0004        172.0004
  -5399113.82747  -4188836.59045  23555283.384    23555283.7704   23555292.3244
       153.0004        155.0004
   1582408.17048   1250350.43646  24621721.060    24621721.9604   24621731.3834
       170.0004        170.0004
 -19470124.75549 -15144314.79147  20838328.867    20838329.1414   20838335.8934
       212.0004        212.0004
 -22304331.81849 -17362131.66247  20335243.706    20335243.6334   20335251.3394
       211.0004        211.0004
 -13427047.89549 -10450560.37647  22448273.435    22448274.1844   22448280.9914
       208.0004        207.0004
 -19148185.16349 -14903546.44447  20691242.172    20691242.5414   20691248.4094
       203.0004        202.0004
 21  2  3  0 18 30.0000000  0  8G21G07G01G03G09G08G27G04
 -12136486.64948  -9446015.24746  22366087.159    22366086.5044   22366092.0324
       165.0004        166.0004
  -8025830.57648  -6242087.50146  23287077.714    23287078.2264   23287081.4544
       170.0004        170.0004
  -5474349.50947  -4247461.74645  23540965.855    23540966.5464   23540975.2804
       152.0004        155.0004
   1631131.80948   1288316.82446  24630992.873    24630993.4774   24631003.8204
       169.0004        169.0004
 -19488855.73749 -15158910.36047  20834764.415    20834764.5224   20834771.7444
       212.0004        212.0004
 -22269606.10049 -17335072.65547  20341851.470    20341851.5174   20341858.6764
       211.0004        211.0004
 -13334543.42449 -10378478.96947  22465876.874    22465877.2074   22465884.1734
       208.0004        207.0004
 -19096220.45049 -14863054.46247  20701130.062    20701130.5194   20701136.6344
       203.0004        201.0004
 21  2  3  0 19  0.0000000  0  8G21G07G01G03G09G08G27G04
 -12180692.29747  -9480461.16646  22357673.291    22357673.4824   22357679.8204
       164.0004        166.0004
  -8098994.13648  -6299098.05146  23273155.195    23273155.5854   23273159.4594
       170.0004        172.0004
  -5549697.53147  -4306174.47245  23526627.773    23526628.9914   23526637.4574
       153.0004        157.0004
   1679604.42748   1326087.61846  24640216.243    24640217.0264   24640227.5494
       167.0004        168.0004
 -19507021.44349 -15173065.45247  20831307.192    20831307.6574   20831314.8474
       212.0004        212.0004
 -22234326.99449 -17307582.42247  20348564.409    20348564.8704   20348572.3334
       211.0004        211.0004
 -13241732.04549 -10306158.39547  22483539.464    22483538.9014   22483545.5944
       207.0004        207.0004
 -19043763.16849 -14822178.65447  20711112.615    20711113.2584   20711119.4784
       202.0004        201.0004
 21  2  3  0 19 30.0000000  0  8G21G07G01G03G09G08G27G04
 -12224689.59147  -9514744.74546  22349302.853    22349302.1614   22349307.5904
       164.0004        166.0004
  -8172246.14548  -6356177.49046  23259216.135    23259215.9614   23259221.2314
       172.0004        174.0004
  -5625155.81747  -4364973.10745  23512268.474    23512267.9354   23512277.6954
       153.0004        156.0004
   1727824.17148   1363661.37446  24649393.327    24649394.1424   24649403.2094
       167.0004        168.0004
 -19524621.78149 -15186779.99247  20827958.474    20827958.6054   20827965.4414
       212.0004        212.0004
 -22198496.03849 -17279662.17647  20355382.660    20355383.1154   20355390.6294
       210.0004        211.0004
 -13148617.09149 -10233601.27847  22501258.837    22501258.7724   22501265.0094
       208.0004        208.0004
 -18990815.66949 -14780920.86447  20721188.966    20721189.0994   20721195.0344
       203.0004        202.0004
 21  2  3  0 20  0.0000000  0  8G21G07G01G03G09G08G27G04
 -12268475.75147  -9548863.81146  22340970.983    22340970.4774   22340974.7154
       164.0004        165.0004
  -8245584.47648  -6413324.23246  23245259.395    23245260.3834   23245263.4144
       171.0004        169.0004
  -5700721.41247  -4423855.35645  23497888.841    23497889.7684   23497898.3584
       154.0004        157.0004
   1775789.79148   1401037.09846  24658521.663    24658521.8454   24658532.4634
       169.0004        171.0004
 -19541656.04349 -15200053.44848  20824716.582    20824717.3714   20824723.7554
       212.0004        213.0004
 -22162115.08049 -17251313.36047  20362305.611    20362306.1344   20362313.5934
       210.0004        210.0004
 -13055201.33449 -10160809.77547  22519034.276    22519034.6534   22519041.6454
       207.0004        206.0004
 -18937379.66749 -14739282.42547  20731357.142    20731357.6614   20731363.8924
       203.0004        202.0004
 21  2  3  0 20 30.0000000  0  8G21G07G01G03G09G08G27G04
 -12312048.32847  -9582816.43146  22332677.810    22332677.7364   22332683.5974
       164.0004        166.0004
  -8319007.70948  -6470537.11846  23231287.874    23231288.7634   23231292.1814
       169.0004        171.0004
  -5776391.90547  -4482819.34945  23483488.700    23483489.3154   23483498.6344
       154.0004        155.0004
   1823499.74448   1438213.59846  24667600.235    24667601.0084   24667610.8184
       170.0004        171.0004
 -19558123.89249 -15212885.53348  20821582.911    20821583.0564   20821590.4244
       212.0004        213.0004
 -22125186.07949 -17222537.49447  20369333.561    20369333.8124   20369340.8224
       210.0004        210.0004
 -12961487.91049 -10087786.32047  22536866.938    22536867.4534   22536874.2434
       207.0004        206.0004
 -18883457.22249 -14697264.94247  20741618.320    20741619.0884   20741624.5794
       203.0004        201.0004
 21  2  3  0 21  0.0000000  0  8G21G07G01G03G09G08G27G04
 -12355403.70248  -9616599.79846  22324427.980    22324428.2884   22324432.4934
       165.0004        168.0004
  -8392513.83848  -6527814.59546  23217301.402    23217300.7904   23217304.4454
       170.0004        172.0004
  -5852163.94947  -4541862.46545  23469068.639    23469070.0024   23469078.8194
       153.0004        155.0004
   1870953.37348   1475190.36446  24676629.726    24676630.5924   24676640.3454
       169.0004        170.0004
 -19574024.20749 -15225275.37847  20818556.900    20818557.3874   20818564.4184
       212.0004        212.0004
 -22087709.93749 -17193335.28647  20376464.587    20376465.3684   20376472.5594
       210.0004        210.0004
 -12867479.00249 -10014532.61947  22554755.887    22554756.4444   22554763.3674
       205.0004        204.0004
 -18829049.64249 -14654869.42647  20751972.176    20751972.4464   20751977.9714
       203.0004        202.0004
 21  2  3  0 21 30.0000000  0  8G21G07G01G03G09G08G27G04
 -12398539.66048  -9650212.21546  22316221.053    22316220.4794   22316224.3924
       166.0004        166.0004
  -8466102.00848  -6585156.01046  23203295.457    23203297.1674   23203301.2544
       169.0004        170.0004
  -5928035.50847  -4600983.09545  23454631.211    23454632.8474   23454640.6174
       153.0004        156.0004
   1918148.57948   1511965.78846  24685609.879    24685610.9994   24685621.3464
       168.0004        168.0004
 -19589357.25449 -15237223.20748  20815640.008    20815640.0574   20815646.6004
       212.0004        213.0004
 -22049688.95149 -17163708.52447  20383699.539    20383700.1584   20383707.7684
       210.0004        211.0004
 -12773178.33649  -9941051.58647  22572701.469    22572701.3984   22572708.6814
       205.0004        205.0004
 -18774159.55449 -14612097.93847  20762416.479    20762417.4224   20762423.3084
       203.0004        201.0004
 21  2  3  0 22  0.0000000  0  8G21G07G01G03G09G08G27G04
 -12441452.70848  -9683650.89046  22308052.887    22308053.1414   22308058.2554
       165.0004        163.0004
  -8539769.75348  -6642559.39246  23189277.515    23189279.1474   23189283.6324
       171.0004        174.0004
  -6004003.07047  -4660178.55645  23440174.585    23440175.8804   23440185.8734
       154.0004        157.0004
   1965084.89648   1548539.47946  24694543.182    24694543.4044   24694553.1744
       168.0004        170.0004
 -19604121.74349 -15248727.98648  20812829.850    20812830.3334   20812837.0724
       213.0004        213.0004
 -22011124.44749 -17133658.23647  20391037.961    20391038.4904   20391046.2174
       210.0004        210.0004
 -12678588.01749  -9867344.81647  22590700.724    22590701.0024   22590708.1074
       204.0004        203.0004
 -18718788.10549 -14568951.34647  20772953.675    20772953.9084   20772960.4664
       202.0004        201.0004
 21  2  3  0 22 30.0000000  0  8G21G07G01G03G09G08G27G04
 -12484141.50747  -9716914.84646  22299929.592    22299929.3864   22299935.7954
       164.0004        165.0004
  -8613516.64748  -6700024.47646  23175244.598    23175245.1204   23175248.9544
       172.0004        173.0004
  -6080065.09647  -4719447.60845  23425700.929    23425701.7854   23425711.3904
       154.0004        156.0004
   2011759.78748   1584909.48746  24703425.216    24703425.6834   24703435.7554
       171.0004        172.0004
 -19618318.46649 -15259790.36948  20810128.522    20810128.8954   20810135.6164
       213.0004        213.0004
 -21972019.40149 -17103186.76047  20398480.299    20398480.6064   20398487.3264
       210.0004        210.0004
 -12583712.11049  -9793415.54147  22608754.126    22608755.1424   22608762.7504
       204.0004        204.0004
 -18662938.47349 -14525432.15747  20783581.365    20783581.6364   20783588.1054
       202.0004        201.0004
 21  2  3  0 23  0.0000000  0  8G21G07G01G03G09G08G27G04
 -12526602.71247  -9750001.47946  22291850.995    22291850.4384   22291855.9254
       164.0004        166.0004
  -8687340.78648  -6757549.75046  23161196.362    23161197.2164   23161199.9864
       171.0004        171.0004
  -6156218.67547  -4778788.03045  23411209.924    23411210.8164   23411220.0184
       154.0004        156.0004
   2058172.21948   1621074.93246  24712256.369    24712257.0014   24712267.9044
       170.0004        170.0004
 -19631946.81349 -15270409.85548  20807534.934    20807535.2224   20807542.3044
       213.0004        214.0004
 -21932374.85649 -17072294.89347  20406024.048    20406024.4754   20406031.5564
       210.0004        210.0004
 -12488553.37749  -9719265.86947  22626862.820    22626863.1394   22626870.8924
       204.0004        204.0004
 -18606612.42149 -14481541.72547  20794300.264    20794300.8954   20794305.9874
       202.0004        201.0004
 21  2  3  0 23 30.0000000  0  8G21G07G01G03G09G08G27G04
 -12568834.03747  -9782908.96445  22283811.371    22283810.1664   22283818.7534
       162.0004        161.0004
  -8761241.00648  -6815134.32046  23147134.027    23147134.5834   23147138.1664
       171.0004        173.0004
  -6232461.28747  -4838197.83945  23396702.455    23396702.8714   23396711.1434
       153.0004        155.0004
   2104320.49548   1657034.57746  24721037.501    24721038.0754   24721049.8334
       168.0004        169.0004
 -19645006.70949 -15280586.39848  20805049.739    20805050.1814   20805056.8834
       213.0004        214.0004
 -21892193.03149 -17040984.37147  20413669.546    20413670.4444   20413678.3404
       210.0004        210.0004
 -12393114.98449  -9644898.29447  22645025.845    22645025.0174   22645032.0354
       203.0004        204.0004
 -18549812.21549 -14437281.83647  20805109.383    20805109.3294   20805114.8854
       202.0004        201.0004
 21  2  3  0 24  0.0000000  0  8G21G07G01G03G09G08G27G04
 -12610832.34647  -9815634.83646  22275818.379    22275819.3464   22275826.4984
       161.0004        163.0004
  -8835215.85148  -6872776.99146  23133055.440    23133057.0774   23133061.5864
       171.0004        172.0004
  -6308790.43447  -4897675.05445  23382176.039    23382176.5034   23382186.8324
       152.0004        154.0004
   2150203.21548   1692787.27446  24729770.983    24729771.3634   24729781.3424
       171.0004        173.0004
 -19657498.09449 -15290319.93948  20802673.049    20802673.1904   20802680.0274
       213.0004        214.0004
 -21851476.43949 -17009257.14047  20421419.042    20421419.0714   20421426.6054
       210.0004        210.0004
 -12297400.16149  -9570315.31847  22663237.776    22663239.0024   22663245.9324
       203.0004        203.0004
 -18492540.19349 -14392654.27547  20816007.084    20816007.5064   20816013.9184
       202.0004        201.0004
 21  2  3  0 24 30.0000000  0  8G21G07G01G03G09G08G27G04
 -12652595.37447  -9848177.43446  22267877.141    22267875.8274   22267879.4024
       164.0004        169.0004
  -8909263.30748  -6930476.27446  23118966.673    23118966.5584   23118969.9664
       171.0004        172.0004
  -6385202.93247  -4957217.20945  23367636.271    23367636.6794   23367645.3994
       151.0004        154.0004
   2195819.42848   1728332.27246  24738452.985    24738452.9524   24738460.5214
       171.0004        172.0004
 -19669420.28249 -15299609.94848  20800403.642    20800403.9664   20800411.1764
       213.0004        213.0004
 -21810226.36149 -16977114.20947  20429267.960    20429268.3444   20429276.0314
       209.0004        210.0004
 -12201411.42749  -9495518.89347  22681505.073    22681504.9234   22681511.5444
       202.0004        201.0004
 -18434797.99149 -14347660.35347  20826995.381    20826995.5364   20827002.1604
       202.0004        201.0004
 21  2  3  0 25  0.0000000  0  8G21G07G01G03G09G08G27G04
 -12694121.66548  -9880535.59646  22259974.249    22259973.2914   22259976.9074
       168.0004        169.0004
  -8983383.35148  -6988232.14346  23104861.143    23104862.1274   23104865.4614
       172.0004        174.0004
  -6461697.88047  -5016823.60845  23353079.876    23353079.8624   23353089.3564
       152.0004        155.0004
   2241166.07448   1763667.21146  24747078.598    24747079.1414   24747088.7104
       167.0004        166.0004
 -19680774.83549 -15308457.65848  20798243.300    20798243.4334   20798250.5554
       213.0004        213.0004
 -21768446.43649 -16944558.41647  20437218.475    20437218.8424   20437226.2984
       209.0004        210.0004
 -12105153.57449  -9420512.77147  22699821.360    22699822.4354   22699829.0604
       202.0004        202.0004
 -18376589.52049 -14302303.11047  20838072.021    20838072.3034   20838078.3724
       202.0004        201.0004
 21  2  3  0 25 30.0000000  0  8G21G07G01G03G09G08G27G04
 -12735406.46448  -9912705.53346  22252115.517    22252114.3804   22252120.1204
       167.0004        167.0004
  -9057572.52948  -7046041.85046  23090743.881    23090743.4464   23090747.7454
       173.0004        174.0004
  -6538270.53547  -5076490.54645  23338507.890    23338508.9834   23338516.2654
       153.0004        156.0004
   2286243.83948   1798792.64346  24755656.806    24755657.7254   24755667.8864
       165.0004        166.0004
 -19691559.54649 -15316861.32148  20796191.206    20796191.5244   20796197.9514
       213.0004        213.0004
 -21726136.77349 -16911589.82347  20445269.474    20445269.9464   20445277.3834
       209.0004        210.0004
 -12008627.59449  -9345297.68147  22718190.489    22718191.0254   22718196.9314
       202.0004        202.0004
 -18317914.90949 -14256582.63247  20849237.060    20849237.8544   20849243.8514
       202.0004        200.0004
 21  2  3  0 26  0.0000000  0  8G21G07G01G03G09G08G27G04
 -12776447.42747  -9944685.43346  22244303.037    22244303.2604   22244311.1954
       163.0004        163.0004
  -9131829.76148  -7103904.59846  23076612.269    23076612.9724   23076616.9294
       173.0004        175.0004
  -6614918.66847  -5136216.32245  23323922.124    23323922.1934   23323931.4954
       151.0004        154.0004
   2331051.01248   1833707.25146  24764185.578    24764185.3494   24764195.6354
       168.0004        170.0004
 -19701774.72149 -15324821.19448  20794247.564    20794247.6484   20794254.0924
       213.0004        213.0004
 -21683299.68749 -16878210.27447  20453421.839    20453422.0354   20453428.9594
       209.0004        210.0004
 -11911836.96649  -9269876.41747  22736609.137    22736609.6534   22736615.6994
       202.0004        202.0004
 -18258776.78949 -14210500.98447  20860491.145    20860491.0804   20860497.6384
       202.0004        200.0004
 21  2  3  0 26 30.0000000  0  8G21G07G01G03G09G08G27G04
 -12817240.85547  -9976472.47746  22236542.005    22236541.3114   22236547.3434
       163.0004        165.0004
  -9206152.23948  -7161818.18646  23062468.496    23062469.1094   23062473.6064
       174.0004        176.0004
  -6691638.56847  -5195997.99645  23309322.646    23309323.1284   23309332.2284
       151.0004        154.0004
   2375587.06448   1868410.60046  24772658.089    24772659.3014   24772670.7054
       168.0004        170.0004
 -19711419.40449 -15332336.52548  20792411.632    20792412.0964   20792419.2024
       213.0004        214.0004
 -21639936.39849 -16844420.67647  20461673.055    20461673.5114   20461680.9664
       209.0004        210.0004
 -11814783.79549  -9194250.56347  22755077.390    22755078.1594   22755084.4094
       202.0004        201.0004
 -18199176.51949 -14164059.21747  20871832.257    20871832.8654   20871838.3424
       201.0004        199.0004
 21  2  3  0 27  0.0000000  0  8G21G07G01G03G09G08G27G04
 -12857785.29448 -10008065.51946  22228827.228    22228827.1904   22228832.3944
       165.0004        167.0004
  -9280539.26648  -7219782.07446  23048314.909    23048314.8344   23048318.7004
       176.0004        179.0004
  -6768428.15447  -5255833.96845  23294710.867    23294710.7294   23294719.7604
       152.0004        155.0004
   2419850.16548   1902901.24146  24781082.693    24781082.5614   24781093.3194
       169.0004        169.0004
 -19720494.10849 -15339407.73048  20790684.935    20790685.1064   20790691.9364
       213.0004        214.0004
 -21596049.47749 -16810223.06847  20470024.595    20470024.8974   20470032.2194
       209.0004        209.0004
 -11717471.75049  -9118423.00647  22773595.360    22773595.9724   22773601.9104
       200.0004        200.0004
 -18139116.94649 -14117259.55947  20883261.405    20883261.8954   20883268.0084
       201.0004        200.0004
 21  2  3  0 27 30.0000000  0  8G21G07G01G03G09G08G27G04
 -12898079.60148 -10039463.63846  22221160.781    22221160.4264   22221164.8844
       168.0004        171.0004
  -9354990.43848  -7277795.95546  23034147.354    23034147.3174   23034151.5684
       177.0004        178.0004
  -6845286.12847  -5315723.23045  23280084.007    23280084.7004   23280094.5204
       153.0004        156.0004
   2463837.62148   1937177.05446  24789453.940    24789453.9244   24789463.0194
       167.0004        168.0004
 -19729000.20249 -15346035.84748  20789066.469    20789066.5694   20789073.5504
       213.0004        214.0004
 -21551642.52349 -16775620.22947  20478474.958    20478475.2904   20478482.6234
       209.0004        209.0004
 -11619905.23249  -9042397.12747  22792161.345    22792161.6284   22792168.5484
       200.0004        200.0004
 -18078601.68849 -14070104.81147  20894777.306    20894777.6524   20894783.1674
       201.0004        200.0004
 21  2  3  0 28  0.0000000  0  7G21G07G01G09G08G27G04
 -12938113.34248 -10070658.73846  22213542.698    22213541.1994   22213546.1624
       169.0004        170.0004
  -9429496.84148  -7335852.85746  23019969.199    23019969.5164   23019972.3104
       177.0004        177.0004
  -6922202.50647  -5375658.01945  23265447.074    23265447.9944   23265456.9034
       153.0004        156.0004
 -19736930.45749 -15352215.25648  20787557.032    20787557.4474   20787564.4604
       213.0004        213.0004
 -21506710.19449 -16740608.00347  20487024.741    20487025.5524   20487033.1194
       209.0004        209.0004
 -11522080.07649  -8966169.73647  22810777.413    22810777.9564   22810783.7714
       201.0004        202.0004
 -18017625.80749 -14022591.13647  20906380.635    20906381.1094   20906386.6524
       201.0004        200.0004
 21  2  3  0 28 30.0000000  0  7G21G07G01G09G08G27G04
 -12977892.22948 -10101655.24146  22205971.896    22205971.2924   22205977.8834
       169.0004        170.0004
  -9504065.14548  -7393958.00146  23005778.892    23005779.1524   23005783.0834
       178.0004        179.0004
  -6999182.74047  -5435642.55445  23250798.954    23250799.7844   23250807.1264
       153.0004        155.0004
 -19744292.98849 -15357952.28948  20786156.529    20786156.6754   20786162.9324
       213.0004        213.0004
 -21461263.20649 -16705194.74147  20495673.987    20495674.2894   20495681.4734
       209.0004        210.0004
 -11424007.47149  -8889749.51047  22829438.750    22829439.9264   22829445.9014
       200.0004        199.0004
 -17956199.71649 -13974726.64647  20918069.583    20918069.9994   20918075.6144
       201.0004        199.0004
 21  2  3  0 29  0.0000000  0  7G21G07G01G09G08G27G04
 -13017412.45148 -10132450.17046  22198451.501    22198451.3744   22198456.6974
       169.0004        170.0004
  -9578692.72848  -7452109.32446  22991577.065    22991578.1554   22991582.3584
       179.0004        180.0004
  -7076222.95247  -5495673.82745  23236138.100    23236139.6854   23236148.6134
       154.0004        157.0004
 -19751086.80749 -15363246.16648  20784863.338    20784863.8464   20784870.7344
       213.0004        214.0004
 -21415302.26549 -16669381.00247  20504419.823    20504420.2644   20504427.5204
       209.0004        210.0004
 -11325689.39349  -8813138.00547  22848149.282    22848149.8554   22848155.6644
       201.0004        202.0004
 -17894324.72149 -13926512.35947  20929843.885    20929844.2114   20929849.7194
       201.0004        199.0004
 21  2  3  0 29 30.0000000  0  7G21G07G01G09G08G27G04
 -13056672.20748 -10163042.17946  22190980.600    22190979.3814   22190985.9494
       168.0004        168.0004
  -9653378.35248  -7510305.89946  22977364.531    22977365.8044   22977370.1434
       179.0004        178.0004
  -7153320.87947  -5555750.09545  23221467.315    23221467.6714   23221477.1814
       156.0004        158.0004
 -19757312.53049 -15368097.39248  20783678.393    20783678.9604   20783685.8574
       213.0004        214.0004
 -21368830.59649 -16633169.31147  20513263.261    20513263.3304   20513270.5714
       209.0004        209.0004
 -11227129.37549  -8736337.99747  22866905.298    22866905.5454   22866910.6834
       202.0004        201.0004
