     2.11           OBSERVATION DATA    G (GPS)             RINEX VERSION / TYPE
teqc  2018Jun8                          20210202 03:10:44UTCPGM / RUN BY / DATE
Linux2.6.32-573.12.1.el6.x86_64|x86_64|gcc|Win64-MinGW64|=+ COMMENT
BIT 2 OF LLI FLAGS DATA COLLECTED UNDER A/S CONDITION       COMMENT
-Unknown-                                                   MARKER NAME
CRNO                                                        MARKER NUMBER
-Unknown-           -Unknown-                               OBSERVER / AGENCY
-Unknown-           ASHTECH             -Unknown-           REC # / TYPE / VERS
-Unknown-           -Unknown-                               ANT # / TYPE
   408079.1861 -6158375.0155  1605162.9745                  APPROX POSITION XYZ
        0.0000        0.0000        0.0000                  ANTENNA: DELTA H/E/N
     1     1                                                WAVELENGTH FACT L1/2
     7    L1    L2    C1    P1    P2    S1    S2            # / TYPES OF OBSERV
    30.0000                                                 INTERVAL
Forced Modulo Decimation to 30 seconds                      COMMENT
 SNR is mapped to RINEX snr flag value [1-9]                COMMENT
  L1: 1 -> 1;  90 -> 5; 210 -> 9                            COMMENT
  L2: 1 -> 1; 150 -> 5; 250 -> 9                            COMMENT
pseudorange smoothing corrections not applied               COMMENT
  2021     2     3     0     0   30.0000000     GPS         TIME OF FIRST OBS
                                                            END OF HEADER
 21  2  3  0  0 30.0000000  0  8G08G09G21G30G07G27G04G01
 -18557122.00349 -14417260.03047  21118367.272    21118368.0194   21118375.4184
       199.0004        200.0004
 -18118208.84749 -13765146.45948  20889206.775    20889207.1254   20889214.5864
       212.0004        213.0004
 -15741036.27648 -11948544.70546  21847419.802    21847419.7474   21847424.9224
       178.0004        179.0004
  -2167118.30047  -1669564.08945  24114235.940    24114236.2644   24114243.7774
       156.0004        158.0004
 -13333679.01648 -10373364.94747  22147819.765    22147820.4274   22147825.3464
       188.0004        189.0004
  -5175324.23448  -4016563.29846  23983005.315    23983004.4614   23983011.3974
       176.0004        175.0004
 -14258785.53248 -11059352.08146  21764789.340    21764789.1454   21764795.0794
       189.0004        187.0004
 -11927532.60048  -9282708.86746  22400138.506    22400139.8404   22400148.7144
       171.0004        173.0004
 21  2  3  0  1  0.0000000  0  8G08G09G21G30G07G27G04G01
 -18486211.13049 -14362004.79547  21131861.633    21131862.4204   21131869.4414
       199.0004        199.0004
 -18091603.11649 -13744414.73348  20894270.155    20894270.6344   20894277.5004
       212.0004        213.0004
 -15761899.68148 -11964801.85946  21843448.508    21843448.6684   21843454.0694
       178.0004        178.0004
  -2252542.67847  -1736128.49645  24097982.284    24097981.2304   24097988.0734
       155.0004        157.0004
 -13408098.10348 -10431353.82347  22133657.785    22133658.9514   22133664.2354
       190.0004        191.0004
  -5067729.72948  -3932723.44646  24003479.303    24003479.7014   24003485.9804
       173.0004        174.0004
 -14174426.27748 -10993617.59647  21780841.901    21780842.5754   21780848.4904
       188.0004        188.0004
 -12003087.09748  -9341582.44246  22385761.824    22385761.8454   22385771.1954
       172.0004        172.0004
 21  2  3  0  1 30.0000000  0  8G08G09G21G30G07G27G04G01
 -18414932.42649 -14306462.91647  21145425.645    21145425.4514   21145433.0664
       198.0004        198.0004
 -18064478.91549 -13723278.98348  20899431.487    20899431.6264   20899439.2034
       212.0004        213.0004
 -15782364.52548 -11980748.45246  21839555.087    21839555.7814   21839560.5324
       178.0004        178.0004
  -2338057.78547  -1802763.61245  24081708.151    24081708.9924   24081715.2744
       156.0004        159.0004
 -13482452.17348 -10489292.04047  22119510.680    22119510.5524   22119514.4164
       191.0004        192.0004
  -4960061.40648  -3848826.03646  24023966.530    24023966.9004   24023974.5494
       171.0004        170.0004
 -14089780.34048 -10927659.70146  21796949.220    21796950.1234   21796956.1314
       188.0004        187.0004
 -12078521.32748  -9400362.29646  22371406.448    22371407.1094   22371416.3484
       172.0004        174.0004
 21  2  3  0  2  0.0000000  0  8G08G09G21G30G07G27G04G01
 -18343290.74349 -14250638.23747  21159058.036    21159058.2894   21159066.1704
       197.0004        197.0004
 -18036838.81149 -13701741.25547  20904690.681    20904691.3634   20904698.8554
       212.0004        212.0004
 -15802429.77348 -11996383.67746  21835737.447    21835736.4424   21835742.5924
       179.0004        180.0004
  -2423663.13347  -1869469.01645  24065418.360    24065418.0724   24065425.5994
       157.0004        160.0004
 -13556739.58148 -10547178.33347  22105373.048    22105373.1934   22105378.0084
       191.0004        190.0004
  -4852323.06148  -3764874.10446  24044469.812    24044469.4654   24044476.6204
       172.0004        173.0004
 -14004851.59248 -10861481.47046  21813110.797    21813111.1434   21813117.4614
       188.0004        187.0004
 -12153833.00248  -9459046.66546  22357075.326    22357076.0724   22357084.5384
       173.0004        174.0004
 21  2  3  0  2 30.0000000  0  8G08G09G21G30G07G27G04G01
 -18271287.56149 -14194531.85147  21172759.955    21172760.4624   21172767.7734
       197.0004        197.0004
 -18008683.89349 -13679802.36247  20910048.741    20910049.0534   20910056.7744
       212.0004        212.0004
 -15822092.62948 -12011705.34746  21831995.330    21831994.3934   21832000.5104
       179.0004        179.0004
  -2509356.71047  -1936243.17545  24049110.521    24049111.0394   24049118.6764
       158.0004        161.0004
 -13630957.60948 -10605010.55047  22091249.472    22091250.2684   22091254.2954
       189.0004        189.0004
  -4744516.72748  -3680869.17546  24064984.618    24064983.8904   24064991.5504
       171.0004        172.0004
 -13919642.47948 -10795084.76946  21829325.199    21829325.5264   21829332.4914
       187.0004        187.0004
 -12229018.37548  -9517632.61146  22342769.204    22342769.6534   22342777.1134
       173.0004        174.0004
 21  2  3  0  3  0.0000000  0  8G08G09G21G30G07G27G04G01
 -18198926.31049 -14138146.47247  21186529.745    21186529.8744   21186537.4944
       197.0004        198.0004
 -17980016.26649 -13657463.96247  20915503.433    20915504.1964   20915512.0604
       211.0004        212.0004
 -15841351.75048 -12026712.42446  21828330.237    21828329.3994   21828335.8904
       179.0004        180.0004
  -2595137.47647  -2003085.30046  24032787.573    24032787.4804   24032795.8964
       161.0004        163.0004
 -13705104.24448 -10662787.13747  22077140.909    22077141.3604   22077144.8464
       190.0004        192.0004
  -4636645.60548  -3596813.77946  24085509.980    24085511.0044   24085518.3804
       172.0004        173.0004
 -13834156.36048 -10728472.21746  21845592.985    21845593.4924   21845599.5524
       187.0004        185.0004
 -12304074.62948  -9576117.95146  22328486.868    22328486.9894   22328494.9414
       174.0004        176.0004
 21  2  3  0  3 30.0000000  0  8G08G09G21G30G07G27G04G01
 -18126209.51549 -14081484.02547  21200367.512    21200367.8474   21200375.0314
       197.0004        198.0004
 -17950837.55249 -13634727.29247  20921056.477    20921056.8904   20921064.6214
       212.0004        212.0004
 -15860205.68348 -12041403.76746  21824741.817    21824741.6774   21824748.4904
       179.0004        179.0004
  -2681003.91747  -2069994.16245  24016448.891    24016447.8164   24016455.3524
       160.0004        161.0004
 -13779177.13948 -10720506.26147  22063044.842    22063045.4164   22063049.5174
       191.0004        191.0004
  -4528712.30248  -3512709.87746  24106049.058    24106050.2434   24106058.5464
       172.0004        173.0004
 -13748396.06348 -10661646.02246  21861912.106    21861912.4784   21861919.2804
       185.0004        185.0004
 -12378998.38548  -9634500.03546  22314228.368    22314228.6004   22314237.7444
       175.0004        176.0004
 21  2  3  0  4  0.0000000  0  8G08G09G21G30G07G27G04G01
 -18053140.30049 -14024546.96447  21214271.936    21214272.2554   21214279.6134
       197.0004        197.0004
 -17921148.94549 -13611593.31147  20926705.965    20926706.4634   20926713.6114
       212.0004        212.0004
 -15878651.50248 -12055777.09146  21821231.658    21821232.6714   21821237.3484
       179.0004        179.0004
  -2766954.00747  -2136968.21545  24000091.293    24000091.8314   24000098.2044
       157.0004        157.0004
 -13853173.34348 -10778165.62247  22048963.314    22048963.9024   22048967.7294
       191.0004        191.0004
  -4420719.03748  -3428559.30646  24126600.564    24126601.7964   24126607.4324
       172.0004        173.0004
 -13662364.13548 -10594608.16046  21878283.683    21878284.0894   21878290.9664
       185.0004        185.0004
 -12453785.94248  -9692775.96546  22299995.675    22299996.7694   22300005.7854
       175.0004        176.0004
 21  2  3  0  4 30.0000000  0  8G08G09G21G30G07G27G04G01
 -17979721.41449 -13967337.44947  21228242.554    21228243.3864   21228250.7134
       196.0004        196.0004
 -17890952.61849 -13588063.70047  20932452.081    20932452.7584   20932459.9474
       212.0004        212.0004
 -15896687.66248 -12069831.22046  21817801.141    21817800.4554   21817805.8034
       179.0004        180.0004
  -2852986.67147  -2204006.64345  23983721.339    23983720.8994   23983727.0184
       155.0004        156.0004
 -13927091.01548 -10835763.79447  22034897.123    22034897.7434   22034901.9194
       191.0004        191.0004
  -4312668.89248  -3344364.35846  24147163.479    24147163.3864   24147170.3604
       173.0004        175.0004
 -13576063.84048 -10527361.19546  21894706.287    21894706.7204   21894713.2434
       186.0004        185.0004
 -12528434.38948  -9750943.50546  22285789.753    22285791.4104   22285799.8884
       174.0004        175.0004
 21  2  3  0  5  0.0000000  0  8G08G09G21G30G07G27G04G01
 -17905956.21849 -13909858.06947  21242280.122    21242280.4564   21242287.5574
       196.0004        196.0004
 -17860250.78149 -13564140.18047  20938294.740    20938294.8514   20938302.6604
       211.0004        212.0004
 -15914312.75048 -12083565.01746  21814446.213    21814446.4384   21814450.5814
       180.0004        181.0004
  -2939100.79047  -2271108.52045  23967333.909    23967334.2374   23967340.9524
       155.0004        157.0004
 -14000927.89248 -10893299.00847  22020847.072    22020847.0224   22020851.4144
       191.0004        192.0004
  -4204564.97848  -3260127.57846  24167735.048    24167734.6964   24167741.3274
       175.0004        176.0004
 -13489498.64048 -10459907.79746  21911179.376    21911179.8394   21911186.2474
       185.0004        185.0004
 -12602940.98048  -9809000.51246  22271613.416    22271613.0864   22271622.1344
       174.0004        175.0004
 21  2  3  0  5 30.0000000  0  8G08G09G21G30G07G27G04G01
 -17831847.88049 -13852111.31347  21256382.701    21256383.1404   21256390.2854
       196.0004        196.0004
 -17829045.43749 -13539824.33447  20944232.973    20944233.3634   20944240.5104
       211.0004        212.0004
 -15931525.51448 -12096977.53046  21811170.566    21811170.6354   21811175.4784
       180.0004        180.0004
  -3025295.14047  -2338272.91245  23950929.551    23950930.2304   23950938.4724
       155.0004        158.0004
 -14074681.98148 -10950769.71247  22006811.856    22006812.4604   22006816.4114
       192.0004        192.0004
  -4096410.18948  -3175851.12946  24188314.450    24188315.2654   24188322.9064
       174.0004        175.0004
 -13402671.76448 -10392250.48646  21927701.588    21927702.0644   21927708.7724
       185.0004        184.0004
 -12677302.66548  -9866944.61046  22257462.360    22257463.1454   22257471.5144
       175.0004        177.0004
 21  2  3  0  6  0.0000000  0  8G08G09G21G30G07G27G04G01
 -17757397.66849 -13794098.16247  21270550.265    21270550.4974   21270557.5884
       196.0004        197.0004
 -17797336.25649 -13515115.88247  20950266.450    20950267.0064   20950274.5324
       211.0004        211.0004
 -15948321.69148 -12110065.42346  21807974.521    21807974.0524   21807979.6214
       180.0004        181.0004
  -3111565.99547  -2405496.88345  23934514.360    23934513.5424   23934521.3554
       155.0004        159.0004
 -14148348.60448 -11008172.27647  21992793.817    21992794.7104   21992798.5704
       193.0004        193.0004
  -3988205.05348  -3091535.46646  24208906.325    24208906.3944   24208913.0284
       174.0004        175.0004
 -13315583.97348 -10324389.87646  21944274.728    21944274.6634   21944281.1984
       185.0004        185.0004
 -12751514.06348  -9924771.60646  22243340.416    22243342.0674   22243349.5894
       176.0004        177.0004
 21  2  3  0  6 30.0000000  0  9G08G09G21G30G07G27G04G01G17
 -17682609.11449 -13735821.35547  21284781.674    21284782.2954   21284789.3724
       196.0004        197.0004
 -17765126.38849 -13490017.28647  20956396.528    20956396.9954   20956404.0074
       211.0004        212.0004
 -15964700.91648 -12122828.43246  21804858.034    21804857.2554   21804862.7664
       181.0004        181.0004
  -3197913.19547  -2472780.37945  23918081.817    23918082.3594   23918089.7164
       155.0004        158.0004
 -14221926.75448 -11065505.88147  21978792.524    21978792.8054   21978796.9554
       193.0004        193.0004
  -3879953.59648  -3007183.66946  24229504.771    24229505.7104   24229512.2574
       176.0004        177.0004
 -13228239.64948 -10256329.37446  21960895.322    21960895.4274   21960902.5274
       185.0004        184.0004
 -12825573.23548  -9982480.01146  22229247.146    22229248.3914   22229256.0224
       176.0004        177.0004
  -1532677.36054  -1176605.63745  24256637.235
        74.0004        140.0004
 21  2  3  0  7  0.0000000  0  9G08G09G21G30G07G27G04G01G17
 -17607485.47749 -13677283.43847  21299076.730    21299077.4034   21299085.1044
       196.0004        196.0004
 -17732417.59549 -13464529.91047  20962620.436    20962620.7254   20962628.2274
       212.0004        212.0004
 -15980661.38748 -12135265.13946  21801820.397    21801820.2024   21801825.2954
       180.0004        180.0004
  -3284335.06547  -2540122.07345  23901636.924    23901637.6454   23901644.3024
       157.0004        160.0004
 -14295414.25248 -11122768.86747  21964807.969    21964808.4764   21964812.4684
       192.0004        192.0004
  -3771658.38048  -2922797.78046  24250112.734    24250114.0154   24250120.0104
       176.0004        177.0004
 -13140641.72248 -10188071.26246  21977564.464    21977565.0624   21977571.4974
       185.0004        184.0004
 -12899476.90048 -10040067.23446  22215184.152    22215184.5404   22215192.7224
       176.0004        178.0004
  -1630446.58646  -1252788.88345  24238030.834    24238030.4754   24238040.4464
       133.0004        143.0004
 21  2  3  0  7 30.0000000  0  9G08G09G21G30G07G27G04G01G17
 -17532031.56649 -13618488.15947  21313435.102    21313435.9254   21313443.3734
       195.0004        196.0004
 -17699214.18149 -13438657.10447  20968938.555    20968939.6604   20968946.2544
       211.0004        211.0004
 -15996203.72748 -12147376.01046  21798862.807    21798862.6244   21798867.9864
       181.0004        181.0004
  -3370832.46247  -2607522.59945  23885178.319    23885177.7044   23885184.3234
       157.0004        159.0004
 -14368810.79648 -11179960.96947  21950840.855    21950841.4524   21950845.8844
       192.0004        193.0004
  -3663324.43748  -2838381.71146  24270727.875    24270729.0254   24270735.9674
       178.0004        179.0004
 -13052795.52948 -10119619.67146  21994279.991    21994281.4254   21994287.1864
       183.0004        183.0004
 -12973224.15348 -10097532.59646  22201150.036    22201150.2924   22201159.7624
       176.0004        177.0004
  -1728002.02246  -1328805.67545  24219466.853    24219466.7134   24219475.0914
       134.0004        140.0004
 21  2  3  0  8  0.0000000  0  9G08G09G21G30G07G27G04G01G17
 -17456250.51849 -13559437.97847  21327856.895    21327856.9794   21327863.9274
       196.0004        197.0004
 -17665517.80549 -13412400.18947  20975351.043    20975351.8854   20975358.7834
       211.0004        211.0004
 -16011325.54248 -12159159.22346  21795985.248    21795984.7544   21795990.9754
       182.0004        182.0004
  -3457403.63647  -2674980.60245  23868702.306    23868702.7704   23868710.5594
       155.0004        156.0004
 -14442113.63948 -11237080.05247  21936891.668    21936892.5214   21936896.7504
       193.0004        193.0004
  -3554954.13248  -2753937.33046  24291350.830    24291350.9524   24291357.5614
       177.0004        176.0004
 -12964703.85948 -10050976.81246  22011043.991    22011044.5484   22011050.8214
       183.0004        183.0004
 -13046811.42148 -10154873.31046  22187146.826    22187147.8704   22187156.3784
       177.0004        178.0004
  -1825341.10346  -1404653.91945  24200941.585    24200942.8684   24200949.6554
       134.0004        141.0004
 21  2  3  0  8 30.0000000  0  9G08G09G21G30G07G27G04G01G17
 -17380142.50349 -13500133.01047  21342340.322    21342340.4384   21342347.0804
       197.0004        197.0004
 -17631327.59449 -13385758.46047  20981858.555    20981858.0314   20981865.8134
       212.0004        212.0004
 -16026022.64548 -12170611.47846  21793188.013    21793187.7294   21793194.2894
       182.0004        182.0004
  -3544044.14247  -2742492.65745  23852215.747    23852216.3324   23852223.0964
       154.0004        155.0004
 -14515317.09848 -11294121.69347  21922961.960    21922962.7324   21922965.9864
       193.0004        194.0004
  -3446547.36748  -2669464.52446  24311982.324    24311981.0244   24311985.5254
       173.0004        172.0004
 -12876366.91248  -9982142.84546  22027854.125    22027854.7724   22027861.4594
       184.0004        182.0004
 -13120232.69748 -10212084.67046  22173174.605    22173175.2904   22173183.6034
       177.0004        177.0004
  -1922458.88847  -1480329.70345  24182462.836    24182462.2674   24182470.8814
       137.0004        143.0004
 21  2  3  0  9  0.0000000  0  9G08G09G21G30G07G27G04G01G17
 -17303710.97749 -13440575.98147  21356883.578    21356884.5224   21356891.0744
       196.0004        196.0004
 -17596645.71649 -13358733.63147  20988457.305    20988457.9144   20988464.2744
       212.0004        212.0004
 -16040293.33048 -12181731.48446  21790473.016    21790473.1494   21790477.8204
       182.0004        182.0004
  -3630752.65047  -2810057.70945  23835716.016    23835715.6264   23835723.3654
       152.0004        154.0004
 -14588419.48948 -11351084.59647  21909050.636    21909051.1394   21909055.6914
       193.0004        193.0004
  -3338106.94548  -2584965.46746  24332615.772    24332616.1754   24332622.6504
       172.0004        172.0004
 -12787787.93948  -9913120.28646  22044710.001    22044710.8734   22044717.2184
       183.0004        181.0004
 -13193484.93648 -10269164.32946  22159236.055    22159236.1614   22159244.4434
       177.0004        178.0004
  -2019353.52747  -1555831.60345  24164023.300    24164025.3304   24164031.8684
       142.0004        148.0004
 21  2  3  0  9 30.0000000  0  9G08G09G21G30G07G27G04G01G17
 -17226957.70349 -13380768.19547  21371489.526    21371489.7034   21371497.0834
       195.0004        195.0004
 -17561473.64249 -13331326.80047  20995150.343    20995150.3154   20995158.0304
       212.0004        212.0004
 -16054135.65648 -12192517.67746  21787838.954    21787837.6964   21787843.4664
       181.0004        181.0004
  -3717527.11147  -2877674.14045  23819202.594    23819202.6824   23819211.0234
       152.0004        155.0004
 -14661417.93648 -11407966.46847  21895158.582    21895160.1814   21895164.3584
       193.0004        193.0004
  -3229634.98048  -2500441.87546  24353257.916    24353257.7584   24353261.9554
       168.0004        168.0004
 -12698969.41748  -9843911.04646  22061611.057    22061611.9304   22061618.7634
       183.0004        182.0004
 -13266564.34848 -10326109.27046  22145328.356    22145329.3744   22145337.9604
       177.0004        177.0004
  -2116022.36047  -1631157.56245  24145627.823    24145628.6054   24145636.4794
       145.0004        150.0004
 21  2  3  0 10  0.0000000  0  9G08G09G21G30G07G27G04G01G17
 -17149885.69549 -13320712.06647  21386155.640    21386155.9714   21386163.2384
       195.0004        196.0004
 -17525813.07649 -13303539.34047  21001935.693    21001936.6944   21001944.1874
       212.0004        212.0004
 -16067547.27148 -12202968.25646  21785285.851    21785285.2484   21785291.0424
       180.0004        181.0004
  -3804365.57947  -2945340.42345  23802677.525    23802678.5684   23802685.8994
       153.0004        157.0004
 -14734309.54548 -11464765.10147  21881288.560    21881288.8814   21881293.2884
       192.0004        193.0004
  -3121133.91448  -2415895.52046  24373906.042    24373905.5904   24373910.4434
       168.0004        170.0004
 -12609914.10148  -9774517.30446  22078557.875    22078558.6644   22078566.1784
       183.0004        183.0004
 -13339467.41448 -10382916.82146  22131456.092    22131456.0674   22131466.2914
       177.0004        178.0004
  -2212462.72447  -1706305.53145  24127275.560    24127275.4604   24127284.5824
       146.0004        149.0004
 21  2  3  0 10 30.0000000  0  9G08G09G21G30G07G27G04G01G17
 -17072499.31149 -13260410.97547  21400882.072    21400882.6504   21400889.4814
       195.0004        195.0004
 -17489667.23849 -13275373.75347  21008814.592    21008814.9834   21008822.2244
       211.0004        211.0004
 -16080528.24848 -12213083.28646  21782815.597    21782815.6244   21782820.4634
       180.0004        179.0004
  -3891267.65147  -3013056.29445  23786141.146    23786141.8134   23786149.0924
       156.0004        159.0004
 -14807092.96448 -11521479.43147  21867438.767    21867439.0284   21867443.1514
       193.0004        194.0004
  -3012607.45748  -2331329.45846  24394556.286    24394556.6454   24394562.7714
       170.0004        171.0004
 -12520626.23948  -9704942.36846  22095549.552    22095549.7474   22095556.5204
       183.0004        184.0004
 -13412192.00448 -10439585.25646  22117616.240    22117617.7814   22117626.5584
       178.0004        179.0004
  -2308673.62647  -1781274.70445  24108966.922    24108967.6024   24108975.6594
       146.0004        149.0004
 21  2  3  0 11  0.0000000  0  9G08G09G21G30G07G27G04G01G17
 -16994800.31449 -13199866.28547  21415667.808    21415668.1584   21415674.7634
       195.0004        195.0004
 -17453037.41049 -13246831.01947  21015784.757    21015784.9634   21015792.5574
       210.0004        211.0004
 -16093075.84248 -12222860.59246  21780429.113    21780428.4994   21780433.5374
       181.0004        182.0004
  -3978230.91747  -3080819.86545  23769593.381    23769593.3934   23769600.2954
       158.0004        161.0004
 -14879764.86648 -11578106.85547  21853610.258    21853610.6934   21853614.7324
       194.0004        196.0004
  -2904057.42048  -2246745.05146  24415213.362    24415213.7974   24415219.2894
       171.0004        172.0004
 -12431108.08548  -9635187.97046  22112584.922    22112585.2294   22112591.0434
       184.0004        184.0004
 -13484734.16548 -10496111.56446  22103812.637    22103813.0704   22103821.1864
       178.0004        177.0004
  -2404652.16647  -1856062.79645  24090701.600    24090701.6884   24090709.9794
       147.0004        151.0004
 21  2  3  0 11 30.0000000  0  9G08G09G21G30G07G27G04G01G17
 -16916792.62549 -13139081.07847  21430512.727    21430512.8204   21430519.0074
       195.0004        195.0004
 -17415926.29449 -13217913.28547  21022846.967    21022847.5134   21022854.8214
       210.0004        211.0004
 -16105189.39548 -12232299.71646  21778124.136    21778123.2394   21778128.4904
       181.0004        182.0004
  -4065254.49047  -3148630.38245  23753031.933    23753031.8024   23753041.4084
       159.0004        162.0004
 -14952323.74149 -11634646.22347  21839802.207    21839803.1404   21839807.3264
       195.0004        195.0004
  -2795487.09848  -2162144.77446  24435873.445    24435874.1054   24435878.9544
       168.0004        169.0004
 -12341363.31848  -9565256.99346  22129662.148    22129662.8654   22129669.7064
       184.0004        183.0004
 -13557091.30748 -10552493.69246  22090042.952    22090043.8124   22090052.4124
       178.0004        179.0004
  -2500396.83847  -1930668.68245  24072482.386    24072482.4574   24072490.6634
       150.0004        155.0004
 21  2  3  0 12  0.0000000  0  9G08G09G21G30G07G27G04G01G17
 -16838478.83548 -13078057.34947  21445413.998    21445414.9714   21445422.1264
       194.0004        194.0004
 -17378335.72849 -13188621.93747  21029999.713    21030000.2574   21030007.4414
       210.0004        209.0004
 -16116867.07248 -12241399.17546  21775901.554    21775901.2054   21775906.1894
       182.0004        182.0004
  -4152336.41347  -3216486.37545  23736461.602    23736462.0524   23736470.0944
       159.0004        160.0004
 -15024766.46749 -11691095.09547  21826017.384    21826017.1294   21826021.5774
       195.0004        195.0004
  -2686898.70748  -2077530.45746  24456536.748    24456536.9574   24456543.8534
       167.0004        168.0004
 -12251394.73448  -9495151.61746  22146782.769    22146783.1694   22146789.6274
       183.0004        183.0004
 -13629259.88548 -10608728.89246  22076311.092    22076311.5794   22076320.0974
       179.0004        181.0004
  -2595905.19047  -2005090.43745  24054308.223    24054308.4734   24054315.6894
       154.0004        158.0004
 21  2  3  0 12 30.0000000  0  9G08G09G21G30G07G27G04G01G17
 -16759862.31249 -13016797.73047  21460375.253    21460375.1934   21460382.4594
       210.0004        212.0004
 -17340268.05849 -13158958.81547  21037243.372    21037244.0234   21037251.5164
       209.0004        209.0004
 -16128107.32348 -12250157.78346  21773762.537    21773761.9754   21773767.2114
       182.0004        183.0004
  -4239475.26347  -3284386.76345  23719879.812    23719880.2374   23719886.3374
       157.0004        158.0004
 -15097091.00948 -11747451.87647  21812253.861    21812254.2364   21812258.2434
       194.0004        194.0004
  -2578295.26648  -1992904.39446  24477203.957    24477204.1144   24477209.4654
       168.0004        169.0004
 -12161205.57148  -9424874.35746  22163945.309    22163945.8374   22163952.2284
       183.0004        182.0004
 -13701236.89248 -10664814.82246  22062614.203    22062613.9494   22062623.5544
       180.0004        180.0004
  -2691175.45147  -2079326.67945  24036178.822    24036179.3574   24036185.8684
       154.0004        156.0004
 21  2  3  0 13  0.0000000  0  9G08G09G21G30G07G27G04G01G17
 -16680946.24049 -12955304.69547  21475393.245    21475393.2744   21475399.0864
       214.0004        212.0004
 -17301725.85649 -13128925.93547  21044578.195    21044578.2494   21044586.2294
       209.0004        209.0004
 -16138909.59348 -12258575.10946  21771706.283    21771706.0474   21771712.1754
       182.0004        182.0004
  -4326669.89447  -3352330.61745  23703286.817    23703287.6794   23703294.3744
       155.0004        157.0004
 -15169295.37148 -11803715.01147  21798513.614    21798514.1914   21798518.7864
       194.0004        194.0004
  -2469679.67348  -1908268.89446  24497873.085    24497872.4794   24497879.3254
       168.0004        169.0004
 -12070799.37348  -9354427.97846  22181148.795    22181149.3424   22181156.2584
       182.0004        182.0004
 -13773019.51948 -10720749.30546  22048954.351    22048954.6544   22048962.3454
       179.0004        180.0004
  -2786205.72347  -2153375.93945  24018094.295    24018094.6784   24018101.2874
       152.0004        154.0004
 21  2  3  0 13 30.0000000  0  9G08G09G21G30G07G27G04G01G17
 -16601732.52949 -12893579.72048  21490466.497    21490466.5634   21490473.3164
       222.0004        226.0004
 -17262710.13449 -13098524.07347  21052002.897    21052003.2794   21052010.7434
       209.0004        210.0004
 -16149270.63148 -12266648.62446  21769735.072    21769734.9964   21769739.9144
       182.0004        181.0004
  -4413917.48747  -3420315.72145  23686684.606    23686683.8704   23686690.8914
       155.0004        158.0004
 -15241376.00348 -11859881.72247  21784797.012    21784798.1504   21784802.5514
       194.0004        195.0004
  -2361053.39248  -1823625.07746  24518542.719    24518543.2474   24518549.7824
       167.0004        168.0004
 -11980178.05148  -9283813.96446  22198393.529    22198393.7184   22198399.7894
       182.0004        181.0004
 -13844603.41048 -10776528.92346  22035332.183    22035333.1974   22035339.7214
       179.0004        180.0004
  -2880993.19547  -2227236.04345  24000057.494    24000058.0144   24000062.7404
       148.0004        150.0004
 21  2  3  0 14  0.0000000  0  9G08G09G21G30G07G27G04G01G17
 -16522224.79549 -12831625.66948  21505595.510    21505595.9294   21505602.4284
       225.0004        224.0004
 -17223223.35249 -13067755.16047  21059516.862    21059517.2114   21059524.6664
       209.0004        210.0004
 -16159189.29848 -12274377.43346  21767848.557    21767847.7304   21767852.3184
       181.0004        182.0004
  -4501216.70047  -3488341.07545  23670071.688    23670071.6874   23670079.7324
       156.0004        159.0004
 -15313330.73248 -11915950.34547  21771104.388    21771105.1434   21771109.5444
       194.0004        195.0004
  -2252419.32648  -1738975.10246  24539213.441    24539215.4074   24539221.7714
       167.0004        169.0004
 -11889344.93348  -9213034.92346  22215678.216    22215678.7804   22215684.1264
       180.0004        180.0004
 -13915985.59248 -10832151.35746  22021747.490    22021748.9844   22021756.4884
       179.0004        180.0004
  -2975535.70247  -2300905.24745  23982066.209    23982066.7584   23982072.6584
       150.0004        153.0004
 21  2  3  0 14 30.0000000  0  9G08G09G21G30G07G27G04G01G17
 -16442425.05849 -12769444.06248  21520780.808    21520781.4384   21520788.4944
       225.0004        224.0004
 -17183267.05549 -13036620.36947  21067120.960    21067120.7584   21067128.2924
       210.0004        210.0004
 -16168663.47148 -12281759.87746  21766045.013    21766044.3324   21766048.9134
       181.0004        181.0004
  -4588565.15647  -3556404.78045  23653449.265    23653449.8894   23653458.0854
       158.0004        162.0004
 -15385156.09448 -11971918.15747  21757437.128    21757437.2884   21757441.6034
       194.0004        194.0004
  -2143779.24148  -1654320.52546  24559886.910    24559887.6974   24559896.9464
       165.0004        166.0004
 -11798302.42148  -9142092.69746  22233003.501    22233004.3394   22233010.3544
       180.0004        180.0004
 -13987162.15948 -10887613.56046  22008202.599    22008203.9004   22008212.1494
       179.0004        180.0004
  -3069830.48947  -2374381.42745  23964122.332    23964122.5294   23964127.8394
       151.0004        155.0004
 21  2  3  0 15  0.0000000  0  9G08G09G21G30G07G27G04G01G17
 -16362336.16149 -12707037.11148  21536021.671    21536021.8524   21536028.9064
       225.0004        225.0004
 -17142843.28049 -13005121.30947  21074812.404    21074812.9764   21074820.3454
       209.0004        209.0004
 -16177691.83848 -12288794.94046  21764327.131    21764326.3644   21764329.9374
       182.0004        181.0004
  -4675961.00847  -3624505.42346  23636818.975    23636819.3414   23636826.6954
       160.0004        163.0004
 -15456849.59649 -12027783.19447  21743794.048    21743794.4594   21743798.8284
       195.0004        195.0004
  -2035135.64448  -1569663.21046  24580561.528    24580562.5164   24580570.3644
       168.0004        170.0004
 -11707053.45248  -9070989.59746  22250368.552    22250368.1854   22250374.9024
       181.0004        180.0004
 -14058129.67048 -10942912.88446  21994699.322    21994699.7114   21994708.2544
       179.0004        180.0004
  -3163875.57747  -2447663.06645  23946225.025    23946226.0164   23946232.2864
       150.0004        152.0004
 21  2  3  0 15 30.0000000  0  8G08G09G21G30G07G04G01G17
 -16281961.38049 -12644407.39748  21551317.089    21551317.2144   21551323.6004
       226.0004        225.0004
 -17101954.32349 -12973259.76647  21082592.833    21082593.5664   21082601.1774
       208.0004        208.0004
 -16186272.85948 -12295481.43746  21762694.443    21762693.4664   21762697.4044
       182.0004        182.0004
  -4763402.65547  -3692641.72545  23620178.708    23620178.6184   23620186.9404
       159.0004        160.0004
 -15528408.51349 -12083543.38247  21730176.543    21730176.9854   21730181.2344
       195.0004        195.0004
 -11615601.08348  -8999728.00646  22267769.864    22267771.3994   22267777.2654
       180.0004        180.0004
 -14128884.98848 -10998046.84646  21981234.826    21981235.6044   21981243.3694
       179.0004        180.0004
  -3257668.54347  -2520748.17345  23928375.764    23928376.8484   23928383.9784
       152.0004        156.0004
 21  2  3  0 16  0.0000000  0  8G08G09G21G30G07G04G01G17
 -16201304.80949 -12581558.12148  21566665.818    21566665.8754   21566671.7804
       225.0004        224.0004
 -17060603.49949 -12941038.34747  21090462.525    21090463.0934   21090470.0214
       208.0004        209.0004
 -16194406.43848 -12301819.27846  21761145.449    21761145.0674   21761150.0904
       182.0004        182.0004
  -4850889.38947  -3760813.17145  23603530.755    23603530.9744   23603539.1344
       159.0004        162.0004
 -15599831.62649 -12139197.74147  21716585.545    21716585.6444   21716590.3824
       195.0004        195.0004
 -11523949.45148  -8928311.15946  22285211.255    22285211.8234   22285217.5614
       179.0004        178.0004
 -14199425.86348 -11053013.74446  21967811.621    21967812.2414   21967819.7344
       180.0004        180.0004
  -3351208.62547  -2593636.30145  23910577.581    23910576.7654   23910583.7874
       155.0004        158.0004
 21  2  3  0 16 30.0000000  0  9G14G08G09G21G30G07G04G01G17
   -685445.39156   -527213.75645  23600558.269                    23600559.1774
       129.0004        141.0004
 -16120369.05549 -12518491.28748  21582066.798    21582066.6924   21582073.1484
       224.0004        223.0004
 -17018793.35049 -12908459.00747  21098419.186    21098419.3164   21098426.5424
       209.0004        209.0004
 -16202090.85248 -12307807.10746  21759683.135    21759683.0014   21759687.6024
       182.0004        182.0004
  -4938419.84547  -3829018.69846  23586875.998    23586876.2814   23586882.2174
       161.0004        164.0004
 -15671116.48449 -12194744.35947  21703020.643    21703020.8274   21703024.9294
       195.0004        196.0004
 -11432101.96048  -8856741.68146  22302688.624    22302689.3464   22302695.7454
       177.0004        176.0004
 -14269749.37648 -11107811.24746  21954429.209    21954429.8024   21954437.6424
       180.0004        180.0004
  -3444494.08047  -2666326.06445  23892825.148    23892825.3654   23892831.2404
       155.0004        157.0004
 21  2  3  0 17  0.0000000  0  9G14G08G09G21G30G07G04G01G17
   -712664.63646   -548423.50345  23595375.598    23595377.6264   23595379.8454
       134.0004        141.0004
 -16039156.63949 -12455208.88748  21597520.554    21597521.0294   21597527.4114
       224.0004        222.0004
 -16976524.88149 -12875522.52447  21106461.445    21106462.2484   21106469.6824
       209.0004        209.0004
 -16209323.63748 -12313443.02746  21758306.603    21758306.8814   21758312.2294
       183.0004        183.0004
  -5025990.97047  -3897255.91645  23570209.387    23570210.5934   23570218.4954
       161.0004        162.0004
 -15742259.59349 -12250180.54047  21689482.389    21689482.9484   21689487.0184
       196.0004        196.0004
 -11340060.31748  -8785020.91146  22320204.145    22320205.0904   22320210.4724
       177.0004        177.0004
 -14339850.98448 -11162435.83746  21941089.454    21941089.6704   21941098.0784
       180.0004        182.0004
  -3537521.32447  -2738814.56245  23875121.730    23875122.7934   23875130.3414
       157.0004        160.0004
 21  2  3  0 17 30.0000000  0  9G14G08G09G21G30G07G04G01G17
   -739828.08747   -569589.74945  23590209.118    23590209.1664   23590214.1784
       137.0004        142.0004
 -15957670.97049 -12391713.55148  21613027.129    21613027.4674   21613034.1904
       224.0004        223.0004
 -16933801.10849 -12842231.26947  21114591.519    21114591.8604   21114599.7864
       208.0004        209.0004
 -16216104.60948 -12318726.86546  21757017.512    21757016.7004   21757021.5144
       183.0004        184.0004
  -5113601.72747  -3965524.02046  23553538.421    23553538.6384   23553545.9464
       161.0004        164.0004
 -15813259.06549 -12305504.79047  21675971.199    21675971.8244   21675975.8654
       196.0004        196.0004
 -11247828.32348  -8713151.81446  22337754.352    22337755.4504   22337762.2914
       178.0004        179.0004
 -14409728.15548 -11216885.53546  21927792.001    21927792.2264   21927800.7564
       180.0004        180.0004
  -3630289.10347  -2811100.90245  23857469.645    23857469.4484   23857476.3984
       157.0004        158.0004
 21  2  3  0 18  0.0000000  0  9G14G08G09G21G30G07G04G01G17
   -766938.16947   -590714.44945  23585048.129    23585048.6964   23585059.3854
       142.0004        148.0004
 -15875916.10849 -12328008.45148  21628584.356    21628584.8904   21628591.5594
       224.0004        224.0004
 -16890625.51349 -12808587.94947  21122808.844    21122808.7824   21122816.0454
       209.0004        209.0004
 -16222433.13248 -12323658.16846  21755813.005    21755812.0554   21755817.6294
       184.0004        183.0004
  -5201251.55547  -4033822.57246  23536859.159    23536859.7454   23536867.0964
       163.0004        166.0004
 -15884113.32849 -12360715.88047  21662488.732    21662488.7074   21662492.7234
       196.0004        196.0004
 -11155410.22448  -8641137.69046  22355340.028    22355341.2644   22355348.5064
       177.0004        177.0004
 -14479378.79248 -11271158.72746  21914537.710    21914538.3334   21914545.9154
       180.0004        181.0004
  -3722796.62947  -2883184.50245  23839865.283    23839865.1574   23839871.6444
       156.0004        158.0004
 21  2  3  0 18 30.0000000  0  9G14G08G09G21G30G07G04G01G17
   -793993.59047   -611796.58445  23579900.522    23579901.7414   23579910.1084
       150.0004        155.0004
 -15793893.15549 -12264094.44748  21644192.922    21644193.3664   21644200.3174
       225.0004        224.0004
 -16846997.78049 -12774592.30647  21131110.213    21131110.5124   21131117.8504
       208.0004        209.0004
 -16228305.58748 -12328234.08146  21754694.956    21754694.6114   21754700.4634
       184.0004        184.0004
  -5288936.01047  -4102148.06446  23520173.220    23520173.5474   23520181.2284
       164.0004        165.0004
 -15954817.13849 -12415809.72347  21649033.063    21649034.1004   21649038.3514
       196.0004        197.0004
 -11062806.41148  -8568978.86946  22372962.459    22372963.4074   22372970.8214
       177.0004        177.0004
 -14548796.99048 -11325250.79246  21901327.988    21901329.2544   21901336.8964
       181.0004        182.0004
  -3815039.24547  -2955061.66045  23822310.418    23822311.3684   23822319.8784
       155.0004        157.0004
 21  2  3  0 19  0.0000000  0  9G14G08G09G21G30G07G04G01G17
   -820996.78747   -632838.03445  23574762.614    23574763.5874   23574771.7014
       155.0004        159.0004
 -15711605.19249 -12199973.95148  21659851.250    21659851.6514   21659858.9774
       224.0004        222.0004
 -16802921.37549 -12740247.05547  21139498.160    21139498.5414   21139505.7354
       209.0004        209.0004
 -16233721.67348 -12332454.39246  21753663.862    21753664.3034   21753669.3024
       183.0004        182.0004
  -5376654.46248  -4170500.05746  23503481.779    23503481.4024   23503488.9694
       165.0004        166.0004
 -16025369.17349 -12470785.31847  21635608.062    21635608.5464   21635612.9294
       196.0004        197.0004
 -10970021.08348  -8496678.63946  22390619.493    22390619.8284   22390627.4324
       176.0004        176.0004
 -14617980.66448 -11379160.10946  21888162.742    21888163.6044   21888171.3324
       182.0004        183.0004
  -3907016.30047  -3026731.92845  23804809.919    23804809.9174   23804816.4044
       156.0004        159.0004
 21  2  3  0 19 30.0000000  0  9G14G08G09G21G30G07G04G01G17
   -847948.68047   -653839.47845  23569634.095    23569635.2934   23569640.9204
       155.0004        157.0004
 -15629055.38549 -12135649.42548  21675559.957    21675560.6084   21675567.5704
       223.0004        222.0004
 -16758398.32949 -12705553.76947  21147970.230    21147970.5774   21147977.7744
       209.0004        209.0004
 -16238679.20048 -12336317.39246  21752720.975    21752720.0934   21752725.7464
       183.0004        183.0004
  -5464404.70948  -4238876.84346  23486783.882    23486783.5244   23486790.5344
       165.0004        166.0004
 -16095766.53049 -12525640.39347  21622211.596    21622211.7314   21622216.5734
       196.0004        196.0004
 -10877056.91448  -8424239.03146  22408310.718    22408311.1644   22408317.9044
       177.0004        177.0004
 -14686926.20448 -11432883.86246  21875042.293    21875042.5824   21875051.8854
       182.0004        181.0004
  -3998725.18447  -3098193.21645  23787356.680    23787356.5484   23787364.8154
       154.0004        155.0004
 21  2  3  0 20  0.0000000  0  9G14G08G09G21G30G07G04G01G17
   -874851.22547   -674802.46045  23564515.262    23564515.6194   23564519.1764
       154.0004        155.0004
 -15546247.30449 -12071123.64648  21691318.009    21691318.6204   21691325.6154
       223.0004        223.0004
 -16713431.58249 -12670514.74447  21156526.419    21156527.2684   21156534.8604
       209.0004        209.0004
 -16243178.17548 -12339823.07346  21751865.371    21751864.8554   21751870.3284
       183.0004        183.0004
  -5552185.59647  -4307277.50846  23470078.858    23470079.0114   23470086.4624
       164.0004        166.0004
 -16166007.02449 -12580373.24447  21608846.304    21608846.2404   21608850.2764
       197.0004        197.0004
 -10783917.59048  -8351662.93046  22426034.761    22426034.5904   22426040.8924
       177.0004        176.0004
 -14755630.91848 -11486419.96346  21861968.533    21861968.6294   21861977.5294
       182.0004        182.0004
  -4090164.50147  -3169444.43345  23769955.936    23769956.4284   23769963.2174
       151.0004        153.0004
 21  2  3  0 20 30.0000000  0  9G14G08G09G21G30G07G04G01G17
   -901705.37047   -695727.71945  23559402.832    23559403.5444   23559409.1974
       152.0004        154.0004
 -15463183.42649 -12006398.55248  21707124.895    21707125.4874   21707131.9094
       224.0004        223.0004
 -16668023.20649 -12635131.60747  21165167.965    21165168.5924   21165175.5374
       209.0004        210.0004
 -16247216.94148 -12342970.14746  21751096.287    21751096.1124   21751100.3214
       183.0004        183.0004
  -5639994.96347  -4375700.38546  23453369.560    23453369.4704   23453376.0084
       164.0004        165.0004
 -16236087.77049 -12634981.62247  21595510.115    21595510.5524   21595514.5134
       197.0004        197.0004
 -10690605.77648  -8278952.42846  22443791.054    22443791.4014   22443797.3434
       176.0004        176.0004
 -14824091.22948 -11539765.63046  21848941.515    21848942.1334   21848949.5734
       182.0004        183.0004
  -4181331.59547  -3240483.57545  23752607.860    23752608.2254   23752614.9364
       153.0004        158.0004
 21  2  3  0 21  0.0000000  0  9G14G08G09G21G30G07G04G01G17
   -928511.00747   -716615.19145  23554303.175    23554304.1354   23554308.5144
       155.0004        158.0004
 -15379865.72249 -11941475.66348  21722980.612    21722980.3804   21722986.5534
       223.0004        222.0004
 -16622174.23449 -12599405.14247  21173893.548    21173893.3864   21173900.6704
       209.0004        210.0004
 -16250792.96048 -12345756.64646  21750415.813    21750414.8974   21750420.0204
       183.0004        183.0004
  -5727829.61647  -4444142.94846  23436654.385    23436654.5174   23436662.3544
       162.0004        164.0004
 -16306005.08849 -12689462.65047  21582205.078    21582205.2984   21582209.9074
       198.0004        198.0004
 -10597123.17248  -8206108.83646  22461580.321    22461581.1474   22461587.3854
       176.0004        176.0004
 -14892302.52048 -11592917.26346  21835960.858    21835960.9754   21835969.0744
       182.0004        182.0004
  -4272223.35247  -3311308.16645  23735311.992    23735311.9024   23735317.8794
       155.0004        158.0004
 21  2  3  0 21 30.0000000  0  9G14G08G09G21G30G07G04G01G17
   -955270.78347   -737466.91245  23549211.384    23549211.8034   23549217.0544
       157.0004        159.0004
 -15296297.89349 -11876357.86048  21738882.396    21738882.3174   21738889.0084
       222.0004        221.0004
 -16575888.34949 -12563338.21547  21182700.369    21182701.2594   21182708.5424
       209.0004        209.0004
 -16253906.37848 -12348182.67446  21749823.007    21749821.9244   21749827.8054
       183.0004        183.0004
  -5815688.99647  -4512604.77646  23419934.881    23419935.8764   23419942.2464
       162.0004        164.0004
 -16375757.36949 -12743815.08247  21568931.851    21568932.3734   21568936.1784
       198.0004        198.0004
 -10503474.03748  -8133135.47946  22479401.856    22479401.2484   22479408.1124
       177.0004        176.0004
 -14960262.82548 -11645873.29146  21823028.669    21823028.7674   21823037.6094
       182.0004        184.0004
  -4362839.35747  -3381917.87345  23718068.135    23718068.0354   23718074.3654
       155.0004        157.0004
 21  2  3  0 22  0.0000000  0  9G14G08G09G21G30G07G04G01G17
   -981985.18747   -758283.30045  23544128.075    23544127.8924   23544133.2704
       156.0004        157.0004
 -15212482.68549 -11811047.30348  21754831.276    21754831.7234   21754838.5274
       221.0004        220.0004
 -16529167.16749 -12526932.10347  21191591.772    21191592.0384   21191598.8934
       209.0004        209.0004
 -16256555.09948 -12350246.59746  21749318.647    21749318.7034   21749323.5994
       184.0004        186.0004
  -5903570.44647  -4581083.79646  23403212.465    23403212.2104   23403220.4904
       163.0004        165.0004
 -16445341.27649 -12798036.30047  21555690.505    21555690.4114   21555694.2714
       197.0004        197.0004
 -10409660.66748  -8060034.14646  22497252.070    22497253.3734   22497260.6314
       176.0004        176.0004
 -15027968.07448 -11698630.61346  21810144.004    21810145.1134   21810153.5404
       183.0004        184.0004
  -4453176.43547  -3452310.23445  23700877.215    23700878.0054   23700884.5174
       158.0004        162.0004
 21  2  3  0 22 30.0000000  0  9G14G08G09G21G30G07G04G01G17
  -1008656.24447   -779065.91445  23539051.995    23539053.1214   23539057.8124
       157.0004        160.0004
 -15128423.38349 -11745546.55148  21770827.969    21770827.8684   21770834.8034
       222.0004        221.0004
 -16482013.98049 -12490189.36347  21200565.078    21200564.9924   21200572.2184
       209.0004        209.0004
 -16258738.65248 -12351948.04846  21748904.386    21748903.4624   21748909.2874
       185.0004        185.0004
  -5991472.83048  -4649579.13346  23386484.657    23386484.7514   23386493.2084
       165.0004        167.0004
 -16514754.97749 -12852124.88647  21542480.660    21542481.3554   21542485.9734
       197.0004        197.0004
 -10315686.85148  -7986807.78846  22515135.569    22515135.5794   22515142.1954
       176.0004        177.0004
 -15095415.85748 -11751187.28646  21797308.767    21797310.0114   21797318.5164
       183.0004        185.0004
  -4543233.47247  -3522484.40245  23683740.866    23683741.5804   23683747.3474
       159.0004        161.0004
 21  2  3  0 23  0.0000000  0  9G14G08G09G21G30G07G04G01G17
  -1035284.99447   -799815.54746  23533984.935    23533985.5024   23533990.8034
       160.0004        163.0004
 -15044123.14149 -11679858.04348  21786870.149    21786870.3144   21786876.3324
       222.0004        221.0004
 -16434430.93249 -12453111.65447  21209619.065    21209619.3984   21209626.6744
       208.0004        208.0004
 -16260455.58948 -12353285.89146  21748577.089    21748576.3174   21748582.6724
       186.0004        186.0004
  -6079393.99847  -4718089.14246  23369754.251    23369754.6624   23369761.7734
       163.0004        164.0004
 -16583995.59749 -12906078.60847  21529305.142    21529305.7944   21529309.5314
       198.0004        198.0004
 -10221555.33848  -7913458.52846  22533047.830    22533048.9814   22533055.1114
       177.0004        178.0004
 -15162602.57648 -11803540.54946  21784524.277    21784525.2044   21784533.6154
       184.0004        186.0004
  -4633008.34347  -3592438.72845  23666657.895    23666657.8614   23666663.3514
       159.0004        160.0004
 21  2  3  0 23 30.0000000  0  9G14G08G09G21G30G07G04G01G17
  -1061873.09847   -820533.51246  23528925.630    23528925.7724   23528931.3164
       164.0004        166.0004
 -14959584.75949 -11613983.95748  21802957.011    21802957.0624   21802963.5634
       221.0004        220.0004
 -16386420.92649 -12415701.24547  21218755.903    21218755.8854   21218762.4444
       208.0004        208.0004
 -16261705.32148 -12354259.68346  21748338.792    21748338.1844   21748345.3524
       187.0004        187.0004
  -6167332.55147  -4786612.68046  23353020.782    23353021.2064   23353027.9804
       163.0004        165.0004
 -16653060.59849 -12959895.47047  21516163.176    21516163.3234   21516166.6444
       198.0004        199.0004
 -10127269.61648  -7839989.11046  22550990.246    22550990.6804   22550997.2984
       176.0004        176.0004
 -15229525.40448 -11855688.16246  21771788.828    21771789.4744   21771798.1674
       184.0004        184.0004
  -4722499.79247  -3662172.19945  23649627.445    23649628.6014   23649632.8384
       158.0004        159.0004
 21  2  3  0 24  0.0000000  0  9G14G08G09G21G30G07G04G01G17
  -1088421.28848   -841220.38846  23523873.261    23523874.2194   23523879.8094
       166.0004        168.0004
 -14874810.99249 -11547926.47948  21819088.119    21819088.7174   21819095.4854
       220.0004        219.0004
 -16337985.93749 -12377959.69747  21227972.065    21227972.5434   21227980.2104
       208.0004        209.0004
 -16262486.15248 -12354868.09347  21748190.950    21748190.2494   21748197.4104
       187.0004        188.0004
  -6255286.05647  -4855147.82346  23336283.144    23336283.6584   23336290.9904
       164.0004        167.0004
 -16721947.03249 -13013573.20547  21503054.045    21503054.6634   21503057.8684
       198.0004        198.0004
 -10032832.21348  -7766401.50846  22568960.555    22568961.6404   22568968.0174
       176.0004        176.0004
 -15296180.60648 -11907627.25346  21759104.812    21759105.9774   21759113.9634
       184.0004        184.0004
  -4811704.93647  -3731682.58345  23632649.852    23632651.0014   23632657.0004
       157.0004        160.0004
 21  2  3  0 24 30.0000000  0  9G14G08G09G21G30G07G04G01G17
  -1114929.93348   -861876.43046  23518828.941    23518829.8034   23518835.4194
       165.0004        166.0004
 -14789803.84349 -11481687.14748  21835264.738    21835264.8734   21835271.7944
       220.0004        219.0004
 -16289127.46049 -12339888.15047  21237269.368    21237269.6104   21237277.2554
       208.0004        208.0004
 -16262796.31048 -12355109.73647  21748131.862    21748131.3164   21748138.3984
       188.0004        188.0004
  -6343251.52647  -4923692.31346  23319543.277    23319543.5674   23319551.9574
       164.0004        166.0004
 -16790651.22149 -13067108.91947  21489979.960    21489980.1324   21489984.3844
       198.0004        199.0004
  -9938245.10948  -7692697.27546  22586959.730    22586960.8814   22586966.9584
       176.0004        175.0004
 -15362563.91148 -11959354.47346  21746473.501    21746474.1054   21746481.6584
       184.0004        186.0004
  -4900621.04647  -3800967.72445  23615730.407    23615731.3194   23615737.5054
       158.0004        160.0004
 21  2  3  0 25  0.0000000  0  9G14G08G09G21G30G07G04G01G17
  -1141401.98447   -882503.98846  23513790.907    23513791.6574   23513798.2704
       164.0004        164.0004
 -14704568.19849 -11415269.76748  21851484.852    21851484.7294   21851491.5284
       220.0004        219.0004
 -16239849.73249 -12301489.92547  21246646.156    21246646.8714   21246654.5424
       207.0004        207.0004
 -16262636.34948 -12354985.06247  21748161.795    21748161.6284   21748168.8804
       188.0004        189.0004
  -6431228.78447  -4992245.99746  23302802.176    23302802.5204   23302809.3644
       164.0004        166.0004
 -16859172.11449 -13120501.81147  21476940.610    21476941.1714   21476944.9214
       198.0004        198.0004
  -9843513.06448  -7618880.10446  22604986.705    22604987.5784   22604994.0334
       175.0004        176.0004
 -15428673.80448 -12010868.64746  21733892.294    21733892.3294   21733900.9684
       185.0004        185.0004
  -4989247.86147  -3870027.46145  23598866.023    23598866.1254   23598870.2284
       157.0004        158.0004
 21  2  3  0 25 30.0000000  0  9G14G08G09G21G30G07G04G01G17
  -1167837.47647   -903103.04846  23508761.056    23508761.4584   23508766.9814
       163.0004        164.0004
 -14619105.35749 -11348675.35648  21867747.658    21867748.1314   21867754.8204
       220.0004        220.0004
 -16190154.03849 -12262766.01247  21256103.572    21256103.9034   21256110.8384
       207.0004        207.0004
 -16262003.82048 -12354492.15547  21748281.648    21748281.5664   21748288.9004
       188.0004        188.0004
  -6519214.65347  -5060806.39046  23286058.875    23286058.8144   23286066.5894
       164.0004        165.0004
 -16927506.30949 -13173749.22247  21463937.041    21463937.6004   21463941.6784
       198.0004        198.0004
  -9748637.85348  -7544951.38246  22623041.301    22623042.3674   22623047.5754
       176.0004        176.0004
 -15494505.78748 -12062166.26246  21721363.859    21721365.6724   21721373.3964
       184.0004        185.0004
  -5077582.54847  -3938859.61045  23582055.177    23582055.2994   23582061.3364
       155.0004        155.0004
 21  2  3  0 26  0.0000000  0  9G14G08G09G21G30G07G04G01G17
  -1194237.76347   -923674.66046  23503737.320    23503737.4774   23503743.1944
       164.0004        166.0004
 -14533418.56149 -11281906.41148  21884053.242    21884053.4114   21884060.3024
       220.0004        219.0004
 -16140043.06349 -12223718.49047  21265639.105    21265639.2284   21265647.0434
       207.0004        207.0004
 -16260897.59648 -12353630.13746  21748492.756    21748491.9474   21748498.9804
       187.0004        186.0004
  -6607207.33247  -5129372.06346  23269315.179    23269314.6974   23269321.9864
       164.0004        166.0004
 -16995650.99949 -13226848.97047  21450969.660    21450970.4844   21450974.4974
       198.0004        199.0004
  -9653622.53748  -7470913.48246  22641122.289    22641122.7184   22641129.8394
       175.0004        174.0004
 -15560056.75748 -12113244.91246  21708890.996    21708891.6814   21708900.2814
       184.0004        186.0004
  -5165622.90647  -4007462.41645  23565303.220    23565303.6064   23565308.1204
       157.0004        161.0004
 21  2  3  0 26 30.0000000  0  9G14G08G09G21G30G07G04G01G17
  -1220604.71748   -944220.29946  23498719.229    23498720.0744   23498726.2614
       165.0004        166.0004
 -14447511.40649 -11214965.75748  21900400.243    21900400.9964   21900407.9684
       219.0004        218.0004
 -16089519.87349 -12184349.75647  21275253.020    21275253.6144   21275261.6884
       207.0004        207.0004
 -16259317.82948 -12352399.12546  21748794.155    21748792.6934   21748798.8574
       186.0004        186.0004
  -6695205.37348  -5197941.95346  23252568.513    23252569.3514   23252577.0004
       167.0004        170.0004
 -17063603.73249 -13279799.15247  21438038.188    21438039.0554   21438043.4474
       199.0004        199.0004
  -9558470.80948  -7396769.28646  22659229.405    22659230.1134   22659235.5394
       174.0004        174.0004
 -15625324.10048 -12164102.54146  21696471.146    21696471.9674   21696479.4864
       185.0004        186.0004
  -5253367.71347  -4075834.93745  23548605.955    23548605.4514   23548611.3424
       159.0004        161.0004
 21  2  3  0 27  0.0000000  0  9G14G08G09G21G30G07G04G01G17
  -1246939.31147   -964740.73646  23493708.662    23493709.1504   23493713.8004
       164.0004        165.0004
 -14361386.38049 -11147855.35048  21916789.998    21916789.9944   21916796.3374
       218.0004        217.0004
 -16038586.86949 -12144661.70347  21284945.529    21284945.8704   21284953.6954
       207.0004        206.0004
 -16257262.65948 -12350797.67246  21749184.872    21749184.3204   21749189.5784
       185.0004        185.0004
  -6783206.59748  -5266514.28546  23235821.927    23235822.5364   23235830.9264
       168.0004        169.0004
 -17131362.08649 -13332597.86247  21425144.768    21425144.9614   21425149.3454
       199.0004        199.0004
  -9463185.36848  -7322520.88846  22677361.615    22677362.4694   22677368.3984
       174.0004        175.0004
 -15690304.24548 -12214736.38246  21684106.504    21684106.9284   21684114.4734
       186.0004        187.0004
  -5340814.97347  -4143975.56445  23531964.624    23531964.5694   23531970.4714
       159.0004        161.0004
 21  2  3  0 27 30.0000000  0  9G14G08G09G21G30G07G04G01G17
  -1273242.76248   -985236.88346  23488702.589    23488703.7724   23488708.9864
       165.0004        166.0004
 -14275046.50549 -11080577.52248  21933220.315    21933220.3834   21933226.4084
       219.0004        218.0004
 -15987246.56149 -12104656.27247  21294715.516    21294715.5754   21294722.9704
       206.0004        206.0004
 -16254731.72348 -12348825.49946  21749665.564    21749666.1494   21749670.5614
       185.0004        184.0004
  -6871208.97248  -5335087.54446  23219076.456    23219076.1124   23219083.6484
       166.0004        167.0004
 -17198923.02849 -13385242.73047  21412287.551    21412288.1394   21412292.6754
       199.0004        199.0004
  -9367769.18448  -7248170.62346  22695518.298    22695519.2104   22695525.1514
       174.0004        173.0004
 -15754993.98648 -12265143.94446  21671794.828    21671795.6024   21671804.2894
       186.0004        186.0004
  -5427962.59247  -4211882.73245  23515382.047    23515381.4254   23515387.1954
       158.0004        160.0004
 21  2  3  0 28  0.0000000  0  9G14G08G09G21G30G07G04G01G17
  -1299515.73248  -1005709.29046  23483704.472    23483704.1244   23483709.6954
       166.0004        167.0004
 -14188494.11349 -11013134.09048  21949690.187    21949690.8924   21949697.0694
       218.0004        218.0004
 -15935500.94149 -12064335.01247  21304561.777    21304562.3984   21304569.4394
       205.0004        206.0004
 -16251723.18148 -12346481.14046  21750238.215    21750237.8024   21750242.4454
       184.0004        184.0004
  -6959209.88748  -5403659.66046  23202330.717    23202330.7334   23202337.8734
       167.0004        170.0004
 -17266283.30449 -13437731.25647  21399470.321    21399470.6994   21399475.0044
       199.0004        200.0004
  -9272224.64848  -7173720.34046  22713699.567    22713700.1644   22713706.3454
       171.0004        170.0004
 -15819389.46448 -12315322.19646  21659541.274    21659542.0794   21659550.3314
       186.0004        187.0004
  -5514808.39147  -4279554.70645  23498854.299    23498854.7794   23498860.1904
       156.0004        156.0004
 21  2  3  0 28 30.0000000  0  9G14G08G09G21G30G07G04G01G17
  -1325759.54348  -1026158.96746  23478707.900    23478709.5824   23478715.9494
       165.0004        165.0004
 -14101732.33849 -10945527.49248  21966199.451    21966200.3124   21966207.6884
