     2.11           OBSERVATION DATA    G (GPS)             RINEX VERSION / TYPE
teqc  2018Jun8                          20210202 03:10:36UTCPGM / RUN BY / DATE
Linux2.6.32-573.12.1.el6.x86_64|x86_64|gcc|Win64-MinGW64|=+ COMMENT
BIT 2 OF LLI FLAGS DATA COLLECTED UNDER A/S CONDITION       COMMENT
-Unknown-                                                   MARKER NAME
CRNO                                                        MARKER NUMBER
-Unknown-           -Unknown-                               OBSERVER / AGENCY
-Unknown-           ASHTECH             -Unknown-           REC # / TYPE / VERS
-Unknown-           -Unknown-                               ANT # / TYPE
   408078.2101 -6158372.5420  1605163.7907                  APPROX POSITION XYZ
        0.0000        0.0000        0.0000                  ANTENNA: DELTA H/E/N
     1     1                                                WAVELENGTH FACT L1/2
     7    L1    L2    C1    P1    P2    S1    S2            # / TYPES OF OBSERV
    30.0000                                                 INTERVAL
Forced Modulo Decimation to 30 seconds                      COMMENT
 SNR is mapped to RINEX snr flag value [1-9]                COMMENT
  L1: 1 -> 1;  90 -> 5; 210 -> 9                            COMMENT
  L2: 1 -> 1; 150 -> 5; 250 -> 9                            COMMENT
pseudorange smoothing corrections not applied               COMMENT
  2021     2     1     0     0   30.0000000     GPS         TIME OF FIRST OBS
                                                            END OF HEADER
 21  2  1  0  0 30.0000000  0 10G21G03G04G16G01G07G08G09G27G22
 -10207496.01447  -7939338.99545  22848883.231    22848883.3404   22848889.8344
       153.0004        156.0004
  11893240.28048   9277925.33946  24088898.026    24088898.8544   24088909.2874
       181.0004        181.0004
  -7851569.01249  -6090416.23547  20316106.044    20316106.2354   20316112.3074
       213.0004        212.0004
  17484885.04347  13554585.75445  24109618.003    24109616.4024   24109620.6444
       136.0004        141.0004
  -3055211.69946  -2363855.17345  24249730.166    24249731.9604   24249742.1884
       132.0004        139.0004
  -5512030.30547  -4285169.18545  23990071.259    23990071.0844   23990075.3004
       155.0004        158.0004
 -12425567.67549  -9661734.62048  20145525.545    20145525.8394   20145533.2264
       212.0004        213.0004
 -17637056.62949 -13711966.18147  21165468.479    21165468.6304   21165475.4614
       205.0004        204.0004
   1772246.24849   1395519.64748  21636929.353    21636929.5344   21636937.2054
       222.0004        222.0004
  12542623.25447   9770206.51345  24740330.827    24740330.1564   24740336.3704
       137.0004        142.0004
 21  2  1  0  1  0.0000000  0 10G21G03G04G16G01G07G08G09G27G22
 -10258718.51747  -7979252.55845  22839137.246    22839137.2794   22839142.5884
       154.0004        157.0004
  11952566.04548   9324153.17346  24100186.573    24100187.9784   24100197.9044
       179.0004        179.0004
  -7827151.00649  -6071389.21847  20320752.224    20320753.0144   20320759.1134
       213.0004        212.0004
  17565623.94147  13617499.20945  24124980.304    24124981.6444   24124985.4824
       136.0004        142.0004
  -3121523.28046  -2415526.39445  24237111.443    24237113.2744   24237123.8884
       134.0004        140.0004
  -5578907.19147  -4337281.01645  23977344.162    23977344.8984   23977349.1264
       155.0004        157.0004
 -12420830.16149  -9658043.03248  20146427.239    20146427.5074   20146434.8564
       212.0004        213.0004
 -17683711.31649 -13748320.45547  21156589.029    21156589.6354   21156597.7994
       203.0004        203.0004
   1845044.04649   1452245.21948  21650782.807    21650782.7584   21650790.1334
       222.0004        222.0004
  12588137.86547   9805672.36145  24748991.322    24748991.7194   24748999.1664
       138.0004        143.0004
 21  2  1  0  1 30.0000000  0 10G21G03G04G16G01G07G08G09G27G22
 -10309874.66747  -8019114.43545  22829403.148    22829402.0524   22829407.8644
       154.0004        156.0004
  12011733.41648   9370257.56646  24111447.403    24111447.5814   24111457.6634
       177.0004        177.0004
  -7802169.24549  -6051922.91747  20325506.173    20325506.4744   20325512.6374
       213.0004        211.0004
  17646227.84247  13680307.44745  24140320.857    24140319.8824   24140323.3264
       139.0004        145.0004
  -3188062.04947  -2467374.64445  24224451.585    24224451.5434   24224462.1034
       136.0004        142.0004
  -5645930.29047  -4389506.77545  23964589.249    23964590.1224   23964595.4344
       154.0004        157.0004
 -12415483.73649  -9653876.97648  20147444.542    20147444.4624   20147452.4194
       213.0004        213.0004
 -17729857.89049 -13784278.81747  21147807.673    21147807.9194   21147816.5414
       202.0004        203.0004
   1918296.14349   1509324.78248  21664720.889    21664721.8674   21664729.6624
       221.0004        221.0004
  12633404.13247   9840944.73445  24757607.487    24757605.3384   24757612.2314
       140.0004        145.0004
 21  2  1  0  2  0.0000000  0 10G21G03G04G16G01G07G08G09G27G22
 -10360962.39547  -8058923.01445  22819679.893    22819680.2954   22819685.7454
       153.0004        155.0004
  12070739.89248   9416236.58846  24122675.431    24122676.5214   24122684.5924
       176.0004        176.0004
  -7776624.89649  -6032018.24047  20330367.013    20330367.4674   20330373.2904
       212.0004        211.0004
  17726695.30247  13743009.38345  24155629.658    24155630.4554   24155636.3364
       136.0004        141.0004
  -3254826.50447  -2519398.76045  24211746.706    24211748.0114   24211757.8724
       138.0004        144.0004
  -5713098.96447  -4441846.00145  23951809.440    23951809.7294   23951813.7174
       155.0004        159.0004
 -12409529.00649  -9649236.92848  20148577.062    20148577.6204   20148585.4394
       212.0004        213.0004
 -17775495.08849 -13819840.26447  21139121.802    21139123.3434   21139132.1944
       202.0004        203.0004
   1991999.52249   1566755.98048  21678746.845    21678747.2234   21678754.7004
       221.0004        221.0004
  12678420.58747   9876022.42845  24766171.397    24766170.6584   24766179.0744
       141.0004        145.0004
 21  2  1  0  2 30.0000000  0 10G21G03G04G16G01G07G08G09G27G22
 -10411978.49647  -8098675.75845  22809972.690    22809972.6854   22809978.3994
       152.0004        155.0004
  12129583.92148   9462089.04346  24133873.094    24133873.9424   24133881.6734
       176.0004        177.0004
  -7750518.14049  -6011675.31447  20335334.917    20335335.2984   20335341.5724
       212.0004        210.0004
  17807025.40947  13805604.33345  24170917.104    24170916.3234   24170923.0934
       137.0004        142.0004
  -3321814.12247  -2571596.77945  24198998.780    24198998.8124   24199010.0294
       138.0004        143.0004
  -5780411.80047  -4494297.50445  23938999.971    23938999.4994   23939005.6544
       157.0004        161.0004
 -12402965.91049  -9644122.81548  20149826.466    20149826.7514   20149834.6154
       213.0004        213.0004
 -17820620.73449 -13855003.08847  21130536.902    21130537.0784   21130544.7654
       203.0004        204.0004
   2066152.03449   1624537.16748  21692857.742    21692857.7974   21692865.6194
       221.0004        221.0004
  12723186.76447   9910905.08945  24774690.655    24774689.6964   24774697.6534
       139.0004        144.0004
 21  2  1  0  3  0.0000000  0  9G21G03G04G16G01G07G08G09G27
 -10462918.42247  -8138369.15245  22800280.099    22800279.8424   22800285.4654
       154.0004        158.0004
  12188265.34848   9507814.79746  24145039.474    24145040.3814   24145050.0054
       177.0004        179.0004
  -7723847.97549  -5990893.37647  20340410.105    20340410.5224   20340416.6434
       212.0004        210.0004
  17887219.24446  13868093.03545  24186178.188    24186177.7074   24186180.0394
       133.0004        139.0004
  -3389021.14647  -2623965.76345  24186209.187    24186209.2604   24186220.1984
       137.0004        142.0004
  -5847866.14247  -4546859.28045  23926163.260    23926163.9564   23926169.1204
       159.0004        161.0004
 -12395793.01749  -9638533.54348  20151191.404    20151191.4624   20151199.5234
       213.0004        213.0004
 -17865231.31549 -13889764.56747  21122048.889    21122048.7244   21122055.5904
       204.0004        205.0004
   2140752.93949   1682667.74548  21707053.684    21707053.8084   21707061.5574
       221.0004        220.0004
 21  2  1  0  3 30.0000000  0  9G21G03G04G16G01G07G08G09G27
 -10513782.02647  -8178003.10145  22790601.357    22790599.9774   22790606.9064
       155.0004        157.0004
  12246779.10248   9553409.84146  24156175.094    24156175.5594   24156185.0094
       179.0004        180.0004
  -7696618.13749  -5969675.31747  20345592.369    20345592.2214   20345597.9264
       211.0004        210.0004
  17967272.63646  13930472.32345  24201413.708    24201412.6444   24201417.2564
       134.0004        141.0004
  -3456448.37847  -2676506.32345  24173377.355    24173379.1814   24173389.2254
       137.0004        142.0004
  -5915464.22247  -4599533.07245  23913300.467    23913300.3384   23913305.1764
       159.0004        162.0004
 -12388013.68249  -9632471.70948  20152671.507    20152671.8254   20152679.6404
       212.0004        213.0004
 -17909328.06049 -13924125.65947  21113657.115    21113657.7464   21113663.9234
       205.0004        206.0004
   2215796.65949   1741143.38848  21721333.372    21721334.2764   21721341.8124
       221.0004        220.0004
 21  2  1  0  4  0.0000000  0  9G21G03G04G16G01G07G08G09G27
 -10564567.44647  -8217576.11545  22780934.589    22780935.0374   22780938.3454
       153.0004        155.0004
  12305123.10548   9598872.66446  24167277.209    24167278.0324   24167287.1744
       179.0004        179.0004
  -7668829.60049  -5948021.91347  20350880.311    20350880.4314   20350886.0334
       211.0004        210.0004
  18047184.91347  13992741.57745  24216619.895    24216618.6894   24216623.3234
       137.0004        143.0004
  -3524094.15647  -2729217.20445  24160505.160    24160506.7524   24160517.2114
       139.0004        144.0004
  -5983205.26747  -4652318.27245  23900408.999    23900409.2134   23900413.2304
       158.0004        160.0004
 -12379628.18449  -9625937.54147  20154267.139    20154267.3864   20154275.1054
       212.0004        212.0004
 -17952909.56949 -13958085.27147  21105363.765    21105364.5384   21105370.3764
       206.0004        207.0004
   2291280.33949   1799961.85248  21735697.421    21735698.1244   21735705.9014
       220.0004        220.0004
 21  2  1  0  4 30.0000000  0  9G21G03G04G16G01G07G08G09G27
 -10615269.79547  -8257084.38545  22771288.001    22771287.7464   22771291.5984
       154.0004        157.0004
  12363296.97048   9644202.89346  24178346.843    24178347.3634   24178356.6584
       177.0004        178.0004
  -7640481.59849  -5925932.56347  20356274.722    20356275.2584   20356280.7584
       211.0004        210.0004
  18126956.41347  14054901.16445  24231797.573    24231798.3264   24231804.5494
       139.0004        144.0004
  -3591954.66647  -2782095.41245  24147592.814    24147594.1024   24147604.0684
       141.0004        146.0004
  -6051086.81247  -4705212.96846  23887492.297    23887492.4374   23887496.0874
       160.0004        163.0004
 -12370636.31549  -9618930.88447  20155978.437    20155978.8434   20155986.3564
       212.0004        212.0004
 -17995972.55649 -13991640.84347  21097169.442    21097169.7814   21097176.1844
       207.0004        208.0004
   2367203.01749   1859122.37648  21750145.139    21750146.0674   21750153.5194
       219.0004        219.0004
 21  2  1  0  5  0.0000000  0  9G21G03G04G16G01G07G08G09G27
 -10665887.68947  -8296526.84945  22761655.470    22761655.2974   22761660.4844
       155.0004        158.0004
  12421297.18348   9689397.80046  24189385.116    24189385.5364   24189395.4244
       178.0004        179.0004
  -7611576.52949  -5903409.14447  20361774.735    20361775.2264   20361781.1454
       211.0004        210.0004
  18206584.82347  14116949.26345  24246951.802    24246951.0304   24246956.2984
       140.0004        145.0004
  -3660029.46047  -2835140.54745  24134637.880    24134638.8174   24134648.5034
       144.0004        148.0004
  -6119109.22647  -4758217.41446  23874547.621    23874548.8004   23874552.1794
       162.0004        165.0004
 -12361039.41649  -9611452.77748  20157804.861    20157805.1544   20157812.5214
       212.0004        213.0004
 -18038516.98049 -14024792.34647  21089073.212    21089073.6584   21089080.7614
       208.0004        209.0004
   2443560.43649   1918621.66848  21764675.554    21764676.0104   21764683.7584
       219.0004        219.0004
 21  2  1  0  5 30.0000000  0  9G21G03G04G16G01G07G08G09G27
 -10716418.05947  -8335901.11645  22752038.952    22752039.2824   22752046.1014
       156.0004        159.0004
  12479122.45448   9734456.42746  24200387.813    24200388.8584   24200399.4034
       180.0004        181.0004
  -7582114.55049  -5880451.75947  20367381.757    20367382.0374   20367387.8454
       211.0004        210.0004
  18286069.78047  14178885.59845  24262076.618    24262077.2574   24262082.0384
       137.0004        142.0004
  -3728315.76047  -2888350.50945  24121640.815    24121642.5894   24121656.1174
       143.0004        147.0004
  -6187271.00647  -4811330.44246  23861577.612    23861576.7724   23861581.9254
       162.0004        163.0004
 -12350837.52449  -9603503.23348  20159746.348    20159746.3454   20159754.0894
       212.0004        213.0004
 -18080540.52949 -14057537.95947  21081076.104    21081076.5114   21081083.7014
       208.0004        208.0004
   2520350.68649   1978458.23448  21779288.602    21779289.1644   21779296.9524
       220.0004        220.0004
 21  2  1  0  6  0.0000000  0  9G21G03G04G16G01G07G08G09G27
 -10766857.17347  -8375204.29345  22742441.254    22742441.5524   22742446.7464
       156.0004        160.0004
  12536771.82048   9779377.93746  24211358.176    24211359.4634   24211368.5904
       179.0004        180.0004
  -7552095.66949  -5857060.42547  20373093.457    20373093.9944   20373100.5094
       211.0004        210.0004
  18365411.29047  14240710.15445  24277173.947    24277173.8724   24277178.1264
       136.0004        141.0004
  -3796810.49247  -2941722.91445  24108607.728    24108609.2374   24108620.3284
       143.0004        148.0004
  -6255570.44847  -4864550.76745  23848579.068    23848580.0614   23848584.0534
       161.0004        162.0004
 -12340030.00449  -9595081.77848  20161802.303    20161802.7894   20161810.4354
       212.0004        213.0004
 -18122040.66449 -14089875.71847  21073178.632    21073179.3214   21073186.3344
       207.0004        208.0004
   2597572.02349   2038630.70848  21793983.462    21793983.8444   21793991.1464
       220.0004        219.0004
 21  2  1  0  6 30.0000000  0  9G21G03G04G16G01G07G08G09G27
 -10817203.15847  -8414434.89545  22732860.369    22732860.0014   22732866.3024
       157.0004        158.0004
  12594242.38648   9824160.11646  24222296.600    24222296.5694   24222305.1764
       181.0004        182.0004
  -7521521.77649  -5833236.61747  20378911.671    20378912.0784   20378918.5414
       211.0004        210.0004
  18444607.55646  14302421.51945  24292244.632    24292244.3234   24292249.6414
       134.0004        140.0004
  -3865512.62147  -2995256.92345  24095536.077    24095536.3334   24095546.0154
       144.0004        148.0004
  -6324007.29347  -4917878.15046  23835556.524    23835557.3074   23835562.5224
       161.0004        163.0004
 -12328618.89349  -9586189.99048  20163973.922    20163974.1164   20163982.1744
       212.0004        213.0004
 -18163016.84249 -14121805.20047  21065381.936    21065382.0324   21065388.6984
       208.0004        208.0004
   2675220.78249   2099136.24648  21808759.423    21808759.8454   21808766.7114
       219.0004        217.0004
 21  2  1  0  7  0.0000000  0  9G21G03G04G16G01G07G08G09G27
 -10867454.27447  -8453591.55145  22723297.290    22723297.2594   22723302.6814
       156.0004        157.0004
  12651531.20148   9868800.68946  24233197.302    24233197.8964   24233207.0984
       181.0004        181.0004
  -7490394.87849  -5808981.89547  20384835.287    20384835.6284   20384841.4994
       211.0004        210.0004
  18523657.05746  14364018.52845  24307289.162    24307286.8514   24307291.0094
       131.0004        139.0004
  -3934420.86147  -3048951.49045  24082423.403    24082423.3054   24082434.0374
       145.0004        149.0004
  -6392581.80147  -4971312.79546  23822505.933    23822507.5034   23822512.2824
       161.0004        163.0004
 -12316605.59949  -9576828.96548  20166259.487    20166260.2844   20166268.2434
       212.0004        213.0004
 -18203468.56549 -14153326.01647  21057683.977    21057684.2874   21057691.1304
       208.0004        209.0004
   2753293.25049   2159971.95348  21823616.272    21823616.5264   21823623.7364
       218.0004        218.0004
 21  2  1  0  7 30.0000000  0  9G21G03G04G16G01G07G08G09G27
 -10917606.95747  -8492671.51445  22713753.271    22713754.2574   22713759.6714
       156.0004        158.0004
  12708637.55048   9913299.07446  24244062.104    24244063.2964   24244073.9164
       177.0004        176.0004
  -7458714.71249  -5784296.06347  20390863.701    20390864.0234   20390869.8864
       211.0004        209.0004
  18602559.50047  14425500.94645  24322302.600    24322304.2814   24322308.9374
       137.0004        142.0004
  -4003532.11847  -3102804.26245  24069271.381    24069271.9654   24069281.3684
       145.0004        149.0004
  -6461291.98647  -5024853.13446  23809431.962    23809433.2334   23809437.2984
       162.0004        165.0004
 -12303989.35349  -9566998.11748  20168661.122    20168661.4104   20168668.9384
       212.0004        213.0004
 -18243393.05949 -14184436.01147  21050086.764    21050087.1894   21050093.7974
       209.0004        209.0004
   2831787.93949   2221136.65348  21838553.845    21838553.6594   21838561.3184
       219.0004        219.0004
 21  2  1  0  8  0.0000000  0  9G21G03G04G16G01G07G08G09G27
 -10967657.76647  -8531672.10745  22704229.432    22704229.6014   22704235.7344
       156.0004        158.0004
  12765559.47948   9957653.75446  24254895.497    24254895.9094   24254905.4894
       173.0004        173.0004
  -7426482.36149  -5759179.94647  20396997.234    20396997.8994   20397003.5924
       211.0004        209.0004
  18681314.59147  14486868.52645  24337289.360    24337288.0604   24337293.3564
       136.0004        140.0004
  -4072844.19947  -3156813.53145  24056081.869    24056082.0034   24056090.4594
       145.0004        148.0004
  -6530136.25547  -5078497.97046  23796332.680    23796332.9364   23796335.8934
       163.0004        165.0004
 -12290771.23649  -9556698.26948  20171176.770    20171176.8814   20171184.1124
       212.0004        213.0004
 -18282788.94749 -14215134.09747  21042590.894    21042590.9184   21042596.8834
       209.0004        210.0004
   2910702.06949   2282628.19348  21853569.889    21853570.6534   21853578.1054
       219.0004        219.0004
 21  2  1  0  8 30.0000000  0  9G21G03G04G16G01G07G08G09G27
 -11017604.67147  -8570591.74945  22694724.623    22694724.2824   22694731.0154
       156.0004        159.0004
  12822294.02748  10001862.43746  24265692.752    24265693.2464   24265701.6844
       174.0004        176.0004
  -7393699.91649  -5733635.18347  20403234.931    20403235.4854   20403242.1094
       210.0004        209.0004
  18759920.14646  14548119.63845  24352246.991    24352245.3104   24352251.3004
       131.0004        137.0004
  -4142356.00447  -3210978.47345  24042855.065    24042855.6574   24042864.1044
       145.0004        149.0004
  -6599114.92947  -5132247.57046  23783204.340    23783204.3934   23783209.7914
       161.0004        163.0004
 -12276952.70649  -9545930.56647  20173805.723    20173806.1744   20173813.5234
       212.0004        212.0004
 -18321655.79349 -14245419.94647  21035193.877    21035194.2904   21035200.8094
       209.0004        209.0004
   2990031.87149   2344443.62548  21868666.755    21868666.5684   21868673.5424
       219.0004        218.0004
 21  2  1  0  9  0.0000000  0  9G21G03G04G16G01G07G08G09G27
 -11067445.64047  -8609428.83345  22685240.460    22685239.9674   22685245.2814
       156.0004        158.0004
  12878839.53448  10045923.82046  24276452.641    24276453.4294   24276462.4294
       175.0004        176.0004
  -7360368.24049  -5707662.45547  20409578.560    20409578.6284   20409585.3074
       210.0004        210.0004
  18838375.60646  14609253.83145  24367178.593    24367176.4804   24367184.8774
       131.0004        139.0004
  -4212065.18047  -3265297.17045  24029587.633    24029587.4864   24029597.2984
       142.0004        146.0004
  -6668226.84347  -5186100.94646  23770052.962    23770053.8784   23770058.7304
       161.0004        163.0004
 -12262534.74849  -9534695.78248  20176549.741    20176549.8724   20176557.2864
       212.0004        213.0004
 -18359991.96449 -14275292.28947  21027898.279    21027898.6594   21027905.6064
       209.0004        209.0004
   3069774.79449   2406580.97848  21883840.887    21883841.1314   21883848.2614
       219.0004        218.0004
 21  2  1  0  9 30.0000000  0  9G21G03G04G16G01G07G08G09G27
 -11117177.39747  -8648180.80945  22675777.937    22675777.3774   22675782.2724
       157.0004        159.0004
  12935194.34048  10089836.58946  24287176.881    24287177.2264   24287186.0984
       174.0004        175.0004
  -7326488.24749  -5681262.46247  20416025.602    20416025.9514   20416032.3604
       210.0004        209.0004
  18916680.38746  14670270.50545  24382077.325    24382077.9494   24382085.6564
       131.0004        139.0004
  -4281969.46647  -3319767.88145  24016286.805    24016287.5334   24016296.0214
       145.0004        150.0004
  -6737470.85847  -5240057.29846  23756877.701    23756878.1674   23756881.8414
       163.0004        166.0004
 -12247517.25949  -9522993.82148  20179407.591    20179407.6164   20179415.0844
       212.0004        213.0004
 -18397795.90449 -14304749.89147  21020704.816    21020704.9584   21020711.6724
       209.0004        209.0004
   3149928.25149   2469038.23248  21899094.005    21899093.8214   21899100.9574
       219.0004        218.0004
 21  2  1  0 10  0.0000000  0  9G21G03G04G16G01G07G08G09G27
 -11166796.73547  -8686845.19245  22666334.648    22666335.4604   22666339.2664
       157.0004        159.0004
  12991357.06948  10133599.63646  24297862.071    24297863.6004   24297874.2814
       173.0004        174.0004
  -7292060.52849  -5654435.66847  20422576.416    20422576.8324   20422583.1284
       210.0004        209.0004
  18994833.68646  14731169.22145  24396951.997    24396950.3514   24396953.3164
       127.0004        134.0004
  -4352066.05147  -3374388.45245  24002948.367    24002948.6514   24002956.0154
       146.0004        149.0004
  -6806845.07147  -5294115.09446  23743675.162    23743675.7004   23743680.6404
       164.0004        166.0004
 -12231901.15149  -9510825.41148  20182378.685    20182378.7254   20182386.6954
       212.0004        213.0004
 -18435065.65049 -14333791.26147  21013612.267    21013612.7474   21013619.4104
       209.0004        209.0004
   3230490.02149   2531813.63648  21914423.769    21914424.5824   21914430.8494
       218.0004        217.0004
 21  2  1  0 10 30.0000000  0  9G21G03G04G16G01G07G08G09G27
 -11216301.13447  -8725419.99545  22656914.775    22656913.8244   22656920.2144
       157.0004        160.0004
  13047325.23348  10177211.13546  24308514.843    24308515.3094   24308524.9874
       174.0004        175.0004
  -7257086.85049  -5627183.44847  20429232.591    20429232.8014   20429238.2514
       210.0004        209.0004
  19072834.44646  14791949.04945  24411794.045    24411795.3524   24411795.8764
       128.0004        136.0004
  -4422353.41347  -3429157.66245  23989572.546    23989572.0344   23989581.8924
       145.0004        149.0004
  -6876349.40447  -5348274.28246  23730447.583    23730449.2574   23730454.8894
       163.0004        164.0004
 -12215687.55349  -9498191.41548  20185463.630    20185464.1404   20185471.8154
       212.0004        213.0004
 -18471800.49449 -14362415.80247  21006621.630    21006622.1514   21006629.2664
       208.0004        209.0004
   3311456.66549   2594904.54448  21929831.804    21929831.8474   21929838.4224
       218.0004        217.0004
 21  2  1  0 11  0.0000000  0  9G21G03G04G16G01G07G08G09G27
 -11265687.69447  -8763902.99645  22647515.953    22647516.0624   22647521.2424
       155.0004        155.0004
  13103097.55148  10220670.03646  24319127.558    24319127.8544   24319138.1834
       175.0004        175.0004
  -7221567.86549  -5599506.32547  20435990.803    20435991.1984   20435997.5674
       210.0004        208.0004
  19150682.62746  14852609.95745  24426607.568    24426606.1204   24426611.7704
       130.0004        139.0004
  -4492828.83547  -3484073.42445  23976161.768    23976161.3384   23976171.2354
       144.0004        148.0004
  -6945982.45847  -5402533.77245  23717196.505    23717197.5254   23717202.9534
       161.0004        162.0004
 -12198877.01749  -9485092.28547  20188663.138    20188663.2204   20188670.5904
       212.0004        212.0004
 -18507998.52949 -14390622.05947  20999733.794    20999734.5084   20999741.2434
       210.0004        211.0004
   3392825.96749   2658309.19548  21945315.459    21945315.7254   21945322.8934
       217.0004        217.0004
 21  2  1  0 11 30.0000000  0  9G21G03G04G16G01G07G08G09G27
 -11314953.86047  -8802292.16545  22638140.582    22638140.2574   22638146.4904
       155.0004        156.0004
  13158671.85248  10263974.65146  24329702.553    24329703.2824   24329713.0834
       172.0004        173.0004
  -7185505.10249  -5571405.47747  20442853.472    20442854.1254   20442859.9724
       209.0004        208.0004
  19228377.06146  14913151.05345  24441390.609    24441392.6784   24441395.2404
       128.0004        134.0004
  -4563490.37747  -3539134.26145  23962715.089    23962714.8274   23962723.6444
       144.0004        147.0004
  -7015743.17147  -5456892.73946  23703923.713    23703923.9504   23703928.6104
       163.0004        166.0004
 -12181470.80549  -9471528.99547  20191975.643    20191975.8464   20191983.1064
       212.0004        212.0004
 -18543658.76449 -14418409.25847  20992947.782    20992948.3364   20992955.2984
       210.0004        211.0004
   3474594.79949   2722025.16948  21960875.628    21960875.9264   21960882.7264
       217.0004        216.0004
 21  2  1  0 12  0.0000000  0  9G21G03G04G16G01G07G08G09G27
 -11364096.53347  -8840585.09245  22628789.772    22628789.7714   22628795.6104
       156.0004        158.0004
  13214046.14948  10307123.38446  24340239.222    24340240.9274   24340250.6864
       171.0004        172.0004
  -7148899.98549  -5542882.00047  20449819.619    20449819.8954   20449825.5964
       209.0004        208.0004
  19305916.81246  14973571.65545  24456146.854    24456146.0934   24456153.2354
       127.0004        135.0004
  -4634336.13147  -3594338.60945  23949232.093    23949234.3294   23949242.4664
       144.0004        148.0004
  -7085630.70848  -5511350.51846  23690625.139    23690625.2934   23690629.4664
       166.0004        168.0004
 -12163469.63549  -9457502.07147  20195400.771    20195400.9434   20195408.4564
       212.0004        212.0004
 -18578780.14549 -14445776.55347  20986264.093    20986264.8414   20986271.8184
       210.0004        210.0004
   3556760.17149   2786050.15448  21976511.450    21976511.1394   21976517.9004
       216.0004        215.0004
 21  2  1  0 12 30.0000000  0  9G21G03G04G16G01G07G08G09G27
 -11413114.48147  -8878780.86445  22619463.342    22619462.7934   22619467.2284
       158.0004        159.0004
  13269217.97948  10350114.34646  24350739.437    24350740.3604   24350749.1434
       172.0004        173.0004
  -7111754.32549  -5513937.32747  20456888.160    20456888.4164   20456894.2944
       209.0004        207.0004
  19383300.15546  15033870.38345  24470871.652    24470873.4584   24470876.8934
       128.0004        136.0004
  -4705364.37247  -3649685.15545  23935717.521    23935717.0774   23935725.5784
       145.0004        149.0004
  -7155644.75348  -5565906.92146  23677301.850    23677301.9324   23677305.8244
       166.0004        166.0004
 -12144874.94649  -9443012.68347  20198938.708    20198939.2164   20198947.0794
       212.0004        212.0004
 -18613361.95549 -14472723.41247  20979684.360    20979684.5724   20979691.5644
       211.0004        211.0004
   3639318.66649   2850381.45148  21992220.734    21992221.8654   21992228.6964
       215.0004        215.0004
 21  2  1  0 13  0.0000000  0  9G21G03G04G16G01G07G08G09G27
 -11462004.15447  -8916876.68945  22610158.194    22610157.0114   22610164.3704
       157.0004        158.0004
  13324185.74748  10392946.30746  24361198.316    24361199.7504   24361209.3624
       172.0004        174.0004
  -7074069.23649  -5484572.34347  20464059.508    20464059.8264   20464065.4384
       209.0004        208.0004
  19460526.95346  15094047.10245  24485565.258    24485565.3414   24485574.5594
       125.0004        133.0004
  -4776572.69147  -3705172.05745  23922167.564    23922167.2314   23922176.3864
       145.0004        150.0004
  -7225783.96047  -5620560.83646  23663954.333    23663954.7884   23663958.4584
       163.0004        163.0004
 -12125687.73449  -9428061.60547  20202590.202    20202590.6114   20202598.3264
       212.0004        212.0004
 -18647402.80349 -14499248.75647  20973206.506    20973206.5474   20973213.7164
       211.0004        211.0004
   3722267.60949   2915016.98348  22008007.082    22008006.6544   22008012.9884
       215.0004        215.0004
 21  2  1  0 13 30.0000000  0  9G21G03G04G16G01G07G08G09G27
 -11510761.43547  -8954869.34145  22600877.736    22600878.9224   22600884.9004
       156.0004        157.0004
  13378948.91248  10435618.84646  24371620.262    24371620.8514   24371629.2994
       173.0004        174.0004
  -7035844.76149  -5454787.02747  20471332.849    20471333.3534   20471339.4294
       209.0004        208.0004
  19537597.50746  15154102.06745  24500231.732    24500231.9544   24500235.3294
       124.0004        133.0004
  -4847957.57747  -3760796.50945  23908581.144    23908581.6204   23908591.4704
       145.0004        148.0004
  -7296045.42047  -5675309.98546  23650582.223    23650583.5564   23650587.6564
       161.0004        164.0004
 -12105907.83849  -9412648.67647  20206354.237    20206354.6944   20206362.3264
       212.0004        212.0004
 -18680900.16849 -14525350.59247  20966831.512    20966832.1124   20966839.1934
       211.0004        211.0004
   3805605.44949   2979955.56748  22023864.959    22023864.8914   22023872.2714
       215.0004        215.0004
 21  2  1  0 14  0.0000000  0  9G21G03G04G16G01G07G08G09G27
 -11559384.09147  -8992757.08245  22591627.332    22591627.3534   22591631.6214
       154.0004        157.0004
  13433505.47848  10478130.40746  24382002.005    24382002.6954   24382012.7694
       173.0004        174.0004
  -6997082.43549  -5424582.61947  20478709.037    20478709.3984   20478715.8534
       209.0004        208.0004
  19614510.96146  15214034.65545  24514872.220    24514872.3264   24514873.6314
       127.0004        135.0004
  -4919516.92247  -3816556.92545  23894964.000    23894963.9884   23894973.0614
       141.0004        145.0004
  -7366428.74947  -5730154.11746  23637190.097    23637190.4824   23637194.4234
       163.0004        166.0004
 -12085536.57749  -9396774.95047  20210231.305    20210231.2284   20210238.7474
       212.0004        212.0004
 -18713853.13949 -14551028.22947  20960560.534    20960561.1484   20960568.2104
       211.0004        211.0004
   3889329.13549   3045194.79548  22039796.676    22039796.8564   22039804.4834
       215.0004        215.0004
 21  2  1  0 14 30.0000000  0  9G21G03G04G16G01G07G08G09G27
 -11607870.61047  -9030538.75345  22582401.573    22582400.2734   22582407.5374
       155.0004        158.0004
  13487852.02948  10520478.30046  24392341.603    24392343.4504   24392355.9824
       175.0004        176.0004
  -6957785.32149  -5393961.48947  20486187.491    20486187.4474   20486194.2774
       209.0004        208.0004
  19691265.08146  15273843.09644  24529477.427    24529478.0594   24529478.9234
       125.0004        131.0004
  -4991250.23347  -3872452.93145  23881313.940    23881313.2794   23881322.5384
       141.0004        145.0004
  -7436934.33947  -5785093.49346  23623774.457    23623773.4654   23623778.4994
       163.0004        164.0004
 -12064576.62849  -9380442.49347  20214219.617    20214219.5974   20214227.2464
       212.0004        212.0004
 -18746262.19049 -14576282.02847  20954393.503    20954393.9514   20954401.3114
       211.0004        211.0004
   3973434.10649   3110731.14248  22055800.832    22055801.7644   22055809.1484
       214.0004        214.0004
 21  2  1  0 15  0.0000000  0  9G21G03G04G16G01G07G08G09G27
 -11656218.07047  -9068212.04945  22573200.801    22573199.6884   22573205.6554
       156.0004        160.0004
  13541987.54648  10562661.74946  24402645.554    24402646.2514   24402657.2874
       175.0004        176.0004
  -6917953.96249  -5362924.07347  20493767.247    20493767.5764   20493773.6144
       209.0004        208.0004
  19767859.77346  15333527.26945  24544049.958    24544050.4714   24544058.7614
       127.0004        135.0004
  -5063154.33247  -3928481.97745  23867630.799    23867632.2064   23867640.3964
       142.0004        146.0004
  -7507560.50547  -5840126.83846  23610333.883    23610333.8484   23610338.4224
       163.0004        165.0004
 -12043028.13449  -9363651.44647  20218319.484    20218320.1114   20218327.5704
       211.0004        212.0004
 -18778125.39649 -14601110.50147  20948330.619    20948330.8954   20948337.5104
       211.0004        212.0004
   4057918.28949   3176562.97748  22071878.404    22071878.5814   22071885.6164
       214.0004        213.0004
 21  2  1  0 15 30.0000000  0  9G21G03G04G16G01G07G08G09G27
 -11704423.39447  -9105774.58845  22564026.548    22564027.0054   22564032.5784
       157.0004        160.0004
  13595910.08548  10604679.21546  24412906.266    24412907.9204   24412916.7224
       172.0004        171.0004
  -6877590.03349  -5331471.67147  20501447.989    20501448.6144   20501454.7404
       208.0004        207.0004
  19844294.15346  15393086.51545  24558600.036    24558597.3034   24558602.0934
       128.0004        136.0004
  -5135227.22447  -3984642.61445  23853915.223    23853916.3944   23853925.6994
       142.0004        145.0004
  -7578306.10947  -5895253.26546  23596872.001    23596871.7714   23596875.8214
       164.0004        166.0004
 -12020893.20049  -9346403.44047  20222532.110    20222532.3204   20222539.8794
       211.0004        212.0004
 -18809441.89649 -14625512.97547  20942371.030    20942371.4844   20942378.4734
       211.0004        212.0004
   4142778.52949   3242687.83247  22088025.404    22088026.5714   22088033.9424
       213.0004        212.0004
 21  2  1  0 16  0.0000000  0  9G21G03G04G16G01G07G08G09G27
 -11752483.99647  -9143224.36645  22554883.531    22554882.1614   22554886.8674
       158.0004        161.0004
  13649617.59648  10646529.12046  24423127.614    24423127.7264   24423137.5984
       170.0004        170.0004
  -6836695.14749  -5299605.51647  20509229.683    20509230.1954   20509236.6414
       208.0004        207.0004
  19920567.37546  15452520.20345  24573109.230    24573110.0364   24573117.1874
       127.0004        135.0004
  -5207466.85547  -4040933.13445  23840166.887    23840166.9754   23840180.3894
       139.0004        144.0004
  -7649169.88847  -5950471.76546  23583386.145    23583386.1334   23583391.3434
       164.0004        165.0004
 -11998172.28949  -9328698.81547  20226855.387    20226855.9304   20226863.4114
       211.0004        212.0004
 -18840210.81549 -14649488.74547  20936516.217    20936516.5344   20936523.2554
       211.0004        211.0004
   4228011.80149   3309103.37147  22104245.403    22104246.0274   22104253.3704
       212.0004        212.0004
 21  2  1  0 16 30.0000000  0  9G21G03G04G16G01G07G08G09G27
 -11800396.56147  -9180558.79145  22545765.503    22545764.4524   22545769.8204
       159.0004        161.0004
  13703109.35348  10688210.98246  24433306.270    24433306.9224   24433316.0754
       169.0004        171.0004
  -6795269.84349  -5267326.05147  20517112.790    20517113.2764   20517119.6494
       208.0004        206.0004
  19996679.72546  15511828.53545  24587595.061    24587593.7334   24587600.1094
       128.0004        135.0004
  -5279869.81447  -4097350.93045  23826388.490    23826390.5404   23826401.8234
       138.0004        143.0004
  -7720150.03847  -6005780.89846  23569878.684    23569878.8434   23569884.2004
       163.0004        165.0004
 -11974865.74849  -9310537.85147  20231290.756    20231290.8554   20231298.5114
       211.0004        212.0004
 -18870430.14849 -14673036.26247  20930765.550    20930765.8124   20930772.4944
       210.0004        210.0004
   4313616.13049   3375808.05547  22120534.821    22120535.4584   22120544.0494
       212.0004        212.0004
 21  2  1  0 17  0.0000000  0  9G21G03G04G16G01G07G08G09G27
 -11848157.90647  -9217775.41245  22536674.990    22536675.0114   22536680.7514
       159.0004        160.0004
  13756383.81748  10729723.51446  24443444.398    24443445.7754   24443453.9874
       172.0004        175.0004
  -6753315.37949  -5234634.27747  20525096.582    20525096.8774   20525103.2164
       208.0004        206.0004
  20072630.56246  15571011.01945  24602045.111    24602046.0764   24602052.4484
       128.0004        135.0004
  -5352433.66747  -4153894.10745  23812580.197    23812582.0134   23812592.7044
       140.0004        145.0004
  -7791245.41048  -6061179.86046  23556348.889    23556350.0064   23556354.9834
       165.0004        168.0004
 -11950974.53449  -9291921.31847  20235836.839    20235837.0364   20235845.2364
       211.0004        212.0004
 -18900098.59649 -14696154.53047  20925119.690    20925119.9044   20925126.6924
       210.0004        210.0004
   4399588.80049   3442799.73747  22136895.393    22136896.1344   22136903.9464
       212.0004        212.0004
 21  2  1  0 17 30.0000000  0  9G21G03G04G16G01G07G08G09G27
 -11895766.16447  -9254872.71945  22527615.412    22527615.5544   22527621.1794
       159.0004        161.0004
  13809438.73848  10771064.95946  24453540.653    24453541.4504   24453550.6024
       173.0004        174.0004
  -6710833.87049  -5201531.80747  20533180.696    20533180.7354   20533187.2954
       208.0004        206.0004
  20148418.88946  15630066.84345  24616469.231    24616470.4774   24616474.3124
       126.0004        134.0004
  -5425156.65347  -4210561.29545  23798744.059    23798744.7364   23798753.2314
       142.0004        147.0004
  -7862455.38648  -6116668.12546  23542798.996    23542799.5564   23542803.6134
       167.0004        169.0004
 -11926500.79749  -9272850.87247  20240494.207    20240494.2984   20240502.4094
       211.0004        212.0004
 -18929215.78849 -14718843.25247  20919578.713    20919579.1254   20919586.0314
       210.0004        210.0004
   4485926.33549   3510075.73247  22153325.673    22153325.8504   22153333.3304
       211.0004        211.0004
 21  2  1  0 18  0.0000000  0  9G21G03G04G16G01G07G08G09G27
 -11943218.34347  -9291848.42346  22518586.286    22518586.5984   22518591.4924
       160.0004        163.0004
  13862271.28048  10812233.13046  24463595.103    24463594.9034   24463604.2814
       172.0004        172.0004
  -6667827.85749  -5168020.61847  20541364.640    20541365.0464   20541370.8514
       207.0004        206.0004
  20224042.66446  15688994.42245  24630859.916    24630860.2144   24630862.9204
       126.0004        134.0004
  -5498037.52547  -4267351.47745  23784874.902    23784875.0214   23784884.6024
       143.0004        148.0004
  -7933779.56148  -6172245.37446  23529225.411    23529226.6744   23529231.0334
       167.0004        168.0004
 -11901447.00449  -9253328.41447  20245261.525    20245261.8324   20245269.7214
       211.0004        211.0004
 -18957781.83449 -14741102.49047  20914142.296    20914142.5604   20914149.9634
       210.0004        210.0004
   4572624.73549   3577632.94647  22169823.707    22169823.8044   22169831.1704
       212.0004        212.0004
 21  2  1  0 18 30.0000000  0  9G21G03G04G16G01G07G08G09G27
 -11990511.74547  -9328700.38146  22509587.387    22509586.6304   22509591.7094
       161.0004        163.0004
  13914881.08248  10853227.69946  24473605.056    24473605.5804   24473616.6364
       170.0004        171.0004
  -6624297.65649  -5134100.97947  20549648.197    20549648.5074   20549654.3274
       207.0004        206.0004
  20299502.75946  15747794.51544  24645219.115    24645218.8104   24645222.8264
       124.0004        131.0004
  -5571072.57447  -4324261.82645  23770974.443    23770976.0304   23770986.8294
       144.0004        147.0004
  -8005215.34648  -6227909.58646  23515631.209    23515631.9104   23515637.1574
       166.0004        167.0004
 -11875812.78049  -9233353.68547  20250139.587    20250139.5464   20250147.4454
       210.0004        211.0004
 -18985794.42949 -14762930.48747  20908811.730    20908812.6114   20908819.4054
       210.0004        211.0004
   4659682.37149   3645470.06447  22186389.160    22186389.9594   22186397.7194
       211.0004        212.0004
 21  2  1  0 19  0.0000000  0  9G21G03G04G16G01G07G08G09G27
 -12037644.04947  -9365426.85146  22500617.710    22500617.7934   22500622.4604
       162.0004        164.0004
  13967265.84548  10894046.91546  24483573.344    24483573.8334   24483584.9004
       169.0004        169.0004
  -6580245.42149  -5099774.57347  20558030.485    20558030.8984   20558037.4254
       207.0004        206.0004
  20374798.40046  15806466.50545  24659550.119    24659548.3524   24659555.0774
       126.0004        135.0004
  -5644259.98247  -4381290.89845  23757048.040    23757049.8924   23757059.0744
       143.0004        147.0004
  -8076762.21648  -6283660.35546  23502017.786    23502018.4034   23502023.0434
       167.0004        170.0004
 -11849600.19749  -9212928.29047  20255127.568    20255128.1154   20255135.3324
       210.0004        211.0004
 -19013253.24549 -14784326.97747  20903587.257    20903587.4824   20903593.8914
       211.0004        211.0004
   4747095.76049   3713584.38047  22203023.712    22203024.6024   22203031.6734
       211.0004        211.0004
 21  2  1  0 19 30.0000000  0  9G21G03G04G16G01G07G08G09G27
 -12084612.67047  -9402025.74046  22491680.345    22491679.6934   22491685.4434
       163.0004        165.0004
  14019423.57148  10934689.23946  24493500.296    24493500.8354   24493509.6454
       169.0004        170.0004
  -6535673.08549  -5065042.87847  20566512.184    20566512.6854   20566519.3444
       207.0004        205.0004
  20449928.27346  15865009.27345  24673843.950    24673844.1994   24673849.7174
       128.0004        136.0004
  -5717597.78447  -4438437.14545  23743093.303    23743093.4304   23743104.1644
       145.0004        149.0004
  -8148419.13548  -6339496.85846  23488382.483    23488383.3094   23488387.5484
       169.0004        171.0004
 -11822810.95049  -9192053.53347  20260226.004    20260226.0564   20260233.2804
       210.0004        211.0004
 -19040157.71149 -14805291.48247  20898467.032    20898467.5284   20898474.5064
       211.0004        211.0004
   4834861.51849   3781973.29947  22219726.381    22219726.4864   22219732.8364
       211.0004        211.0004
 21  2  1  0 20  0.0000000  0  9G21G03G04G16G01G07G08G09G27
 -12131415.13147  -9438495.14146  22482772.261    22482772.8214   22482777.6604
       163.0004        164.0004
  14071352.34548  10975153.14846  24503380.170    24503381.0324   24503391.0044
       169.0004        171.0004
  -6490582.54449  -5029907.38947  20575092.827    20575093.5054   20575099.4304
       207.0004        205.0004
  20524891.52346  15923422.16345  24688111.427    24688110.5724   24688116.6744
       132.0004        140.0004
  -5791083.85947  -4495698.93745  23729107.998    23729108.9044   23729119.4644
       145.0004        149.0004
  -8220185.42248  -6395418.60646  23474724.865    23474725.0794   23474729.9704
       169.0004        169.0004
 -11795446.38249  -9170730.47247  20265432.758    20265433.2164   20265440.7534
       210.0004        211.0004
 -19066507.26149 -14825823.58247  20893452.943    20893453.0484   20893460.2934
       211.0004        211.0004
   4922976.52549   3850634.35347  22236493.764    22236493.9134   22236500.3384
       211.0004        211.0004
 21  2  1  0 20 30.0000000  0  9G21G03G04G16G01G07G08G09G27
 -12178047.44547  -9474831.98646  22473897.969    22473898.6844   22473904.7784
       163.0004        164.0004
  14123051.46648  11015438.12846  24513218.836    24513219.7334   24513229.6844
       170.0004        172.0004
  -6444974.40549  -4994368.59247  20583772.157    20583772.5334   20583778.5634
       206.0004        205.0004
  20599688.60546  15981705.66245  24702343.038    24702342.9104   24702348.4874
       133.0004        139.0004
  -5864714.73047  -4553073.53145  23715097.336    23715098.6664   23715108.4704
       147.0004        151.0004
  -8292058.51248  -6451423.58346  23461047.045    23461048.5504   23461052.9144
       168.0004        170.0004
 -11767506.88049  -9148959.41947  20270749.524    20270749.9154   20270757.6444
       210.0004        211.0004
 -19092299.94549 -14845921.78447  20888544.931    20888545.3184   20888551.9394
       210.0004        211.0004
   5011438.81349   3919566.02147  22253327.466    22253327.1294   22253334.7254
       211.0004        211.0004
 21  2  1  0 21  0.0000000  0  8G21G03G04G01G07G08G09G27
 -12224505.58847  -9511033.12446  22465058.130    22465057.7954   22465065.6684
       163.0004        165.0004
  14174520.39248  11055543.74946  24523013.177    24523013.7594   24523024.7964
       169.0004        170.0004
  -6398849.34249  -4958426.98147  20592548.709    20592549.2844   20592555.9564
       206.0004        204.0004
  -5938486.99947  -4610558.33145  23701057.186    23701059.9504   23701069.6304
       148.0004        150.0004
  -8364036.15648  -6507510.02746  23447350.930    23447351.6594   23447357.0084
       169.0004        170.0004
 -11738993.21149  -9126740.95147  20276175.679    20276175.9434   20276183.4324
       210.0004        211.0004
 -19117533.97349 -14865584.65047  20883743.275    20883743.6244   20883750.1844
       210.0004        211.0004
   5100246.48049   3988766.81047  22270226.235    22270226.8074   22270234.3924
       211.0004        210.0004
 21  2  1  0 21 30.0000000  0  8G21G03G04G01G07G08G09G27
 -12270788.24947  -9547097.53546  22456250.834    22456251.3544   22456257.1894
       163.0004        164.0004
  14225756.47448  11095467.87446  24532763.176    24532764.2114   24532774.0804
       169.0004        169.0004
  -6352210.06649  -4922084.69547  20601424.101    20601424.5324   20601431.3424
       205.0004        204.0004
  -6012399.29847  -4668152.24745  23686995.738    23686994.2634   23687003.8504
       148.0004        152.0004
  -8436118.10548  -6563677.74246  23433632.574    23433633.7714   23433639.9554
       168.0004        169.0004
 -11709907.83149  -9104077.01147  20281710.135    20281710.5974   20281718.2234
       210.0004        211.0004
 -19142209.57449 -14884812.39647  20879047.528    20879047.8534   20879054.5904
       211.0004        211.0004
   5189395.46649   4058233.55147  22287190.319    22287191.6654   22287198.6684
       211.0004        211.0004
 21  2  1  0 22  0.0000000  0  8G21G03G04G01G07G08G09G27
 -12316893.83047  -9583023.91346  22447477.840    22447478.5454   22447483.1874
       163.0004        165.0004
  14276757.06848  11135208.54346  24542469.782    24542469.5864   24542478.7744
       167.0004        168.0004
  -6305059.19949  -4885343.75447  20610397.045    20610397.7384   20610403.3924
       205.0004        204.0004
  -6086450.03447  -4725854.03045  23672902.239    23672902.8084   23672912.4404
       148.0004        151.0004
  -8508304.39948  -6619926.75346  23419898.089    23419897.7924   23419903.3464
       169.0004        173.0004
 -11680253.10949  -9080969.40447  20287353.534    20287353.8994   20287361.1944
       210.0004        211.0004
 -19166326.86149 -14903605.07447  20874458.015    20874458.0374   20874464.9234
       211.0004        211.0004
   5278881.92649   4127963.28947  22304220.314    22304220.1894   22304227.2494
       211.0004        211.0004
 21  2  1  0 22 30.0000000  0  8G21G03G04G01G07G08G09G27
 -12362819.54247  -9618810.16546  22438738.638    22438738.0204   22438743.3734
       164.0004        165.0004
  14327520.09648  11174764.07146  24552128.711    24552129.1834   24552139.6984
       169.0004        171.0004
  -6257399.08949  -4848206.01547  20619466.049    20619466.5184   20619472.2634
       205.0004        203.0004
  -6160637.36247  -4783662.26645  23658783.845    23658785.4454   23658794.8994
       149.0004        152.0004
  -8580593.98548  -6676256.31346  23406142.071    23406142.7284   23406147.4814
       173.0004        176.0004
 -11650031.08049  -9057419.76647  20293104.610    20293104.9534   20293112.2094
       211.0004        211.0004
 -19189885.69449 -14921962.61747  20869974.853    20869975.4044   20869981.6334
       211.0004        211.0004
   5368702.26149   4197953.15147  22321312.163    22321312.4764   22321319.7404
       211.0004        211.0004
 21  2  1  0 23  0.0000000  0  8G21G03G04G01G07G08G09G27
 -12408562.31047  -9654453.84946  22430033.814    22430033.3004   22430039.9334
       164.0004        166.0004
  14378044.83048  11214133.90546  24561743.009    24561743.3584   24561754.2554
       168.0004        169.0004
  -6209230.58249  -4810672.11647  20628632.780    20628633.1174   20628638.8104
       204.0004        203.0004
  -6234957.98447  -4841574.37845  23644644.103    23644644.1574   23644652.4424
       150.0004        154.0004
  -8652984.22648  -6732664.25846  23392365.197    23392365.9144   23392371.3644
       173.0004        173.0004
 -11619242.41949  -9033428.59247  20298963.448    20298963.8134   20298971.2364
       211.0004        211.0004
 -19212884.45249 -14939883.71747  20865598.229    20865598.7604   20865605.6544
       211.0004        212.0004
   5458854.40949   4268201.58947  22338466.244    22338467.7194   22338475.2174
       211.0004        211.0004
 21  2  1  0 23 30.0000000  0  8G21G03G04G01G07G08G09G27
 -12454118.97847  -9689952.52546  22421364.937    22421364.7584   22421369.7724
       164.0004        165.0004
  14428330.11048  11253317.15746  24571310.612    24571311.3464   24571321.6774
       165.0004        165.0004
  -6160555.06249  -4772743.14147  20637895.130    20637895.3654   20637901.4674
       204.0004        204.0004
  -6309409.00347  -4899588.08445  23630475.806    23630476.0824   23630484.6394
       150.0004        153.0004
  -8725474.01248  -6789149.79346  23378572.983    23378572.9564   23378576.6524
       173.0004        174.0004
 -11587888.11249  -9008996.65447  20304929.828    20304930.1794   20304938.0424
       211.0004        211.0004
 -19235322.03049 -14957367.54347  20861328.624    20861329.1024   20861335.9094
       211.0004        212.0004
   5549335.81949   4338706.58047  22355685.602    22355686.0054   22355692.7124
       210.0004        209.0004
 21  2  1  0 24  0.0000000  0  8G21G03G04G01G07G08G09G27
 -12499487.58947  -9725304.66746  22412730.623    22412730.9054   22412735.7154
       164.0004        165.0004
  14478373.12448  11292311.66146  24580835.611    24580835.5034   24580844.9754
       165.0004        167.0004
  -6111375.53549  -4734421.42547  20647253.633    20647254.1084   20647260.0884
       205.0004        204.0004
  -6383989.10047  -4957702.34845  23616283.986    23616283.6534   23616291.6394
       151.0004        154.0004
  -8798063.04048  -6845712.66046  23364759.370    23364759.6334   23364763.2464
       172.0004        171.0004
 -11555971.01149  -8984126.17747  20311003.972    20311003.9874   20311011.5144
       211.0004        211.0004
 -19257198.97549 -14974414.49547  20857165.530    20857165.8514   20857172.5814
       211.0004        212.0004
   5640142.25649   4409464.86447  22372965.056    22372965.7794   22372971.9244
       209.0004        208.0004
 21  2  1  0 24 30.0000000  0  8G21G03G04G01G07G08G09G27
 -12544664.28447  -9760507.26946  22404135.331    22404134.6304   22404140.0584
       164.0004        166.0004
  14528173.65848  11331117.20346  24590311.942    24590312.7974   24590321.7224
       168.0004        171.0004
  -6061692.52649  -4695707.39047  20656708.312    20656708.7194   20656714.9864
       205.0004        203.0004
  -6458694.57747  -5015914.31245  23602067.749    23602067.3894   23602076.3114
       152.0004        155.0004
  -8870748.37848  -6902350.53846  23350926.463    23350927.8264   23350931.3574
       169.0004        169.0004
 -11523491.51349  -8958817.46647  20317184.061    20317184.4264   20317192.0254
       211.0004        211.0004
 -19278513.32749 -14991023.07347  20853109.461    20853109.7704   20853117.0104
       211.0004        212.0004
   5731272.00649   4480475.07647  22390306.219    22390307.1524   22390313.8984
       209.0004        208.0004
 21  2  1  0 25  0.0000000  0  8G21G03G04G01G07G08G09G27
 -12589646.78947  -9795558.56446  22395575.432    22395575.2654   22395580.3584
       164.0004        166.0004
  14577729.75748  11369732.26746  24599743.194    24599743.1514   24599752.4814
       170.0004        172.0004
  -6011508.19949  -4656602.73247  20666257.608    20666257.9834   20666264.3174
       204.0004        203.0004
  -6533523.14647  -5074222.22845  23587829.985    23587829.8054   23587836.8834
       154.0004        157.0004
  -8943529.38448  -6959063.01446  23337076.664    23337077.8534   23337081.6544
       170.0004        171.0004
 -11490451.48549  -8933071.98947  20323471.815    20323472.0904   20323479.3424
       211.0004        211.0004
 -19299264.79949 -15007193.06347  20849160.537    20849160.9734   20849167.6684
       211.0004        212.0004
   5822721.81949   4551734.67447  22407708.448    22407709.2114   22407716.5264
       208.0004        207.0004
 21  2  1  0 25 30.0000000  0  8G21G03G04G01G07G08G09G27
 -12634432.32548  -9830456.36946  22387052.869    22387052.3324   22387057.5594
       165.0004        166.0004
  14627039.86148  11408155.67746  24609124.990    24609125.7334   24609135.8184
       169.0004        170.0004
  -5960824.50949  -4617108.94047  20675903.037    20675903.0554   20675908.9354
       204.0004        202.0004
  -6608472.48747  -5132624.21845  23573564.044    23573565.7194   23573573.7914
       153.0004        156.0004
  -9016404.65448  -7015848.92546  23323209.400    23323209.7474   23323214.4234
       171.0004        172.0004
 -11456852.24249  -8906890.74647  20329865.692    20329866.1984   20329872.4734
       211.0004        211.0004
 -19319452.84449 -15022923.99047  20845318.568    20845319.1244   20845326.1034
       211.0004        212.0004
   5914488.60749   4623241.26547  22425170.568    22425172.0934   22425179.0184
       208.0004        208.0004
 21  2  1  0 26  0.0000000  0  8G21G03G04G01G07G08G09G27
 -12679017.06548  -9865197.69246  22378568.645    22378568.7504   22378573.5204
       165.0004        166.0004
  14676103.72848  11446387.19546  24618461.984    24618462.6504   24618472.4964
       170.0004        171.0004
  -5909642.07949  -4577226.51947  20685642.284    20685642.5794   20685649.1174
       203.0004        202.0004
  -6683538.73547  -5191117.32345  23559280.916    23559281.3154   23559289.2764
       153.0004        155.0004
  -9089371.63248  -7072706.26146  23309323.576    23309324.3064   23309328.7724
       171.0004        173.0004
 -11422694.86249  -8880274.58447  20336365.891    20336366.3794   20336372.9284
       211.0004        211.0004
 -19339075.68849 -15038214.50047  20841584.453    20841584.9274   20841592.4944
       211.0004        212.0004
   6006570.52649   4694993.42047  22442694.663    22442694.6364   22442701.1904
       208.0004        207.0004
 21  2  1  0 26 30.0000000  0  8G21G03G04G01G07G08G09G27
 -12723399.20548  -9899781.15846  22370122.603    22370122.1404   22370129.0484
       165.0004        165.0004
  14724918.51248  11484424.60846  24627750.465    24627751.2714   24627762.4974
       170.0004        171.0004
  -5857964.10249  -4536957.99047  20695476.473    20695476.5744   20695482.7464
       203.0004        201.0004
  -6758720.66747  -5249700.56345  23544973.590    23544973.7654   23544982.9724
       152.0004        154.0004
  -9162429.91448  -7129634.77646  23295421.520    23295422.4414   23295425.9494
       171.0004        171.0004
 -11387982.17549  -8853225.74747  20342971.145    20342971.3884   20342978.1854
       210.0004        211.0004
 -19358134.07349 -15053065.20247  20837958.180    20837958.4804   20837965.4274
       211.0004        212.0004
   6098963.35849   4766987.83247  22460276.507    22460276.5664   22460283.1814
       208.0004        207.0004
 21  2  1  0 27  0.0000000  0  8G21G03G04G01G07G08G09G27
 -12767576.17247  -9934204.73946  22361714.866    22361715.0814   22361720.7114
       164.0004        166.0004
  14773482.42448  11522266.55346  24636991.441    24636992.6144   24637002.9434
       169.0004        168.0004
  -5805792.77149  -4496304.99047  20705403.571    20705404.2564   20705410.5634
       202.0004        201.0004
  -6834015.98547  -5308372.18245  23530645.097    23530646.4344   23530654.7884
       152.0004        155.0004
  -9235578.02848  -7186633.28146  23281502.192    23281502.6644   23281506.5624
       169.0004        171.0004
 -11352715.70049  -8825745.35147  20349681.764    20349681.6074   20349689.8274
       210.0004        210.0004
 -19376627.72149 -15067475.83047  20834438.796    20834439.2264   20834446.3504
       212.0004        212.0004
   6191663.85149   4839221.99747  22477917.446    22477917.1384   22477923.5304
       207.0004        207.0004
 21  2  1  0 27 30.0000000  0  8G21G03G04G01G07G08G09G27
 -12811546.07247  -9968467.00146  22353349.356    22353348.5084   22353353.0544
       164.0004        167.0004
  14821793.86948  11559911.77046  24646185.225    24646186.2524   24646196.5614
       168.0004        170.0004
  -5753130.21949  -4455269.24047  20715425.310    20715425.7204   20715432.3764
       202.0004        201.0004
  -6909422.35147  -5367130.30245  23516295.195    23516296.0414   23516306.0424
       153.0004        156.0004
  -9308815.21248  -7243701.19046  23267565.799    23267566.0144   23267570.9964
       171.0004        173.0004
 -11316897.82049  -8797835.30847  20356496.904    20356497.5324   20356505.6324
       210.0004        211.0004
 -19394556.37649 -15081446.21048  20831026.821    20831027.5304   20831034.5724
       212.0004        213.0004
   6284668.78249   4911693.37647  22495615.178    22495615.3024   22495622.7784
       207.0004        208.0004
 21  2  1  0 28  0.0000000  0  8G21G03G04G01G07G08G09G27
 -12855305.44348 -10002565.19146  22345021.970    22345021.9974   22345026.1754
       165.0004        165.0004
  14869851.40748  11597359.11346  24655332.231    24655332.7584   24655342.8254
       170.0004        172.0004
  -5699978.28449  -4413852.15347  20725540.331    20725540.4844   20725546.5744
       203.0004        201.0004
  -6984937.03147  -5425972.84245  23501925.505    23501926.3594   23501936.5664
       154.0004        156.0004
  -9382139.84248  -7300837.22446  23253612.329    23253613.0204   23253616.7254
       172.0004        173.0004
 -11280530.06449  -8769496.78647  20363417.655    20363418.0904   20363426.3864
       210.0004        210.0004
