     2.11           OBSERVATION DATA    G (GPS)             RINEX VERSION / TYPE
teqc  2018Jun8                          20210202 03:10:47UTCPGM / RUN BY / DATE
Linux2.6.32-573.12.1.el6.x86_64|x86_64|gcc|Win64-MinGW64|=+ COMMENT
BIT 2 OF LLI FLAGS DATA COLLECTED UNDER A/S CONDITION       COMMENT
-Unknown-                                                   MARKER NAME
CRNO                                                        MARKER NUMBER
-Unknown-           -Unknown-                               OBSERVER / AGENCY
-Unknown-           ASHTECH             -Unknown-           REC # / TYPE / VERS
-Unknown-           -Unknown-                               ANT # / TYPE
   408077.3832 -6158372.1189  1605161.7892                  APPROX POSITION XYZ
        0.0000        0.0000        0.0000                  ANTENNA: DELTA H/E/N
     1     1                                                WAVELENGTH FACT L1/2
     7    L1    L2    C1    P1    P2    S1    S2            # / TYPES OF OBSERV
    30.0000                                                 INTERVAL
Forced Modulo Decimation to 30 seconds                      COMMENT
 SNR is mapped to RINEX snr flag value [1-9]                COMMENT
  L1: 1 -> 1;  90 -> 5; 210 -> 9                            COMMENT
  L2: 1 -> 1; 150 -> 5; 250 -> 9                            COMMENT
pseudorange smoothing corrections not applied               COMMENT
  2021     2     3     0     0   30.0000000     GPS         TIME OF FIRST OBS
                                                            END OF HEADER
 21  2  3  0  0 30.0000000  0  9G09G14G30G07G08G04G21G01G17
 -15915121.28149 -12370715.81447  21333153.130    21333153.3614   21333161.4234
       206.0004        207.0004
  -1944025.66048  -1499874.55746  23484444.720    23484445.1364   23484465.8354
       165.0004        165.0004
  -7947319.15148  -6177666.21146  23189477.865    23189477.5584   23189485.7824
       168.0004        171.0004
 -19026682.09549 -14805334.87847  21229518.841    21229519.1804   21229523.0274
       200.0004        201.0004
 -14556261.28249 -11326650.05748  21962855.333    21962855.2394   21962862.4464
       219.0004        218.0004
  -9603823.29448  -7469664.10346  22773531.567    22773531.7204   22773537.1694
       171.0004        171.0004
 -12179352.83748  -9276815.59446  21739986.953    21739986.8484   21739991.3244
       183.0004        183.0004
 -16763735.79748 -13049298.97046  21634916.445    21634917.0134   21634925.6114
       187.0004        187.0004
  -6085310.17547  -4700316.08745  23416072.269    23416072.3824   23416078.7574
       160.0004        162.0004
 21  2  3  0  1  0.0000000  0  9G09G14G30G07G08G04G21G01G17
 -15861594.81449 -12329006.86847  21343339.507    21343339.4944   21343346.7764
       206.0004        207.0004
  -1970343.28047  -1520381.75746  23479436.492    23479437.3394   23479456.9344
       164.0004        165.0004
  -8035449.62048  -6246339.29846  23172708.044    23172708.0954   23172713.9134
       170.0004        171.0004
 -19093123.53249 -14857107.39347  21216874.981    21216875.4054   21216879.9684
       201.0004        201.0004
 -14469356.11449 -11258931.72548  21979392.531    21979392.5174   21979400.0734
       219.0004        218.0004
  -9507703.96248  -7394765.93446  22791820.019    22791821.6584   22791828.0314
       169.0004        169.0004
 -12175153.33348  -9273543.21746  21740787.042    21740786.5524   21740791.0624
       184.0004        185.0004
 -16827290.50248 -13098822.08147  21622821.576    21622822.7994   21622831.6284
       187.0004        188.0004
  -6170743.70347  -4766887.62046  23399814.005    23399814.7704   23399819.9534
       161.0004        163.0004
 21  2  3  0  1 30.0000000  0  9G09G14G30G07G08G04G21G01G17
 -15807676.58949 -12286992.66947  21353598.409    21353599.5094   21353607.0424
       206.0004        207.0004
  -1996635.70247  -1540869.33946  23474433.095    23474434.2054   23474455.0734
       164.0004        165.0004
  -8123572.06148  -6315006.13146  23155938.658    23155938.0804   23155944.8124
       171.0004        172.0004
 -19159351.55949 -14908713.64147  21204272.337    21204273.1394   21204277.0964
       202.0004        202.0004
 -14382248.29049 -11191055.50148  21995967.883    21995968.2774   21995975.9554
       218.0004        218.0004
  -9411471.48848  -7319779.60646  22810133.694    22810133.7814   22810141.1794
       167.0004        168.0004
 -12170472.15648  -9269895.49646  21741678.468    21741677.7104   21741681.4984
       184.0004        184.0004
 -16890538.35948 -13148106.09346  21610786.060    21610787.4134   21610795.6304
       187.0004        186.0004
  -6255863.90747  -4833214.91946  23383615.949    23383617.1804   23383621.9794
       162.0004        165.0004
 21  2  3  0  2  0.0000000  0  9G09G14G30G07G08G04G21G01G17
 -15753370.29049 -12244676.06747  21363933.976    21363933.8894   21363941.3954
       206.0004        206.0004
  -2022905.17847  -1561339.02846  23469434.281    23469434.5994   23469454.8074
       164.0004        166.0004
  -8211685.45148  -6383665.87546  23139170.612    23139170.3774   23139177.9894
       171.0004        172.0004
 -19225364.38549 -14960152.19447  21191710.284    21191710.9404   21191714.9674
       201.0004        201.0004
 -14294941.72949 -11123024.39848  22012581.657    22012582.2834   22012589.2914
       218.0004        217.0004
  -9315129.90948  -7244708.26446  22828467.308    22828467.8914   22828473.8234
       167.0004        168.0004
 -12165309.69148  -9265872.77446  21742659.773    21742659.8024   21742663.2484
       184.0004        183.0004
 -16953477.07448 -13197149.21247  21598809.696    21598810.3954   21598819.3844
       187.0004        188.0004
  -6340670.32047  -4899297.75646  23367478.568    23367479.3734   23367484.4674
       164.0004        166.0004
 21  2  3  0  2 30.0000000  0  9G09G14G30G07G08G04G21G01G17
 -15698676.89049 -12202057.82947  21374341.737    21374342.1214   21374349.0074
       205.0004        205.0004
  -2049151.16748  -1581790.42446  23464440.088    23464440.6924   23464461.1294
       165.0004        166.0004
  -8299785.99548  -6452315.63646  23122405.751    23122405.8964   23122413.8974
       170.0004        172.0004
 -19291157.38849 -15011419.45647  21179190.227    21179190.4044   21179195.3274
       201.0004        201.0004
 -14207437.75549 -11054839.47648  22029232.963    22029233.3714   22029240.8644
       218.0004        217.0004
  -9218680.42648  -7169552.81846  22846821.276    22846822.1204   22846828.7224
       169.0004        170.0004
 -12159663.70948  -9261473.28646  21743733.499    21743733.0854   21743737.0434
       183.0004        183.0004
 -17016101.77348 -13245947.66147  21586893.088    21586893.6784   21586902.4974
       188.0004        189.0004
  -6425159.55547  -4965133.44146  23351400.278    23351401.3274   23351406.3944
       163.0004        165.0004
 21  2  3  0  3  0.0000000  0  9G09G14G30G07G08G04G21G01G17
 -15643600.34249 -12159141.03847  21384822.539    21384822.2834   21384829.4514
       205.0004        204.0004
  -2075376.16347  -1602225.48346  23459449.879    23459450.2104   23459470.2154
       164.0004        164.0004
  -8387872.90948  -6520954.76946  23105643.429    23105643.1864   23105650.2524
       171.0004        172.0004
 -19356729.84349 -15062514.86647  21166711.916    21166712.7124   21166717.0234
       201.0004        202.0004
 -14119740.23549 -10986503.73848  22045922.518    22045922.3014   22045929.0444
       217.0004        217.0004
  -9122127.24248  -7094316.59746  22865196.190    22865195.1774   22865201.3224
       169.0004        170.0004
 -12153534.69448  -9256697.40446  21744900.889    21744899.7524   21744903.6634
       182.0004        183.0004
 -17078410.52148 -13294499.90047  21575037.383    21575037.8074   21575045.0704
       189.0004        190.0004
  -6509330.87047  -5030721.42146  23335384.048    23335384.6254   23335388.6834
       164.0004        166.0004
 21  2  3  0  3 30.0000000  0  9G09G14G30G07G08G04G21G01G17
 -15588143.41349 -12115927.84647  21395375.005    21395375.3874   21395382.6414
       204.0004        204.0004
  -2101581.50647  -1622645.20646  23454461.763    23454463.5194   23454483.6624
       162.0004        163.0004
  -8475944.17148  -6589581.71346  23088883.757    23088883.6844   23088890.7454
       170.0004        170.0004
 -19422078.49349 -15113435.87547  21154276.939    21154277.3204   21154281.3354
       202.0004        202.0004
 -14031852.25749 -10918019.59448  22062646.240    22062646.6224   22062653.7214
       217.0004        216.0004
  -9025473.56048  -7019002.05046  22883586.871    22883587.7074   22883594.1254
       169.0004        169.0004
 -12146921.58948  -9251544.32246  21746158.964    21746158.2674   21746162.6384
       182.0004        183.0004
 -17140400.18348 -13342803.51547  21563240.685    21563240.7984   21563248.0154
       189.0004        189.0004
  -6593182.34948  -5096060.13846  23319427.589    23319427.5404   23319434.1364
       166.0004        168.0004
 21  2  3  0  4  0.0000000  0  9G09G14G30G07G08G04G21G01G17
 -15532307.53549 -12072419.37447  21406000.314    21406000.7134   21406008.1584
       204.0004        204.0004
  -2127767.09947  -1643049.53545  23449479.653    23449480.0284   23449501.2924
       161.0004        162.0004
  -8563996.40848  -6658193.84846  23072128.081    23072127.9614   23072135.5044
       169.0004        172.0004
 -19487199.27549 -15164179.32947  21141885.143    21141885.4074   21141889.6784
       202.0004        202.0004
 -13943775.30649 -10849388.20448  22079406.467    22079407.0064   22079414.2474
       216.0004        215.0004
  -8928720.95448  -6943610.41446  22901998.804    22901999.2654   22902005.6964
       170.0004        171.0004
 -12139822.49048  -9246012.53246  21747508.735    21747509.0634   21747513.6384
       183.0004        183.0004
 -17202066.30148 -13390855.01447  21551504.331    21551505.1044   21551513.6754
       188.0004        189.0004
  -6676711.55548  -5161147.74946  23303531.593    23303531.8524   23303538.3814
       166.0004        166.0004
 21  2  3  0  4 30.0000000  0  9G09G14G30G07G08G04G21G01G17
 -15476095.47449 -12028617.76847  21416697.899    21416697.7774   21416704.9044
       203.0004        204.0004
  -2153934.16647  -1663439.39745  23444498.844    23444500.6364   23444520.2584
       159.0004        161.0004
  -8652027.61948  -6726789.56346  23055376.046    23055375.7774   23055383.8714
       171.0004        174.0004
 -19552089.24149 -15214742.92747  21129536.704    21129537.1644   21129541.5574
       202.0004        202.0004
 -13855512.49049 -10780611.96948  22096202.595    22096202.7344   22096209.9814
       216.0004        215.0004
  -8831872.29648  -6868143.92646  22920427.181    22920428.4034   22920435.8744
       169.0004        169.0004
 -12132236.48448  -9240101.32946  21748953.449    21748953.1044   21748957.6404
       183.0004        184.0004
 -17263405.81948 -13438652.00447  21539833.166    21539833.8554   21539841.0124
       188.0004        188.0004
  -6759916.36648  -5225982.58646  23287698.436    23287697.8354   23287704.7514
       165.0004        166.0004
 21  2  3  0  5  0.0000000  0  9G09G14G30G07G08G04G21G01G17
 -15419509.31549 -11984524.65547  21427464.316    21427465.0034   21427473.3704
       203.0004        204.0004
  -2180083.22747  -1683815.29745  23439523.189    23439524.2014   23439545.3414
       159.0004        160.0004
  -8740034.98448  -6795366.70046  23038629.012    23038629.2284   23038636.6394
       172.0004        173.0004
 -19616745.70849 -15265124.58547  21117233.383    21117233.7284   21117237.8724
       203.0004        204.0004
 -13767065.95549 -10711692.58748  22113034.336    22113033.4294   22113040.6584
       215.0004        214.0004
  -8734929.99348  -6792604.49746  22938876.080    22938876.1354   22938881.7764
       168.0004        169.0004
 -12124162.30348  -9233809.73246  21750488.797    21750489.1724   21750493.5304
       183.0004        184.0004
 -17324414.77048 -13486191.42747  21528223.597    21528223.8804   21528231.6614
       188.0004        189.0004
  -6842794.67148  -5290562.96046  23271926.585    23271927.1074   23271933.4974
       166.0004        169.0004
 21  2  3  0  5 30.0000000  0  9G09G14G30G07G08G04G21G01G17
 -15362553.44049 -11940143.45347  21438303.473    21438304.2594   21438311.5304
       203.0004        204.0004
  -2206217.28647  -1704179.44445  23434550.430    23434551.9824   23434571.4864
       159.0004        161.0004
  -8828018.03248  -6863924.90646  23021886.367    23021886.1614   23021894.0504
       172.0004        173.0004
 -19681167.58749 -15315323.44147  21104973.940    21104974.5764   21104978.4484
       203.0004        203.0004
 -13678440.23949 -10642633.58348  22129898.590    22129898.5884   22129905.0814
       214.0004        213.0004
  -8637898.67948  -6716995.66146  22957340.006    22957341.1854   22957346.6154
       168.0004        169.0004
 -12115601.19548  -9227138.72646  21752118.753    21752118.0614   21752123.4614
       184.0004        185.0004
 -17385091.68748 -13533472.11547  21516677.502    21516677.4444   21516685.0434
       188.0004        189.0004
  -6925346.43148  -5354888.91846  23256218.645    23256218.2864   23256224.3574
       168.0004        171.0004
 21  2  3  0  6  0.0000000  0  9G09G14G30G07G08G04G21G01G17
 -15305231.48849 -11895476.99647  21449210.934    21449211.1624   21449219.3944
       203.0004        202.0004
  -2232338.22147  -1724533.38746  23429580.797    23429580.8154   23429601.2924
       160.0004        163.0004
  -8915975.48248  -6932463.16246  23005148.634    23005148.6144   23005155.7604
       172.0004        172.0004
 -19745352.76549 -15365337.84847  21092759.917    21092760.1804   21092764.4644
       203.0004        203.0004
 -13589638.84949 -10573437.69147  22146796.785    22146796.0154   22146803.4854
       213.0004        212.0004
  -8540782.08548  -6641320.38846  22975821.677    22975821.2814   22975827.0574
       169.0004        169.0004
 -12106553.21448  -9220088.32546  21753840.205    21753840.0114   21753845.4854
       185.0004        185.0004
 -17445434.27848 -13580492.28547  21505193.220    21505193.6594   21505201.9634
       188.0004        188.0004
  -7007570.63048  -5418959.61546  23240570.571    23240570.5794   23240577.9114
       167.0004        167.0004
 21  2  3  0  6 30.0000000  0  9G09G14G30G07G08G04G21G01G17
 -15247545.02049 -11850526.50847  21460188.629    21460189.5274   21460196.5264
       202.0004        203.0004
  -2258446.10747  -1744877.15045  23424611.153    23424612.0964   23424632.3604
       161.0004        162.0004
  -9003904.01848  -7000978.90646  22988416.857    22988416.5614   22988423.0374
       171.0004        173.0004
 -19809297.13449 -15415164.62247  21080591.055    21080592.1954   21080596.5284
       203.0004        204.0004
 -13500664.06749 -10504106.69647  22163726.425    22163726.9454   22163735.2914
       212.0004        212.0004
  -8443581.96848  -6565580.04746  22994316.047    22994317.1994   22994324.8854
       169.0004        169.0004
 -12097016.64448  -9212657.21546  21755656.738    21755655.2414   21755660.3824
       186.0004        186.0004
 -17505438.27748 -13627248.61647  21493774.422    21493774.8674   21493784.3324
       188.0004        189.0004
  -7089464.66348  -5482773.05146  23224986.383    23224987.5894   23224994.0504
       167.0004        168.0004
 21  2  3  0  7  0.0000000  0  9G09G14G30G07G08G04G21G01G17
 -15189495.17349 -11805292.87247  21471235.475    21471235.7374   21471243.5424
       202.0004        202.0004
  -2284540.50047  -1765210.42646  23419646.810    23419646.6264   23419667.3804
       161.0004        163.0004
  -9091799.96048  -7069469.22746  22971690.963    22971690.7384   22971698.0094
       172.0004        174.0004
 -19872996.51649 -15464800.49247  21068470.359    21068470.5334   21068474.3384
       203.0004        203.0004
 -13411516.88549 -10434641.36247  22180690.875    22180691.3384   22180698.9554
       212.0004        212.0004
  -8346299.69448  -6489775.71846  23012829.186    23012829.6794   23012837.2054
       167.0004        167.0004
 -12086989.30948  -9204843.68046  21757563.575    21757563.4504   21757568.2774
       186.0004        186.0004
 -17565098.79348 -13673737.31747  21482423.864    21482424.1424   21482431.2574
       191.0004        194.0004
  -7171025.36748  -5546326.79446  23209466.434    23209466.8714   23209472.6574
       167.0004        167.0004
 21  2  3  0  7 30.0000000  0  9G09G14G30G07G08G04G21G01G17
 -15131086.33149 -11759779.48647  21482350.301    21482350.3984   21482357.8304
       202.0004        202.0004
  -2310624.12247  -1785535.31845  23414683.704    23414683.4834   23414704.0474
       161.0004        162.0004
  -9179662.59248  -7137933.60246  22954971.390    22954971.0784   22954978.0444
       173.0004        173.0004
 -19936449.63049 -15514244.47847  21056395.552    21056395.9074   21056399.6994
       203.0004        203.0004
 -13322201.58049 -10365045.02448  22197688.230    22197688.1074   22197695.4564
       212.0004        213.0004
  -8248939.61448  -6413910.72246  23031356.442    23031356.4974   23031363.3984
       168.0004        168.0004
 -12076472.19948  -9196648.50546  21759565.148    21759564.2634   21759569.4734
       187.0004        187.0004
 -17624414.22948 -13719957.14247  21471137.552    21471137.9254   21471143.9784
       194.0004        195.0004
  -7252252.10948  -5609620.27446  23194009.423    23194009.8694   23194014.1614
       165.0004        164.0004
 21  2  3  0  8  0.0000000  0  9G09G14G30G07G08G04G21G01G17
 -15072321.28549 -11713988.55047  21493532.462    21493533.0774   21493540.6294
       202.0004        203.0004
  -2336698.22347  -1805852.78745  23409720.893    23409721.7224   23409742.3584
       159.0004        160.0004
  -9267489.88948  -7206370.43246  22938256.262    22938257.1664   22938265.2714
       170.0004        171.0004
 -19999653.78249 -15563494.45947  21044367.705    21044368.0094   21044372.7004
       203.0004        204.0004
 -13232721.00249 -10295319.88947  22214714.887    22214715.0084   22214723.5774
       212.0004        212.0004
  -8151504.80248  -6337987.49046  23049897.967    23049898.6974   23049904.2684
       167.0004        167.0004
 -12065464.52548  -9188071.06946  21761658.458    21761658.4104   21761664.5714
       186.0004        186.0004
 -17683381.62148 -13765905.74847  21459914.642    21459915.2864   21459922.5074
       194.0004        192.0004
  -7333143.77647  -5672652.66246  23178616.015    23178617.4564   23178619.8464
       162.0004        163.0004
 21  2  3  0  8 30.0000000  0  9G09G14G30G07G08G04G21G01G17
 -15013201.81849 -11667921.42247  21504783.254    21504783.0754   21504790.4304
       202.0004        202.0004
  -2362762.87947  -1826162.90845  23404761.240    23404760.9214   23404782.0254
       158.0004        160.0004
  -9355278.49748  -7274777.10646  22921551.239    22921551.2644   22921559.3434
       171.0004        172.0004
 -20062605.22949 -15612547.51947  21032388.521    21032388.9984   21032393.1884
       203.0004        203.0004
 -13143076.62249 -10225467.12647  22231773.835    22231774.2034   22231781.9834
       211.0004        210.0004
  -8053997.02148  -6262007.40546  23068452.687    23068453.8064   23068459.4434
       166.0004        167.0004
 -12053965.31348  -9179110.62146  21763846.716    21763847.0824   21763852.7164
       187.0004        187.0004
 -17741996.73548 -13811579.81047  21448757.884    21448758.7554   21448768.0474
       190.0004        188.0004
  -7413697.39647  -5735421.67246  23163288.686    23163288.4444   23163290.8044
       163.0004        164.0004
 21  2  3  0  9  0.0000000  0  9G09G14G30G07G08G04G21G01G17
 -14953731.39449 -11621580.83047  21516099.439    21516099.6384   21516107.5234
       202.0004        202.0004
  -2388819.94147  -1846467.10745  23399802.553    23399803.7584   23399823.7834
       158.0004        158.0004
  -9443026.97048  -7343152.52946  22904853.248    22904853.9644   22904860.6664
       170.0004        171.0004
 -20125301.48949 -15661401.74647  21020458.101    21020458.6174   21020462.3814
       204.0004        204.0004
 -13053273.07449 -10155490.34347  22248864.018    22248863.5724   22248870.7334
       211.0004        210.0004
  -7956419.89948  -6185973.29346  23087021.780    23087022.1984   23087027.5994
       166.0004        167.0004
 -12041974.15148  -9169766.83846  21766129.825    21766129.2054   21766134.5494
       187.0004        187.0004
 -17800257.09248 -13856977.45446  21437671.292    21437671.7564   21437681.6024
       188.0004        187.0004
  -7493912.14747  -5797926.63845  23148023.149    23148023.6914   23148025.8564
       160.0004        160.0004
 21  2  3  0  9 30.0000000  0  9G09G14G30G07G08G04G21G01G17
 -14893912.45049 -11574968.67047  21527482.806    21527483.2344   21527490.9404
       203.0004        204.0004
  -2414870.16547  -1866765.99145  23394846.600    23394846.6084   23394865.9824
       157.0004        159.0004
  -9530732.67648  -7411494.63846  22888162.853    22888163.1304   22888171.8814
       170.0004        172.0004
 -20187739.99049 -15710055.10947  21008576.482    21008576.5824   21008581.2554
       204.0004        204.0004
 -12963311.69449 -10085390.55347  22265982.451    22265982.5694   22265989.8494
       211.0004        211.0004
  -7858775.96048  -6109887.12646  23105601.731    23105602.3754   23105609.2554
       165.0004        164.0004
 -12029490.05948  -9160038.94346  21768505.807    21768505.1774   21768509.8384
       187.0004        187.0004
 -17858159.23648 -13902095.96947  21426653.476    21426654.6684   21426663.8674
       188.0004        190.0004
  -7573786.05447  -5860165.99745  23132823.577    23132823.9374   23132826.1054
       159.0004        161.0004
 21  2  3  0 10  0.0000000  0  9G09G14G30G07G08G04G21G01G17
 -14833748.25749 -11528087.48947  21538932.128    21538932.2734   21538939.2594
       203.0004        204.0004
  -2440915.25147  -1887060.84745  23389889.903    23389889.8874   23389910.3604
       157.0004        158.0004
  -9618393.92948  -7479802.08146  22871480.954    22871481.8214   22871489.4914
       171.0004        172.0004
 -20249918.27849 -15758505.72847  20996743.957    20996744.5234   20996748.7784
       204.0004        204.0004
 -12873195.95149 -10015170.50147  22283128.626    22283130.0184   22283138.6584
       210.0004        210.0004
  -7761068.58547  -6033751.53946  23124193.939    23124194.6524   23124202.1494
       162.0004        163.0004
 -12016513.28548  -9149927.15846  21770974.157    21770973.9004   21770979.6814
       187.0004        187.0004
 -17915700.51048 -13946933.32047  21415704.624    21415705.4054   21415713.2724
       190.0004        192.0004
  -7653318.23247  -5922139.10845  23117687.950    23117688.3604   23117693.6674
       158.0004        160.0004
 21  2  3  0 10 30.0000000  0  9G09G14G30G07G08G04G21G01G17
 -14773239.96449 -11480938.15547  21550446.708    21550446.8264   21550453.4484
       203.0004        203.0004
  -2466954.57947  -1907351.23345  23384932.868    23384934.4164   23384954.9264
       154.0004        156.0004
  -9706006.76048  -7548071.77646  22854810.040    22854809.9294   22854818.0804
       171.0004        172.0004
 -20311831.70049 -15806749.93547  20984962.198    20984962.8554   20984967.0994
       204.0004        205.0004
 -12782927.12949  -9944831.14447  22300308.392    22300308.2864   22300316.0094
       210.0004        209.0004
  -7663298.93847  -5957567.39446  23142799.611    23142799.9014   23142807.2604
       162.0004        163.0004
 -12003041.69848  -9139429.78446  21773538.286    21773537.6704   21773543.0394
       187.0004        187.0004
 -17972876.10848 -13991485.70147  21404825.714    21404826.2454   21404833.3004
       192.0004        194.0004
  -7732505.16547  -5983843.13046  23102618.983    23102619.8524   23102624.4184
       160.0004        164.0004
 21  2  3  0 11  0.0000000  0  9G09G14G30G07G08G04G21G01G17
 -14712391.77149 -11433523.99847  21562025.519    21562025.7604   21562032.9584
       204.0004        204.0004
  -2492990.61447  -1927639.03945  23379980.010    23379980.4314   23380000.0944
       154.0004        156.0004
  -9793570.28948  -7616303.07546  22838147.124    22838146.7634   22838155.0314
       172.0004        174.0004
 -20373478.91549 -15854786.73347  20973231.216    20973231.3674   20973236.5034
       204.0004        204.0004
 -12692509.64149  -9874375.97947  22317514.119    22317513.9514   22317521.6444
       208.0004        207.0004
  -7565471.16847  -5881338.01146  23161415.231    23161416.1624   23161423.5694
       162.0004        163.0004
 -11989076.45148  -9128547.77046  21776195.215    21776194.6484   21776200.7134
       187.0004        187.0004
 -18029684.29548 -14035751.81247  21394015.408    21394015.6004   21394023.0344
       193.0004        193.0004
  -7811346.94248  -6045278.23646  23087618.302    23087617.5754   23087623.3394
       165.0004        170.0004
 21  2  3  0 11 30.0000000  0  9G09G14G30G07G08G04G21G01G17
 -14651207.93849 -11385848.26747  21573668.325    21573668.6704   21573676.0214
       204.0004        204.0004
  -2519025.94747  -1947926.29145  23375025.171    23375025.7614   23375046.0114
       156.0004        158.0004
  -9881083.70148  -7684495.31046  22821492.846    22821493.5854   22821501.2614
       171.0004        172.0004
 -20434858.96649 -15902615.31347  20961550.346    20961551.0154   20961555.6804
       203.0004        204.0004
 -12601947.13249  -9803807.76247  22334747.463    22334747.2624   22334755.1394
       208.0004        207.0004
  -7467589.61947  -5805066.68446  23180042.799    23180043.3214   23180050.9084
       162.0004        164.0004
 -11974618.26348  -9117281.60946  21778947.034    21778947.1044   21778951.5994
       187.0004        187.0004
 -18086123.41348 -14079730.30647  21383274.820    21383274.9324   21383282.9324
       193.0004        194.0004
  -7889843.01248  -6106443.91246  23072679.320    23072679.5214   23072687.2174
       167.0004        169.0004
 21  2  3  0 12  0.0000000  0 10G09G14G30G28G07G08G04G21G01G17
 -14589690.32249 -11337912.47347  21585374.872    21585375.0584   21585382.0074
       203.0004        203.0004
  -2545060.71447  -1968213.08645  23370071.544    23370072.0304   23370091.6944
       157.0004        160.0004
  -9968543.70548  -7752645.96246  22804851.001    22804851.4834   22804858.5714
       174.0004        177.0004
  -1237143.48056   -955781.49145  23678849.306                    23678855.2564
       127.0004        143.0004
 -20495967.54749 -15950232.39947  20949922.629    20949923.0194   20949926.9354
       203.0004        204.0004
 -12511241.69349  -9733128.20447  22352008.315    22352008.2174   22352015.3774
       207.0004        207.0004
  -7369656.19747  -5728754.96246  23198678.429    23198679.2684   23198686.5694
       163.0004        164.0004
 -11959665.44848  -9105630.04246  21781792.503    21781791.5564   21781797.2584
       187.0004        187.0004
 -18142189.42948 -14123418.09847  21372605.544    21372606.2934   21372614.0004
       192.0004        192.0004
  -7967991.04248  -6167338.43946  23057806.347    23057808.1514   23057815.8764
       169.0004        172.0004
 21  2  3  0 12 30.0000000  0 10G09G14G30G28G07G08G04G21G01G17
 -14527841.75149 -11289718.79047  21597144.328    21597144.5094   21597151.3514
       203.0004        202.0004
  -2571096.00647  -1988500.31845  23365115.743    23365117.4594   23365138.2634
       159.0004        161.0004
 -10055948.09048  -7820753.24746  22788218.294    22788218.5624   22788226.3884
       176.0004        177.0004
  -1252120.79847   -967452.11945  23675999.393    23675998.8254   23676005.3284
       137.0004        144.0004
 -20556802.08749 -15997635.93247  20938346.002    20938346.3634   20938350.7264
       204.0004        204.0004
 -12420396.43149  -9662339.68947  22369296.451    22369295.9134   22369302.9394
       208.0004        208.0004
  -7271673.68947  -5652404.97046  23217324.123    23217324.4024   23217331.9514
       163.0004        164.0004
 -11944218.19748  -9093593.19646  21784732.165    21784731.5074   21784736.5814
       187.0004        187.0004
 -18197879.24248 -14166812.72847  21362007.755    21362008.4134   21362016.5854
       191.0004        191.0004
  -8045789.57248  -6227960.63146  23043003.623    23043003.6464   23043010.8614
       170.0004        173.0004
 21  2  3  0 13  0.0000000  0 10G09G14G30G28G07G08G04G21G01G17
 -14465666.87549 -11241270.83447  21608975.604    21608975.7604   21608983.8214
       203.0004        203.0004
  -2597134.71447  -2008790.20745  23360161.018    23360161.4624   23360183.1584
       160.0004        162.0004
 -10143296.31948  -7888816.78846  22771597.090    22771597.4494   22771603.9134
       177.0004        178.0004
  -1267087.47347   -979114.45145  23673151.924    23673150.8924   23673157.9384
       141.0004        147.0004
 -20617361.78249 -16044825.29547  20926820.845    20926822.1994   20926826.7624
       204.0004        203.0004
 -12329415.74349  -9591445.65147  22386608.300    22386608.1234   22386615.6964
       207.0004        206.0004
  -7173646.78747  -5576020.38545  23235977.590    23235977.6934   23235984.9414
       161.0004        161.0004
 -11928277.76648  -9081172.06046  21787764.914    21787764.4024   21787769.8384
       187.0004        187.0004
 -18253191.56148 -14209913.21147  21351481.425    21351482.2904   21351490.8874
       190.0004        190.0004
  -8123239.00148  -6288310.80646  23028266.535    23028266.8304   23028273.3964
       173.0004        175.0004
 21  2  3  0 13 30.0000000  0 10G09G14G30G28G07G08G04G21G01G17
 -14403167.83149 -11192570.28847  21620868.443    21620868.7944   21620877.0434
       203.0004        203.0004
  -2623177.17947  -2029083.03345  23355206.344    23355206.5464   23355226.5374
       159.0004        160.0004
 -10230585.38948  -7956834.22246  22754986.580    22754987.3494   22754993.3214
       177.0004        178.0004
  -1282044.29247   -990769.11145  23670305.197    23670305.0014   23670311.9194
       143.0004        147.0004
 -20677642.92749 -16091797.61547  20915351.133    20915351.2234   20915354.9914
       204.0004        204.0004
 -12238301.40549  -9520447.46747  22403945.540    22403946.2344   22403954.8814
       206.0004        206.0004
  -7075577.51947  -5499602.77345  23254639.259    23254639.8304   23254647.2624
       159.0004        160.0004
 -11911843.00048  -9068365.74446  21790891.962    21790892.2624   21790896.9214
       187.0004        187.0004
 -18308122.60748 -14252716.60147  21341028.469    21341029.4824   21341038.1704
       190.0004        191.0004
  -8200336.66348  -6348386.83746  23013594.665    23013595.3794   23013600.8424
       173.0004        174.0004
 21  2  3  0 14  0.0000000  0 10G09G14G30G28G07G08G04G21G01G17
 -14340345.48749 -11143617.81647  21632822.858    21632823.1534   21632830.9004
       202.0004        201.0004
  -2649222.51947  -2049378.07345  23350249.239    23350250.6274   23350269.6044
       158.0004        160.0004
 -10317810.89848  -8024802.14146  22738388.694    22738388.3024   22738395.7434
       180.0004        182.0004
  -1296990.84747  -1002415.74745  23667461.823    23667461.3944   23667466.7144
       144.0004        148.0004
 -20737640.64949 -16138549.09047  20903933.949    20903934.4194   20903938.0974
       204.0004        204.0004
 -12147054.20949  -9449345.76647  22421309.897    22421310.1144   22421318.7704
       206.0004        206.0004
  -6977466.74447  -5423152.83945  23273309.374    23273310.1904   23273316.7944
       160.0004        162.0004
 -11894911.59348  -9055172.42546  21794114.579    21794113.9124   21794118.7824
       187.0004        186.0004
 -18362667.33248 -14295218.94447  21330648.826    21330649.4704   21330658.5684
       190.0004        190.0004
  -8277078.93048  -6408185.92946  22998990.500    22998990.9164   22998997.0604
       173.0004        173.0004
 21  2  3  0 14 30.0000000  0 10G09G14G30G28G07G08G04G21G01G17
 -14277202.10249 -11094415.19747  21644838.450    21644839.0314   21644846.7244
       201.0004        200.0004
  -2675271.18747  -2069675.72946  23345292.600    23345293.2804   23345313.2144
       160.0004        163.0004
 -10404970.03548  -8092718.33446  22721802.956    22721802.7174   22721809.3694
       181.0004        182.0004
  -1311927.94147  -1014055.02745  23664619.550    23664618.6904   23664623.4894
       147.0004        152.0004
 -20797351.47049 -16185076.99547  20892570.749    20892571.3354   20892576.1784
       204.0004        205.0004
 -12055676.41649  -9378142.29747  22438699.966    22438699.0914   22438707.4754
       206.0004        206.0004
  -6879316.64647  -5346672.26146  23291987.383    23291987.5914   23291994.5334
       162.0004        164.0004
 -11877482.75748  -9041591.49246  21797430.694    21797429.9834   21797435.5954
       186.0004        187.0004
 -18416822.08248 -14337417.43347  21320344.116    21320344.7644   21320353.0374
       191.0004        191.0004
  -8353464.55948  -6467707.18146  22984454.501    22984455.9354   22984461.5064
       172.0004        173.0004
 21  2  3  0 15  0.0000000  0 10G09G14G30G28G07G08G04G21G01G17
 -14213741.45749 -11044965.34347  21656915.210    21656915.3544   21656922.8684
       200.0004        200.0004
  -2701325.14447  -2089977.48446  23340334.731    23340335.3824   23340354.9384
       161.0004        163.0004
 -10492061.29448  -8160581.62646  22705229.283    22705229.6674   22705236.6074
       180.0004        180.0004
  -1326858.07747  -1025688.86345  23661777.425    23661777.5914   23661784.2094
       149.0004        153.0004
 -20856773.95049 -16231380.21447  20881263.104    20881263.5634   20881267.8304
       204.0004        204.0004
 -11964171.20949  -9306839.52547  22456111.799    22456112.3514   22456120.0694
       206.0004        206.0004
  -6781130.92547  -5270163.92646  23310670.399    23310671.4744   23310679.0654
       162.0004        164.0004
 -11859557.04148  -9027623.37846  21800841.412    21800841.4204   21800846.4554
       186.0004        186.0004
 -18470584.69748 -14379310.35047  21310114.245    21310114.6564   21310121.8884
       191.0004        193.0004
  -8429492.42048  -6526949.60646  22969988.428    22969987.8874   22969994.1584
       172.0004        174.0004
 21  2  3  0 15 30.0000000  0 10G09G14G30G28G07G08G04G21G01G17
 -14149965.60549 -10995269.88147  21669051.012    21669051.8564   21669058.6444
       200.0004        199.0004
  -2727384.69647  -2110283.61146  23335377.071    23335377.1874   23335395.7644
       162.0004        163.0004
 -10579081.53048  -8228389.58146  22688669.436    22688670.0944   22688677.1864
       179.0004        181.0004
  -1341781.86147  -1037317.76545  23658937.590    23658937.4534   23658942.5794
       149.0004        152.0004
 -20915904.16849 -16277455.69547  20870010.545    20870011.2804   20870015.5474
       204.0004        204.0004
 -11872541.32749  -9235439.61347  22473547.935    22473548.1584   22473556.7944
       206.0004        206.0004
  -6682911.61247  -5193629.42246  23329361.777    23329362.1864   23329369.3434
       162.0004        163.0004
 -11841133.35448  -9013267.23846  21804347.849    21804347.2094   21804352.6374
       186.0004        185.0004
 -18523951.37848 -14420894.76047  21299958.368    21299959.0934   21299966.8864
       192.0004        193.0004
  -8505160.23548  -6585911.51646  22955588.957    22955589.1264   22955593.7824
       173.0004        174.0004
 21  2  3  0 16  0.0000000  0 10G09G14G30G28G07G08G04G21G01G17
 -14085878.77649 -10945332.08547  21681246.399    21681246.6654   21681254.3154
       199.0004        199.0004
  -2753452.12547  -2130595.88645  23330416.390    23330416.1454   23330435.7634
       161.0004        162.0004
 -10666029.70648  -8296141.39346  22672123.264    22672123.5534   22672129.8154
       178.0004        177.0004
  -1356701.96147  -1048943.80845  23656098.939    23656098.6064   23656103.7404
       150.0004        153.0004
 -20974740.78049 -16323302.39747  20858815.291    20858815.6004   20858819.6284
       204.0004        205.0004
 -11780789.93049  -9163945.02447  22491008.022    22491007.9324   22491016.2674
       205.0004        204.0004
  -6584662.76747  -5117071.90046  23348058.709    23348059.3814   23348064.8444
       162.0004        163.0004
 -11822212.95148  -8998524.04546  21807948.029    21807947.9924   21807952.9744
       186.0004        187.0004
 -18576920.40048 -14462169.29347  21289878.944    21289879.4454   21289887.0244
       193.0004        194.0004
  -8580468.20848  -6644593.02046  22941257.444    22941257.7334   22941262.7064
       173.0004        171.0004
 21  2  3  0 16 30.0000000  0 10G09G14G30G28G07G08G04G21G01G17
 -14021482.47749 -10895153.15647  21693501.078    21693501.4194   21693508.8104
       199.0004        200.0004
  -2779527.24947  -2150914.12845  23325453.453    23325453.4034   23325474.0824
       158.0004        158.0004
 -10752902.13748  -8363834.19346  22655593.236    22655592.8854   22655599.6624
       179.0004        181.0004
  -1371618.75447  -1060567.27245  23653260.338    23653260.1544   23653265.5614
       151.0004        154.0004
 -21033279.48949 -16368916.96147  20847675.287    20847675.8124   20847679.8994
       205.0004        205.0004
 -11688919.08849  -9092357.36447  22508490.933    22508490.2134   22508498.0424
       204.0004        203.0004
  -6486385.85047  -5040492.48146  23366760.750    23366760.9424   23366766.9364
       161.0004        163.0004
 -11802794.24048  -8983392.55046  21811643.782    21811642.8754   21811647.9164
       186.0004        187.0004
 -18629487.45348 -14503130.61047  21279875.175    21279876.4224   21279884.5624
       194.0004        195.0004
  -8655413.48048  -6702991.89546  22926995.291    22926996.1924   22927000.1204
       170.0004        170.0004
 21  2  3  0 17  0.0000000  0 10G09G14G30G28G07G08G04G21G01G17
 -13956781.36649 -10844736.72147  21705813.510    21705813.7204   21705820.9384
       199.0004        200.0004
  -2805612.78247  -2171240.49845  23320489.693    23320490.4524   23320510.6564
       158.0004        159.0004
 -10839698.14248  -8431467.42346  22639076.753    22639076.8784   22639083.4714
       181.0004        183.0004
  -1386535.27347  -1072190.50145  23650421.607    23650421.5114   23650425.7194
       151.0004        154.0004
 -21091519.71349 -16414298.95347  20836592.349    20836592.8984   20836597.3434
       204.0004        204.0004
 -11596932.94549  -9020679.86647  22525993.623    22525994.1674   22526002.7904
       202.0004        202.0004
  -6388085.34447  -4963894.70845  23385466.474    23385465.7624   23385472.8014
       160.0004        160.0004
 -11782878.90948  -8967874.09846  21815433.692    21815432.6804   21815437.7764
       186.0004        186.0004
 -18681651.24049 -14543777.69647  21269949.134    21269949.8744   21269958.0874
       195.0004        195.0004
  -8729996.00848  -6761108.14046  22912803.665    22912803.8604   22912808.1184
       171.0004        172.0004
 21  2  3  0 17 30.0000000  0 10G09G14G30G28G07G08G04G21G01G17
 -13891777.23949 -10794084.14047  21718183.156    21718183.4934   21718190.9024
       200.0004        200.0004
  -2831708.66947  -2191574.95245  23315523.843    23315524.7464   23315543.9314
       157.0004        159.0004
 -10926414.29648  -8499038.41646  22622575.015    22622573.7954   22622581.7324
       182.0004        181.0004
  -1401451.94847  -1083813.86645  23647583.064    23647582.7844   23647589.0244
       152.0004        155.0004
 -21149456.95449 -16459444.84047  20825567.446    20825568.1274   20825572.1994
       204.0004        205.0004
 -11504832.90149  -8948913.59847  22543519.388    22543520.4644   22543529.1394
       202.0004        202.0004
  -6289762.96747  -4887279.84845  23404175.155    23404175.3524   23404182.6494
       159.0004        160.0004
 -11762465.46648  -8951967.49146  21819317.070    21819317.1474   21819322.7204
       186.0004        186.0004
 -18733407.68049 -14584107.36547  21260100.398    21260101.2224   21260108.6814
       195.0004        196.0004
  -8804213.90648  -6818940.20646  22898681.142    22898680.7784   22898685.9294
       172.0004        175.0004
 21  2  3  0 18  0.0000000  0 10G09G14G30G28G07G08G04G21G01G17
 -13826472.88249 -10743197.64447  21730610.019    21730610.3884   21730617.7534
       200.0004        200.0004
  -2857815.81547  -2211918.15945  23310554.432    23310555.2694   23310577.0284
       157.0004        158.0004
 -11013048.03748  -8566545.21246  22606089.330    22606088.9494   22606096.3664
       181.0004        182.0004
  -1416370.12647  -1095438.40845  23644745.228    23644744.4154   23644748.5964
       153.0004        155.0004
 -21207088.19649 -16504352.31147  20814601.877    20814601.7394   20814605.4984
       205.0004        206.0004
 -11412621.56749  -8877060.60047  22561067.613    22561068.2524   22561076.9974
       203.0004        204.0004
  -6191421.24747  -4810649.95145  23422888.845    23422889.6824   23422895.4214
       158.0004        159.0004
 -11741553.74948  -8935672.62946  21823297.094    21823296.5814   21823302.1454
       186.0004        185.0004
 -18784753.72649 -14624117.25647  21250329.670    21250330.0774   21250337.7924
       195.0004        195.0004
  -8878065.01848  -6876486.48946  22884626.551    22884627.3634   22884632.2674
       172.0004        174.0004
 21  2  3  0 18 30.0000000  0 10G09G14G30G28G07G08G04G21G01G17
 -13760871.31549 -10692079.55147  21743093.129    21743093.7174   21743100.6394
       199.0004        199.0004
  -2883935.38147  -2232271.03545  23305585.582    23305586.1424   23305604.4914
       157.0004        160.0004
 -11099597.10448  -8633986.02446  22589618.965    22589619.1324   22589625.8814
       180.0004        181.0004
  -1431291.34747  -1107065.28245  23641904.209    23641904.6404   23641909.3714
       152.0004        155.0004
 -21264411.46949 -16549019.79047  20803692.440    20803692.9144   20803697.0884
       205.0004        205.0004
 -11320301.75449  -8805123.12847  22578635.878    22578636.0234   22578645.1694
       203.0004        204.0004
  -6093063.17947  -4734007.31545  23441606.747    23441606.7014   23441611.7594
       157.0004        159.0004
 -11720143.66248  -8918989.42746  21827371.478    21827370.8944   21827375.9564
       185.0004        185.0004
 -18835686.49849 -14663805.11547  21240637.615    21240638.0184   21240645.6234
       195.0004        195.0004
  -8951548.07248  -6933745.97646  22870643.255    22870643.8734   22870648.6124
       173.0004        174.0004
 21  2  3  0 19  0.0000000  0 10G09G14G30G28G07G08G04G21G01G17
 -13694976.66349 -10640733.07647  21755632.562    21755632.8464   21755640.6264
       199.0004        199.0004
  -2910069.53747  -2252635.30245  23300611.614    23300612.4124   23300632.6234
       158.0004        161.0004
 -11186060.23548  -8701359.86946  22573165.182    22573165.6314   22573172.3144
       181.0004        182.0004
  -1446218.23347  -1118696.57345  23639064.608    23639064.1784   23639069.1544
       153.0004        156.0004
 -21321424.81649 -16593445.77847  20792843.703    20792843.7874   20792848.0904
       206.0004        206.0004
 -11227877.35049  -8733104.08647  22596222.288    22596223.2354   22596232.1144
       203.0004        202.0004
  -5994692.60147  -4657354.93945  23460326.413    23460326.2294   23460332.4914
       157.0004        159.0004
 -11698236.36648  -8901918.78046  21831540.505    21831539.2804   21831544.9884
       185.0004        185.0004
 -18886204.27449 -14703169.59347  21231024.167    21231024.5574   21231032.8344
       195.0004        195.0004
  -9024663.88048  -6990719.28046  22856730.227    22856730.0834   22856734.8084
       172.0004        174.0004
 21  2  3  0 19 30.0000000  0 10G09G14G30G28G07G08G04G21G01G17
 -13628791.55349 -10589160.25147  21768227.760    21768228.2184   21768235.1274
       199.0004        199.0004
  -2936218.98647  -2273011.46845  23295635.892    23295636.0214   23295656.6034
       159.0004        162.0004
 -11272434.79248  -8768664.68946  22556728.451    22556729.0364   22556735.7124
       180.0004        180.0004
  -1461151.94347  -1130333.18245  23636222.044    23636221.8974   23636227.4174
       151.0004        153.0004
 -21378124.68049 -16637627.47547  20782053.750    20782054.1624   20782058.0484
       206.0004        206.0004
 -11135350.75349  -8661005.45047  22613828.692    22613829.6714   22613839.8834
       201.0004        200.0004
  -5896312.01947  -4580694.75345  23479047.280    23479047.4484   23479053.3574
       157.0004        158.0004
 -11675831.42848  -8884460.34846  21835803.265    21835802.6804   21835808.9504
       186.0004        186.0004
 -18936303.79748 -14742208.14647  21221490.701    21221490.9494   21221498.8624
       194.0004        195.0004
  -9097410.26348  -7047404.72946  22842886.287    22842886.3414   22842892.1994
       173.0004        175.0004
 21  2  3  0 20  0.0000000  0 10G09G14G30G28G07G08G04G21G01G17
 -13562317.32749 -10537362.15647  21780877.499    21780877.9974   21780885.1154
       199.0004        199.0004
  -2962383.16647  -2293399.11945  23290655.598    23290657.9004   23290678.3974
       160.0004        162.0004
 -11358716.72148  -8835897.33846  22540309.745    22540309.6174   22540317.6934
       180.0004        181.0004
  -1476092.06547  -1141974.82245  23633378.016    23633378.4104   23633384.4434
       149.0004        152.0004
 -21434507.27249 -16681561.97147  20771324.383    20771325.1304   20771328.7664
       206.0004        206.0004
 -11042722.96649  -8588827.97847  22631456.229    22631456.7094   22631466.0914
       200.0004        200.0004
  -5797922.54747  -4504027.64545  23497768.796    23497769.9174   23497776.1174
       155.0004        156.0004
 -11652927.29748  -8866612.95746  21840161.883    21840161.5364   21840166.8004
       186.0004        186.0004
 -18985980.57348 -14780917.29147  21212037.040    21212037.3034   21212045.8444
       194.0004        194.0004
  -9169783.56648  -7103799.48346  22829113.755    22829114.7474   22829120.1264
       174.0004        175.0004
 21  2  3  0 20 30.0000000  0 10G09G14G30G28G07G08G04G21G01G17
 -13495558.26449 -10485342.10547  21793580.982    21793581.7974   21793588.4924
       199.0004        199.0004
  -2988564.53147  -2313800.13746  23285675.257    23285675.2524   23285695.5614
       162.0004        164.0004
 -11444904.95148  -8903056.96446  22523908.765    22523909.0194   22523916.1654
       179.0004        178.0004
  -1491041.93647  -1153624.04445  23630533.958    23630533.8714   23630540.4214
       149.0004        153.0004
 -21490571.31349 -16725248.22147  20760655.176    20760655.7474   20760660.3834
       206.0004        206.0004
 -10949997.80549  -8516574.60347  22649102.562    22649102.6304   22649111.4354
       201.0004        202.0004
  -5699528.27247  -4427356.77745  23516493.572    23516494.0934   23516501.0864
       154.0004        155.0004
 -11629525.44548  -8848377.71646  21844615.352    21844615.0214   21844620.0794
       185.0004        185.0004
 -19035233.02848 -14819295.80547  21202663.586    21202664.1174   21202672.6254
       193.0004        192.0004
  -9241784.96948  -7159904.42446  22815412.703    22815413.4214   22815419.1584
       174.0004        177.0004
 21  2  3  0 21  0.0000000  0 10G09G14G30G28G07G08G04G21G01G17
 -13428518.04349 -10433102.96947  21806339.356    21806339.3984   21806345.3714
       198.0004        198.0004
  -3014764.68847  -2334215.77846  23280688.376    23280689.5784   23280709.3324
       162.0004        164.0004
 -11530997.75348  -8970142.24846  22507525.913    22507525.8714   22507532.8844
       178.0004        179.0004
  -1506003.37447  -1165282.27745  23627687.643    23627687.6794   23627691.6164
       151.0004        154.0004
 -21546314.39049 -16768684.38047  20750047.208    20750048.3324   20750052.6744
       206.0004        206.0004
 -10857179.03349  -8444248.27247  22666765.422    22666765.1454   22666773.3864
       201.0004        201.0004
  -5601132.60547  -4350684.84245  23535218.405    23535217.9594   23535224.9314
       154.0004        156.0004
 -11605626.61848  -8829755.23146  21849163.032    21849162.6984   21849167.6704
       186.0004        185.0004
 -19084059.01148 -14857342.00447  21193373.016    21193373.9844   21193381.3614
       193.0004        194.0004
  -9313413.63148  -7215718.92546  22801782.521    22801782.6494   22801788.5574
       176.0004        178.0004
 21  2  3  0 21 30.0000000  0 10G09G14G30G28G07G08G04G21G01G17
 -13361199.30249 -10380646.81647  21819148.920    21819149.1624   21819156.5004
       198.0004        198.0004
  -3040984.35747  -2354646.68346  23275699.778    23275700.8754   23275719.4674
       162.0004        163.0004
 -11616992.42948  -9037151.07246  22491161.936    22491162.1574   22491168.9554
       179.0004        180.0004
  -1520977.89447  -1176950.73845  23624837.159    23624837.8754   23624841.9544
       151.0004        153.0004
 -21601733.81049 -16811868.34647  20739502.065    20739502.1474   20739506.7734
       206.0004        206.0004
 -10764268.51449  -8371850.49047  22684444.156    22684444.6904   22684453.4354
       200.0004        199.0004
  -5502738.02447  -4274013.77145  23553941.469    23553942.0214   23553948.7564
       155.0004        157.0004
 -11581230.25948  -8810745.07046  21853805.309    21853805.2394   21853809.8674
       185.0004        185.0004
 -19132455.38748 -14895053.44247  21184163.986    21184164.2994   21184172.0284
       194.0004        195.0004
  -9384667.82548  -7271241.64846  22788222.840    22788223.5254   22788229.9784
       176.0004        176.0004
 21  2  3  0 22  0.0000000  0 10G09G14G30G28G07G08G04G21G01G17
 -13293604.55449 -10327975.59547  21832010.955    21832011.5704   21832019.0494
       197.0004        197.0004
  -3067224.03947  -2375093.16746  23270707.186    23270706.7964   23270726.6204
       163.0004        166.0004
 -11702885.98248  -9104081.10346  22474816.841    22474816.4854   22474823.1554
       180.0004        181.0004
  -1535966.21547  -1188629.91045  23621985.825    23621985.6094   23621990.3824
       151.0004        154.0004
 -21656826.14249 -16854797.44147  20729018.191    20729019.1644   20729023.1304
       206.0004        207.0004
 -10671268.38449  -8299382.87547  22702141.467    22702142.1204   22702151.4624
       198.0004        198.0004
  -5404346.75747  -4197345.27545  23572664.542    23572664.8154   23572672.6104
       156.0004        158.0004
 -11556336.24148  -8791347.11246  21858543.783    21858542.9054   21858547.5554
       186.0004        186.0004
 -19180418.79348 -14932427.50747  21175036.215    21175036.7144   21175045.1374
       194.0004        195.0004
  -9455545.99548  -7326471.36846  22774735.985    22774736.5514   22774741.6094
       175.0004        175.0004
 21  2  3  0 22 30.0000000  0 10G09G14G30G28G07G08G04G21G01G17
 -13225736.76849 -10275091.60947  21844926.159    21844926.1214   21844933.8864
       195.0004        195.0004
  -3093484.84048  -2395556.11746  23265709.851    23265710.6204   23265729.8344
       166.0004        167.0004
 -11788676.08348  -9170930.50846  22458491.170    22458490.7034   22458497.9654
       180.0004        180.0004
  -1550969.95647  -1200321.09545  23619131.101    23619130.2884   23619136.0134
       151.0004        154.0004
 -21711588.76449 -16897469.61847  20718596.918    20718597.6294   20718601.9524
       206.0004        207.0004
 -10578181.89149  -8226847.94847  22719856.023    22719856.0604   22719865.5334
       198.0004        199.0004
  -5305961.50047  -4120681.44245  23591386.549    23591387.2064   23591393.8514
       154.0004        155.0004
 -11530944.74148  -8771561.51046  21863374.640    21863374.1024   21863379.9334
       186.0004        186.0004
 -19227946.44249 -14969462.01747  21165991.945    21165992.9734   21166000.9534
       195.0004        196.0004
  -9526046.94248  -7381407.15346  22761319.650    22761319.6704   22761324.8774
       175.0004        176.0004
 21  2  3  0 23  0.0000000  0 10G09G14G30G28G07G08G04G21G01G17
 -13157599.54048 -10221997.67447  21857891.918    21857892.1774   21857900.7164
       194.0004        194.0004
  -3119768.31448  -2416036.69946  23260707.417    23260708.2784   23260727.6444
       166.0004        166.0004
 -11874360.91948  -9237697.87846  22442185.501    22442185.3854   22442192.8864
       179.0004        180.0004
  -1565990.80047  -1212025.64145  23616270.878    23616271.2264   23616276.8084
       152.0004        155.0004
 -21766019.41049 -16939883.10347  20708239.480    20708239.8194   20708244.1554
       206.0004        207.0004
 -10485012.00449  -8154248.05247  22737585.481    22737585.5884   22737595.5854
       199.0004        199.0004
  -5207585.64147  -4044024.95345  23610107.553    23610107.6574   23610113.7404
       153.0004        155.0004
 -11505056.49348  -8751388.83246  21868301.388    21868300.4354   21868305.1834
       185.0004        185.0004
 -19275036.15249 -15006155.27347  21157031.740    21157032.0674   21157039.9764
       196.0004        196.0004
  -9596170.01548  -7436048.47846  22747975.430    22747976.3384   22747981.5494
       175.0004        178.0004
 21  2  3  0 23 30.0000000  0 10G09G14G30G28G07G08G04G21G01G17
 -13089194.11748 -10168694.76247  21870907.557    21870908.3874   21870917.5114
       193.0004        193.0004
  -3146073.71648  -2436534.36946  23255702.203    23255704.0544   23255722.5584
       166.0004        168.0004
 -11959936.15348  -9304379.87246  22425901.399    22425901.5454   22425908.3904
       179.0004        180.0004
  -1581028.62547  -1223743.38445  23613411.130    23613410.8114   23613416.2374
       153.0004        155.0004
 -21820113.48449 -16982034.32947  20697945.488    20697946.3014   20697950.8324
       206.0004        207.0004
 -10391759.44249  -8081583.71947  22755330.540    22755331.0864   22755340.4764
       199.0004        199.0004
  -5109220.04147  -3967376.46245  23628824.563    23628826.0554   23628832.1134
       153.0004        156.0004
 -11478669.74348  -8730827.71146  21873321.879    21873321.3964   21873326.3764
       185.0004        185.0004
 -19321683.37949 -15042503.74347  21148154.814    21148155.5154   21148163.6724
       196.0004        197.0004
  -9665912.23948  -7490393.04346  22734705.160    22734704.7254   22734709.7644
       176.0004        177.0004
 21  2  3  0 24  0.0000000  0 10G09G14G30G28G07G08G04G21G01G17
 -13020524.89148 -10115186.29747  21883975.265    21883975.7344   21883983.9094
       192.0004        191.0004
  -3172403.41348  -2457050.97846  23250691.604    23250692.5854   23250712.2774
       167.0004        168.0004
 -12045400.85048  -9370975.71946  22409638.288    22409637.7054   22409643.9944
       179.0004        180.0004
  -1596086.55247  -1235476.77045  23610545.596    23610544.3354   23610549.5624
       153.0004        155.0004
 -21873869.98049 -17023922.50647  20687716.598    20687716.9794   20687720.9114
       207.0004        207.0004
 -10298428.03749  -8008857.94447  22773092.517    22773091.9974   22773100.6914
       199.0004        198.0004
  -5010868.89747  -3890739.22845  23647541.663    23647541.7904   23647549.1554
       154.0004        156.0004
 -11451785.80048  -8709879.16946  21878437.891    21878437.4054   21878442.1604
       185.0004        185.0004
 -19367886.73649 -15078506.33447  21139362.346    21139363.0344   21139370.9094
       197.0004        197.0004
  -9735273.89748  -7544441.07046  22721504.778    22721505.4364   22721511.1664
       177.0004        178.0004
 21  2  3  0 24 30.0000000  0 10G09G14G30G28G07G08G04G21G01G17
 -12951594.40048 -10061474.23747  21897092.402    21897093.6044   21897101.6114
       192.0004        194.0004
  -3198757.93448  -2477586.93246  23245677.629    23245677.7684   23245698.0544
       168.0004        169.0004
 -12130752.06348  -9437483.13446  22393396.610    22393396.4064   22393402.7694
       180.0004        181.0004
  -1611165.40647  -1247226.48045  23607676.163    23607675.7954   23607680.8574
       155.0004        158.0004
 -21927285.41249 -17065544.91047  20677551.127    20677552.1974   20677556.1214
       207.0004        207.0004
 -10205020.36149  -7936072.74347  22790866.631    22790866.5764   22790875.6324
       196.0004        195.0004
  -4912534.43247  -3814114.96045  23666253.002    23666253.9984   23666260.2244
       153.0004        155.0004
 -11424404.90648  -8688543.38546  21883648.296    21883648.1454   21883653.0344
       185.0004        184.0004
 -19413643.03949 -15114160.57447  21130654.849    21130656.2944   21130663.7644
       197.0004        198.0004
  -9804253.41448  -7598191.29846  22708379.371    22708379.6834   22708384.0674
       177.0004        177.0004
 21  2  3  0 25  0.0000000  0 10G09G14G30G28G07G08G04G21G01G17
 -12882405.90148 -10007561.13247  21910260.461    21910260.3664   21910268.2374
       194.0004        196.0004
  -3225138.47448  -2498143.14046  23240656.587    23240657.7554   23240677.4024
       168.0004        168.0004
 -12215987.51648  -9503900.36046  22377176.138    22377177.1604   22377182.8104
       180.0004        182.0004
  -1626266.56547  -1258993.59045  23604801.596    23604801.5234   23604807.4814
       155.0004        156.0004
 -21980357.72349 -17106899.95347  20667451.998    20667452.5474   20667457.3154
       207.0004        207.0004
 -10111538.91849  -7863230.06947  22808656.326    22808656.3104   22808664.0484
       195.0004        195.0004
  -4814219.50847  -3737505.94445  23684961.316    23684962.2064   23684969.5094
       153.0004        156.0004
 -11396527.08748  -8666820.39946  21888953.822    21888953.1054   21888958.1234
       184.0004        184.0004
 -19458949.68949 -15149464.43747  21122034.300    21122034.4494   21122042.4934
       198.0004        198.0004
  -9872850.16048  -7651643.27546  22695324.325    22695325.1754   22695331.2544
       175.0004        176.0004
 21  2  3  0 25 30.0000000  0 10G09G14G30G28G07G08G04G21G01G17
 -12812961.54149  -9953448.64547  21923475.628    21923476.1274   21923482.6974
       196.0004        197.0004
  -3251545.11448  -2518719.71646  23235631.636    23235632.8324   23235651.3204
       168.0004        169.0004
 -12301103.88748  -9570224.79546  22360979.636    22360979.3624   22360986.5704
       182.0004        184.0004
  -1641390.90347  -1270778.75145  23601923.259    23601923.7824   23601928.5104
       154.0004        156.0004
 -22033082.83949 -17147984.45947  20657419.402    20657419.9804   20657423.8414
       207.0004        208.0004
 -10017985.40449  -7790331.22747  22826458.226    22826457.9224   22826466.6494
       195.0004        195.0004
  -4715926.05547  -3660913.67445  23703664.839    23703666.2874   23703675.0224
       154.0004        156.0004
 -11368152.14748  -8644710.03846  21894352.018    21894351.8784   21894357.5524
       184.0004        184.0004
 -19503803.20249 -15184415.21147  21113498.659    21113499.4314   21113507.0574
       198.0004        198.0004
  -9941061.98248  -7704795.34846  22682344.989    22682345.0244   22682350.6104
       175.0004        176.0004
 21  2  3  0 26  0.0000000  0 10G09G14G30G28G07G08G04G21G01G17
 -12743263.63449  -9899138.57847  21936738.842    21936739.3264   21936745.6784
       198.0004        198.0004
  -3277978.14948  -2539316.87246  23230601.321    23230601.3144   23230621.1284
       168.0004        167.0004
 -12386098.00548  -9636453.95246  22344806.209    22344806.3784   22344812.2624
       185.0004        185.0004
  -1656538.88247  -1282582.31545  23599042.391    23599040.7554   23599045.5454
       154.0004        157.0004
 -22085457.59749 -17188795.95447  20647452.104    20647452.8894   20647457.1284
       207.0004        208.0004
  -9924361.89349  -7717377.82847  22844273.729    22844273.9524   22844282.3044
       195.0004        195.0004
